Location,Search Keyword,Segment,NAICS Code,Business Name,Address,Phone Number,Website,Latitude,Longitude,Rating,User Ratings,Place ID,Types
"Attalla, AL",ethnic store,retail,,Agricola Shopping Center,"301 N 12th St, Gadsden, AL 35901, USA",,,34.025011,-86.021675,3.9,711.0,ChIJt5lKjCI8iogRDYP4F7cKrPs,"shopping_mall, point_of_interest, establishment"
"Attalla, AL",ethnic store,retail,448140,Jireh's Boutique Gifts & Herbs,"546 Broad St, Gadsden, AL 35901, USA",(256) 543-0377,http://www.jirehboutique.com/,34.014198,-86.00632139999999,4.9,21.0,ChIJqeYAO6Q-iogR5O1FMpl7fms,"clothing_store, point_of_interest, store, establishment"
"Attalla, AL",ethnic store,retail,445110,Rainbow City International Market,"3424 Rainbow Dr, Rainbow City, AL 35906, USA",(256) 442-3730,https://m.facebook.com/rainbowcityim/,33.9554015,-86.0407547,4.5,166.0,ChIJZUU_L7M7iogRRVE5WDVoR68,"grocery_or_supermarket, point_of_interest, store, food, establishment"
"Attalla, AL",grocery store,retail,445110,Fresh Value Alabama City,"2519 W Meighan Blvd, Gadsden, AL 35904, USA",(256) 257-1590,https://fresh-value.com/,34.0242424,-86.04405969999999,4.3,505.0,ChIJae8Nu089iogRtqOEpu30FZk,"grocery_or_supermarket, store, food, point_of_interest, establishment"
"Attalla, AL",grocery store,retail,445110,Piggly Wiggly,"250 AL-75 North, Albertville, AL 35950, USA",(256) 878-2075,https://www.pigglywiggly.com/,34.2780818,-86.2010675,4.3,847.0,ChIJy5_bQ9EciogR4nYBw_uM1bc,"grocery_or_supermarket, supermarket, store, food, point_of_interest, establishment"
"Attalla, AL",grocery store,retail,445110,Publix Super Market at Guntersville Landing,"2300 Gunter Ave, Guntersville, AL 35976, USA",(256) 571-2501,https://www.publix.com/?setstorenumber=1462&utm_medium=maps&utm_source=extendednetwork&utm_content=psm_website_url,34.3338462,-86.3164911,4.7,1826.0,ChIJTXT15RL5iYgRhG-yC8JciyY,"supermarket, florist, liquor_store, bakery, grocery_or_supermarket, store, food, point_of_interest, establishment"
"Attalla, AL",grocery store,retail,445110,Food City,"7200 US-431, Albertville, AL 35950, USA",(256) 744-7255,https://www.foodcity.com/stores/store-details/501/?utm_source=google&utm_medium=organic&utm_campaign=google-business&utm_content=501-grocery,34.2777866,-86.2042245,4.5,1303.0,ChIJC7To3U4DiogRRYxFd-Lyslg,"grocery_or_supermarket, florist, supermarket, bakery, store, food, point_of_interest, establishment"
"Attalla, AL",grocery store,retail,445110,Ingles Markets,"1550 W Main St #601, Centre, AL 35960, USA",(256) 927-6461,https://www.ingles-markets.com/storelocate/storeinfo.php?storenum=601,34.158634,-85.702179,4.4,722.0,ChIJo-Xv0KRmiogR7jC24X-gJOU,"grocery_or_supermarket, pharmacy, supermarket, bakery, health, store, food, point_of_interest, establishment"
"Attalla, AL",grocery store,retail,445110,Johnson's Giant Food,"1720 E Meighan Blvd, Gadsden, AL 35903, USA",(256) 492-2244,http://johnsonsgiantfood.com/,33.9976992,-85.9668464,4.5,1722.0,ChIJgxJpxNQ4iogRxiqboCO-g7Y,"grocery_or_supermarket, supermarket, store, food, point_of_interest, establishment"
"Attalla, AL",grocery store,retail,445110,Alexandria Foodland,"85 Big Valley Dr, Alexandria, AL 36250, USA",(256) 847-8466,https://alexandriafoodland.com/,33.7811686,-85.898634,4.4,842.0,ChIJp5uYHFFKiogR37xgwqd5fIw,"grocery_or_supermarket, supermarket, store, food, point_of_interest, establishment"
"Attalla, AL",grocery store,retail,445110,Piggly Wiggly,"1455 Sunset Dr, Guntersville, AL 35976, USA",(256) 582-2865,https://www.pigglywiggly.com/store-locations/alabama/,34.3524716,-86.31424,4.4,652.0,ChIJS1-vKDj5iYgR4l8du03dY2s,"grocery_or_supermarket, supermarket, store, food, point_of_interest, establishment"
"Attalla, AL",grocery store,retail,445110,Johnson's Giant Food,"600 Walnut St, Gadsden, AL 35901, USA",(256) 547-2528,http://johnsonsgiantfood.com/,34.0107538,-86.0086657,4.5,1087.0,ChIJ00TAIKY-iogR4x9FLaXgzZM,"grocery_or_supermarket, supermarket, store, food, point_of_interest, establishment"
"Attalla, AL",grocery store,retail,445110,Publix Super Market at Shoppes at Rainbow Landing,"128 W Grand Ave, Rainbow City, AL 35906, USA",(256) 442-2509,https://www.publix.com/?setstorenumber=1476&utm_medium=maps&utm_source=extendednetwork&utm_content=psm_website_url,33.9552368,-86.0439566,4.6,1700.0,ChIJN7RNVE06iogR35ZduE84BKs,"supermarket, florist, liquor_store, bakery, grocery_or_supermarket, store, food, point_of_interest, establishment"
"Attalla, AL",grocery store,retail,445110,Price Less IGA,"929 2nd Ave E, Oneonta, AL 35121, USA",(256) 875-3080,http://pricelessiga.com/,33.9554398,-86.46395489999999,4.3,716.0,ChIJIzisi_GQiYgReCH3qPoReic,"grocery_or_supermarket, supermarket, bakery, store, food, point_of_interest, establishment"
"Attalla, AL",grocery store,retail,445110,Piggly Wiggly,"10339 AL-168, Boaz, AL 35957, USA",(256) 593-7312,https://www.pigglywiggly.com/,34.1994022,-86.1612289,4.3,725.0,ChIJAwEDI-wbiogRG1bu6rR9T2I,"grocery_or_supermarket, supermarket, store, food, point_of_interest, establishment"
"Attalla, AL",grocery store,retail,445110,Pic'n Sav,"1470 W Main St L, Centre, AL 35960, USA",(256) 927-5661,http://pic-n-sav-centre.keeq.io/,34.1580453,-85.7001729,4.3,634.0,ChIJLS3SKaVmiogRE1hJaetKLeU,"grocery_or_supermarket, supermarket, store, food, point_of_interest, establishment"
"Attalla, AL",grocery store,retail,445110,Piggly Wiggly,"594 S Valley Ave, Collinsville, AL 35961, USA",(256) 524-2141,https://www.pigglywiggly.com/store-locations/alabama/,34.2569413,-85.8677295,4.2,307.0,ChIJ3-JjSfRtiogRmF5xyEVvLZk,"grocery_or_supermarket, supermarket, store, food, point_of_interest, establishment"
"Attalla, AL",grocery store,retail,445110,Johnson's Giant Food,"1431 3rd St SW, Attalla, AL 35954, USA",(256) 538-7412,http://www.johnsonsgiantfood.com/,34.0061111,-86.1127778,4.6,1474.0,ChIJNY8AN7Q8iogR6vEv0qyGuaA,"grocery_or_supermarket, supermarket, store, food, point_of_interest, establishment"
"Attalla, AL",grocery store,retail,445110,Guntersville Foodland Plus,"14214 Southgate Plaza, Guntersville, AL 35976, USA",(256) 582-3470,https://www.foodlandgrocery.com/store-locations/guntersville-foodland-plus/?utm_source=gbp&utm_medium=organic,34.320854,-86.31056439999999,4.4,530.0,ChIJ0QwfxQn5iYgRazEGY01n2NU,"supermarket, grocery_or_supermarket, store, food, point_of_interest, establishment"
"Attalla, AL",grocery store,retail,445110,Piggly Wiggly,"35771 US-231, Ashville, AL 35953, USA",(205) 594-3670,https://www.pigglywiggly.com/,33.8468895,-86.2736395,4.2,451.0,ChIJrcZM-0OHiYgRYgi_ifvO3zA,"grocery_or_supermarket, supermarket, store, food, point_of_interest, establishment"
"Attalla, AL",grocery store,retail,452210,Walmart Supercenter,"340 E Meighan Blvd, Gadsden, AL 35903, USA",(256) 547-2637,https://www.walmart.com/store/301-gadsden-al/?veh=seo_loc,34.0125274,-85.9873886,3.9,4469.0,ChIJA-5bZMY-iogRnVUQpUd3mVo,"department_store, hardware_store, bakery, electronics_store, furniture_store, clothing_store, grocery_or_supermarket, home_goods_store, store, food, point_of_interest, establishment"
"Attalla, AL",grocery store,retail,445110,Piggly Wiggly Altoona,"87354 US-278, Altoona, AL 35952, USA",(205) 466-7972,https://www.pigglywiggly.com/store-locations/alabama/,34.1165525,-86.39187849999999,4.3,339.0,ChIJp38BjcPyiYgR4sybOdoMeJQ,"grocery_or_supermarket, supermarket, store, food, point_of_interest, establishment"
"Attalla, AL",grocery store,retail,445110,Food Valu,"9405 AL-75, Douglas, AL 35964, USA",(256) 593-0151,http://douglasfoodvalu.com/,34.1694444,-86.33027779999999,4.4,380.0,ChIJ_c-HMAz0iYgRREqS_PAZDUU,"supermarket, grocery_or_supermarket, store, food, point_of_interest, establishment"
"Attalla, AL",grocery store,retail,445110,Foodland Plus,"313 Sand Mountain Dr, Albertville, AL 35950, USA",(256) 891-0390,https://www.foodlandgrocery.com/store-locations/albertville-foodland-plus/?utm_source=gbp&utm_medium=organic,34.264958,-86.2066016,4.5,1440.0,ChIJK4wyftQciogRxoMpooCAYY4,"grocery_or_supermarket, store, food, point_of_interest, establishment"
"Attalla, AL",grocery store,retail,452210,Walmart Supercenter,"11697 US-431, Guntersville, AL 35976, USA",(256) 878-0685,https://www.walmart.com/store/681-guntersville-al/?veh=seo_loc,34.2996711,-86.27897639999999,3.9,4077.0,ChIJA6DXLUL4iYgRPcDT8AHkhDs,"department_store, hardware_store, bakery, electronics_store, furniture_store, clothing_store, grocery_or_supermarket, home_goods_store, store, food, point_of_interest, establishment"
"Attalla, AL",grocery store,retail,445110,Geraldine Food Valu,"41847 AL-75, Geraldine, AL 35974, USA",(256) 659-4570,http://geraldine-valu.edan.io/,34.3573873,-86.01208749999999,4.0,238.0,ChIJG6tIIFUJiogRsADuw7u5Hqs,"grocery_or_supermarket, store, food, point_of_interest, establishment"
"Attalla, AL",grocery store,retail,445110,Food City,"951 Rainbow Dr, Gadsden, AL 35901, USA",(256) 467-0364,https://www.foodcity.com/stores/store-details/502/?utm_source=google&utm_medium=organic&utm_campaign=google-business&utm_content=502-grocery,33.9966933,-86.00660250000001,4.3,227.0,ChIJpfDtbwg5iogReCGWUEQxRpM,"grocery_or_supermarket, florist, supermarket, bakery, store, food, point_of_interest, establishment"
"Attalla, AL",grocery store,retail,445110,Patterson Grocery,"1220 Appalachian Hwy, Gadsden, AL 35901, USA",(256) 547-3805,https://yohoho3.org/patterson-grocery,34.0930252,-85.89159389999999,4.3,417.0,ChIJZe5ZVoZqiogRG9UoAXeb2Qc,"grocery_or_supermarket, store, food, point_of_interest, establishment"
"Attalla, AL",grocery store,retail,445110,Johnson's Giant Foods,"815 Pelham Rd S, Jacksonville, AL 36265, USA",(256) 600-2900,https://www.johnsonsgiantfood.com/attalla/jacksonville/,33.8053772,-85.76292869999999,4.5,803.0,ChIJdSujSGpTiogRQl2ieddBWXU,"grocery_or_supermarket, supermarket, store, food, point_of_interest, establishment"
"Attalla, AL",grocery store,retail,452210,Walmart Supercenter,"1950 W Main St, Centre, AL 35960, USA",(256) 927-9900,https://www.walmart.com/store/5126-centre-al/?veh=seo_loc,34.1626828,-85.7126002,4.1,2455.0,ChIJOXfCYpxmiogREt7TxwmSadE,"department_store, hardware_store, bakery, electronics_store, furniture_store, clothing_store, grocery_or_supermarket, home_goods_store, store, food, point_of_interest, establishment"
"Attalla, AL",grocery store,retail,445110,Pic ‘n Sav,"2495 US-431, Anniston, AL 36206, USA",(256) 403-6363,https://www.facebook.com/sakspns/,33.7161967,-85.8550937,4.3,736.0,ChIJP9EiKw21i4gRU3N15fffYog,"grocery_or_supermarket, supermarket, store, food, point_of_interest, establishment"
"Attalla, AL",grocery store,retail,445110,Boaz Foodland,"9464 AL-168, Boaz, AL 35957, USA",(256) 593-7206,https://www.foodlandgrocery.com/store-locations/boaz-foodland/?utm_source=gbp&utm_medium=organic,34.1979252,-86.17660339999999,4.3,515.0,ChIJ-anR6gkciogRft_It7tfUDE,"grocery_or_supermarket, supermarket, store, food, point_of_interest, establishment"
"Attalla, AL",grocery store,retail,445110,Food Barn,"43 Providence Rd, Ragland, AL 35131, USA",(205) 472-2178,,33.7446467,-86.1448798,4.5,254.0,ChIJYe7i39EsiogRnJ7rk7urSuo,"grocery_or_supermarket, supermarket, store, food, point_of_interest, establishment"
"Attalla, AL",grocery store,retail,445110,Food Outlet,"120 Spring Branch Dr, Alexandria, AL 36250, USA",(256) 770-4248,https://www.shopfoodoutlet.com/,33.7697226,-85.8919058,4.3,284.0,ChIJu_8TwOJKiogRbinXLfqFSCM,"grocery_or_supermarket, supermarket, store, food, point_of_interest, establishment"
"Attalla, AL",grocery store,retail,445110,DG Market,"87000 US-278, Snead, AL 35952, USA",(256) 673-2670,https://www.dollargeneral.com/store-directory/al/snead/1671,34.1199524,-86.3967424,4.2,225.0,ChIJccQZjcPyiYgRiHg9lsoLPHY,"grocery_or_supermarket, convenience_store, drugstore, home_goods_store, health, store, food, point_of_interest, establishment"
"Attalla, AL",grocery store,retail,452210,Walmart Supercenter,"1972 Hwy 431, Boaz, AL 35957, USA",(256) 593-0195,https://www.walmart.com/store/298-boaz-al/?veh=seo_loc,34.2147228,-86.153328,4.1,3830.0,ChIJV1PNlZcbiogR-xlDxiJ10-8,"department_store, hardware_store, bakery, electronics_store, furniture_store, clothing_store, grocery_or_supermarket, home_goods_store, store, food, point_of_interest, establishment"
"Attalla, AL",grocery store,retail,445110,Edwards Grocery,"6726 AL-204, Jacksonville, AL 36265, USA",(256) 435-4447,,33.8297641,-85.8095302,4.7,229.0,ChIJE6lpcIlOiogRZjv-jkIrTTQ,"grocery_or_supermarket, store, food, point_of_interest, establishment"
"Attalla, AL",grocery store,retail,445110,Fants Foodland,"14697 AL-68, Crossville, AL 35962, USA",(256) 528-7155,https://www.foodlandgrocery.com/store-locations/fants-foodland/,34.2873085,-85.9958178,4.4,201.0,ChIJP_4VCeoNiogRi1JyLgaTOdc,"grocery_or_supermarket, store, food, point_of_interest, establishment"
"Attalla, AL",grocery store,retail,445110,Three Way Grocery,"5270 Martling Rd, Albertville, AL 35951, USA",(256) 660-1702,,34.345992,-86.1661306,4.4,151.0,ChIJvdYbtQ8EiogRvCVQjfOPkVo,"grocery_or_supermarket, atm, finance, store, food, point_of_interest, establishment"
"Attalla, AL",grocery store,retail,452210,Walmart Supercenter,"1625 Pelham Rd S, Jacksonville, AL 36265, USA",(256) 435-8100,https://www.walmart.com/store/300-jacksonville-al/?veh=seo_loc,33.7881838,-85.7650541,4.0,2631.0,ChIJA9Ok0nRSiogRD06SXxxh9yo,"department_store, hardware_store, bakery, electronics_store, furniture_store, clothing_store, grocery_or_supermarket, home_goods_store, store, food, point_of_interest, establishment"
"Attalla, AL",grocery store,retail,452210,Walmart Supercenter,"973 Gilbert Ferry Rd SE, Attalla, AL 35954, USA",(256) 538-3811,https://www.walmart.com/store/316-attalla-al/?veh=seo_loc,33.9937374,-86.09368599999999,4.0,4092.0,ChIJo8sQLVM7iogR8nyVTPWdogw,"department_store, hardware_store, bakery, electronics_store, furniture_store, clothing_store, grocery_or_supermarket, home_goods_store, store, food, point_of_interest, establishment"
"Attalla, AL",grocery store,retail,445110,Duh,"1715 Sand Rock Ave, Sand Rock, AL 35983, USA",(256) 523-3426,,34.2382443,-85.7672788,4.5,65.0,ChIJN0AkevVviogRH0BhJNqUkVo,"grocery_or_supermarket, store, food, point_of_interest, establishment"
"Attalla, AL",grocery store,retail,445120,Dollar General,"1407 S 11th St, Gadsden, AL 35904, USA",(256) 456-5385,https://www.dollargeneral.com/store-directory/al/gadsden/7417,33.9970171,-86.0275506,3.8,430.0,ChIJj8jEJfQ7iogRilSkGsS-Dfg,"convenience_store, drugstore, grocery_or_supermarket, health, store, food, point_of_interest, establishment"
"Attalla, AL",grocery store,retail,452210,Walmart Supercenter,"1450 N Brindlee Mountain Pkwy, Arab, AL 35016, USA",(256) 586-8168,https://www.walmart.com/store/306-arab-al/?veh=seo_loc,34.3417674,-86.50058279999999,3.9,2578.0,ChIJRYLP6J3miYgRQIWAypwSLuQ,"department_store, hardware_store, bakery, electronics_store, furniture_store, clothing_store, grocery_or_supermarket, home_goods_store, store, food, point_of_interest, establishment"
"Attalla, AL",grocery store,retail,452210,Walmart Supercenter,"5560 McClellan Blvd, Anniston, AL 36206, USA",(256) 820-3326,https://www.walmart.com/store/329-anniston-al/?veh=seo_loc,33.7200297,-85.8201445,3.9,4019.0,ChIJqVWG2jGzi4gRn5-0SkxCslY,"department_store, hardware_store, bakery, electronics_store, furniture_store, clothing_store, grocery_or_supermarket, home_goods_store, store, food, point_of_interest, establishment"
"Attalla, AL",grocery store,retail,452210,Walmart Supercenter,"2453 2nd Ave E, Oneonta, AL 35121, USA",(205) 625-6474,https://www.walmart.com/store/315-oneonta-al/?veh=seo_loc,33.9710849,-86.4467212,4.0,2412.0,ChIJyWCFFLKRiYgRg3XKgnJJhAE,"department_store, hardware_store, bakery, electronics_store, furniture_store, clothing_store, grocery_or_supermarket, home_goods_store, store, food, point_of_interest, establishment"
"Attalla, AL",grocery store,retail,452210,Walmart Supercenter,"160 Springville Sta Blvd, Springville, AL 35146, USA",(205) 467-6656,https://www.walmart.com/store/3386-springville-al/?veh=seo_loc,33.7796448,-86.43296509999999,4.2,2619.0,ChIJ9cjeviSdiYgROdAhYZWJFPo,"department_store, hardware_store, bakery, electronics_store, furniture_store, clothing_store, grocery_or_supermarket, home_goods_store, store, food, point_of_interest, establishment"
"Attalla, AL",grocery store,retail,445110,Holders Grocery,"3737 Roy Webb Rd, Jacksonville, AL 36265, USA",(256) 435-6935,http://holders-grocery-jacksonville.keeq.io/,33.8885305,-85.74365569999999,4.4,41.0,ChIJpY8np21QiogRFNApUJ0Du4E,"grocery_or_supermarket, store, food, point_of_interest, establishment"
"Attalla, AL",grocery store,retail,445120,Dollar General,"141 Co Rd 12, Odenville, AL 35120, USA",(205) 360-0651,https://www.dollargeneral.com/store-directory/al/odenville/13519,33.6740732,-86.48949370000001,4.0,264.0,ChIJBX5ir712iYgRpEGE3h35tGs,"convenience_store, drugstore, grocery_or_supermarket, health, store, food, point_of_interest, establishment"
"Attalla, AL",grocery store,retail,445110,Mark's Grocery,"12005 AL-9, Centre, AL 35960, USA",(256) 927-5512,,34.1215636,-85.662611,4.7,97.0,ChIJi6zd2x9hiogRqSter0x8bR4,"grocery_or_supermarket, store, food, point_of_interest, establishment"
"Attalla, AL",grocery store,retail,445110,Da Oak,"209 Oakleigh Dr, Gadsden, AL 35901, USA",,,34.0488827,-85.95743709999999,4.1,29.0,ChIJybRfPKQ_iogRdbtukWCHSkg,"supermarket, grocery_or_supermarket, store, food, point_of_interest, establishment"
"Attalla, AL",grocery store,retail,445110,J & S Groce,"2107 AL-205, Albertville, AL 35950, USA",(256) 878-9110,https://www.facebook.com/jsgrocery2404?ref=hl,34.2414757,-86.1764517,4.3,125.0,ChIJlxctmp0ciogRz7JnBRlLpcU,"grocery_or_supermarket, liquor_store, store, food, point_of_interest, establishment"
"Attalla, AL",grocery store,retail,445120,Dollar General,"5698 US-278 E, Hokes Bluff, AL 35903, USA",(256) 459-6299,https://www.dollargeneral.com/store-directory/al/hokes-bluff/4172,33.9869519,-85.8661766,4.1,274.0,ChIJdfmyPrdGiogRmf5KcDJ-bqc,"convenience_store, drugstore, grocery_or_supermarket, health, store, food, point_of_interest, establishment"
"Attalla, AL",grocery store,retail,445110,Buckhorn Marketplace,"364 Buckhorn Cir, Weaver, AL 36277, USA",(256) 403-6068,,33.7818572,-85.81141439999999,4.6,83.0,ChIJvXteTFBMiogRIwGerPir5A0,"grocery_or_supermarket, store, food, point_of_interest, establishment"
"Attalla, AL",grocery store,retail,445110,La Orquidea,"801 Baltimore Ave, Albertville, AL 35950, USA",(256) 891-4880,,34.2533286,-86.1939437,4.1,1110.0,ChIJzxKUFL8ciogR7YytObdGl5U,"grocery_or_supermarket, store, restaurant, food, point_of_interest, establishment"
"Attalla, AL",grocery store,retail,445120,Dollar General,"1311 Noccalula Rd, Gadsden, AL 35904, USA",(256) 459-8565,https://www.dollargeneral.com/store-directory/al/gadsden/8697,34.0366536,-86.0225837,4.0,450.0,ChIJr-z61jE8iogR16HsbeXid7I,"convenience_store, drugstore, grocery_or_supermarket, health, store, food, point_of_interest, establishment"
"Attalla, AL",grocery store,retail,445120,Dollar General,"2610 AL-77, Southside, AL 35907, USA",(256) 439-1272,https://www.dollargeneral.com/store-directory/al/southside/4611,33.9150056,-86.02321119999999,4.2,276.0,ChIJ9drRRxc6iogRiBpZNG1YnHM,"convenience_store, drugstore, grocery_or_supermarket, health, store, food, point_of_interest, establishment"
"Attalla, AL",grocery store,retail,445110,Brand X Foods,"1401 Gunter Ave, Guntersville, AL 35976, USA",(256) 582-6997,,34.3460019,-86.30331020000001,4.6,16.0,ChIJQz3o6iP5iYgROUIRaS8yO4Y,"grocery_or_supermarket, gas_station, store, food, point_of_interest, establishment"
"Attalla, AL",grocery store,retail,445110,Hyatt Grocery,"4143 Nixon Chapel Rd, Horton, AL 35980, USA",(256) 878-5643,https://www.facebook.com/hyattcs/,34.2335631,-86.3419819,4.7,51.0,ChIJD1486NXwiYgRmLBtnbVyiCg,"grocery_or_supermarket, store, restaurant, food, point_of_interest, establishment"
"Attalla, AL",grocery store,retail,445110,4 Way Food Mart & Tobacco Mall,"9722 Co Rd 52, Dawson, AL 35963, USA",(256) 659-2222,,34.3620788,-85.9359334,4.7,21.0,ChIJ5YdmjFELiogRGc3MHjAjNPw,"gas_station, atm, grocery_or_supermarket, meal_takeaway, finance, store, restaurant, food, point_of_interest, establishment"
"Attalla, AL",grocery store,retail,445110,Circle W Marketplace,"7832 AL-77, Ohatchee, AL 36271, USA",(256) 892-2881,https://www.facebook.com/OhatcheeSupermarket/,33.7820888,-86.0367345,3.4,7.0,ChIJVQPGAAAziogR-OSkM3ZOdUQ,"grocery_or_supermarket, store, food, point_of_interest, establishment"
"Attalla, AL",grocery store,retail,445110,E L Green Store,"5600 Nisbet Lake Rd, Jacksonville, AL 36265, USA",(256) 435-6074,,33.8991701,-85.79388209999999,4.8,79.0,ChIJ4fk7O4lPiogRjlfuK1WxI9M,"grocery_or_supermarket, store, food, point_of_interest, establishment"
"Attalla, AL",grocery store,retail,445110,J & M Midway Grocery,"811 Alexandria Rd, Weaver, AL 36277, USA",(256) 820-5186,,33.7534333,-85.8259581,4.4,126.0,ChIJTdgNMOlMiogRB-ySGzAdq4o,"grocery_or_supermarket, gas_station, store, food, point_of_interest, establishment"
"Attalla, AL",indian grocery,retail,445120,The Wooden Indian Hokes Bluff,"2972 Appalachian Hwy, Gadsden, AL 35903, USA",(256) 485-1140,,33.9976928,-85.87241089999999,4.9,8.0,ChIJ7dUT9F9BiogRVLcSb2HpF10,"convenience_store, food, point_of_interest, store, establishment"
"Attalla, AL",indian grocery,retail,445310,Wooden Indian 3,"3010 E Meighan Blvd, Gadsden, AL 35903, USA",(256) 467-4688,,33.9747282,-85.949838,4.8,9.0,ChIJ6WUHfwA5iogR9_FsabYZS5A,"liquor_store, point_of_interest, store, establishment"
"Attalla, AL",retail food,retail,,Rainbow Plaza Shopping Center,"3225 Rainbow Dr, Rainbow City, AL 35906, USA",(859) 291-1133,,33.9622315,-86.0347616,4.2,1180.0,ChIJU1lFZLY7iogRIfZqwef4HTE,"shopping_mall, point_of_interest, establishment"
"Attalla, AL",retail food,retail,,Farm Fresh Foods,"245-269 Grimes Dr, Guntersville, AL 35976, USA",(256) 264-9180,https://www.fsis.usda.gov/inspection/fsis-inspected-establishments/farm-fresh-foods-llc,34.30881460000001,-86.2822041,3.0,159.0,ChIJXwiRT1v4iYgRpfUrnZ0Ku4g,"point_of_interest, establishment"
"Attalla, AL",retail food,retail,445120,JJ's Store,"3400 Alexandria Rd, Anniston, AL 36201, USA",(256) 236-6471,,33.6899817,-85.84720109999999,3.9,22.0,ChIJdxl_dHOzi4gRLYNRqvF0O1w,"convenience_store, store, food, point_of_interest, establishment"
"Attalla, AL",retail food,retail,445120,CORNER FOOD MART,"2275 Forrest Ave, Gadsden, AL 35904, USA",(256) 334-6123,,34.0193588,-86.0369758,3.7,3.0,ChIJy6bvz2s8iogRapY7WnLe-G8,"convenience_store, store, food, point_of_interest, establishment"
"Attalla, AL",retail food,retail,444130,Argo Hardware,"335 US-11, Trussville, AL 35173, USA",(205) 452-2139,http://www.argohardware.com/,33.698315,-86.52212899999999,4.6,215.0,ChIJmad9Gf0MiYgRnE7qbVrzGEU,"hardware_store, convenience_store, gas_station, clothing_store, store, food, point_of_interest, establishment"
"Attalla, AL",retail food,retail,,AlaTrade Foods - Boaz,"695 Henderson Ave W, Boaz, AL 35957, USA",(256) 593-3152,http://www.alatrade.com/,34.219841,-86.18342419999999,2.7,101.0,ChIJ1a21_HsciogRXCKZK6UJ8Os,"store, food, point_of_interest, establishment"
"Attalla, AL",retail food,retail,445120,Sam's Market,"1701 Broadway Ave, Gadsden, AL 35904, USA",(256) 547-2491,,33.9965419,-86.03123389999999,5.0,2.0,ChIJfz_lv_Q7iogR2Q0MqEvGzV4,"convenience_store, gas_station, store, food, point_of_interest, establishment"
"Attalla, AL",retail food,retail,,Cherokee Plaza Shopping Center,"Centre, AL 35960, USA",,,34.1599905,-85.6662836,4.2,101.0,ChIJ____011hiogRoG6lQGzEOEc,"shopping_mall, point_of_interest, establishment"
"Attalla, AL",retail food,retail,,Collinsville Trade Day Flea Market,"1102 S Valley Ave, Collinsville, AL 35961, USA",(256) 524-2127,https://collinsvilletradeday.com/,34.2501252,-85.8702562,4.5,2192.0,ChIJS0SKy_JtiogRvRn9rQvroWM,"point_of_interest, establishment"
"Attalla, AL",retail food,retail,,Pelham Plaza,"Pelham Plaza Shopping Center, 812 Pelham Rd S, Jacksonville, AL 36265, USA",,,33.8061847,-85.7609346,4.2,282.0,ChIJmVvRyw5SiogRLlIF9ESCyUw,"shopping_mall, point_of_interest, establishment"
"Attalla, AL",retail food,retail,445120,Shiloh Farms,"2780 Beulah Rd, Boaz, AL 35957, USA",(256) 281-9843,,34.2427222,-86.1445948,4.5,15.0,ChIJI5nOARobiogRY-S9em3Lt3g,"convenience_store, gas_station, store, food, point_of_interest, establishment"
"Attalla, AL",retail food,retail,,Mitchell Grocery Corporation,"550 Railroad Ave, Albertville, AL 35950, USA",(256) 878-4211,http://mitchellgrocery.com/,34.27865,-86.2142135,3.4,363.0,ChIJJ3s18SkDiogR4Xo_Zl4p2rY,"point_of_interest, food, establishment"
"Attalla, AL",retail food,retail,445110,Wow Discount Store,"416 W Grand Ave, Rainbow City, AL 35906, USA",(256) 467-3501,,33.9640031,-86.0463877,4.6,211.0,ChIJ_____2o7iogR4gj8_IuOrwk,"grocery_or_supermarket, point_of_interest, store, food, establishment"
"Attalla, AL",retail food,retail,722511,Krispy Krunchy Chicken,"2905 E Meighan Blvd, Gadsden, AL 35903, USA",(256) 492-2171,http://www.krispykrunchy.com/,33.974186,-85.952289,4.3,242.0,ChIJp9-GN_05iogRDQLg81pX6hQ,"meal_takeaway, restaurant, point_of_interest, food, establishment"
"Attalla, AL",retail food,retail,445120,Down Town Mini Mart,"300 N Main St, Boaz, AL 35957, USA",(256) 593-8003,,34.2013103,-86.1654405,4.7,26.0,ChIJx1Rte_IbiogRuzBbA2ezTWs,"convenience_store, gas_station, point_of_interest, store, food, establishment"
"Attalla, AL",retail food,retail,445120,Bearcat Express,"101 Main St, Weaver, AL 36277, USA",(256) 403-0820,,33.7509659,-85.8121762,3.8,33.0,ChIJb11g2OBMiogRwKh6dyeMNO8,"convenience_store, gas_station, point_of_interest, store, food, establishment"
"Attalla, AL",retail food,retail,,Gadsden Mall,"1001 Rainbow Dr, Gadsden, AL 35901, USA",(256) 547-0501,https://www.shopgadsdenmall.com/,33.995,-86.0077778,4.0,4000.0,ChIJSfWrklM5iogR93ygVXF2c0E,"shopping_mall, point_of_interest, establishment"
"Attalla, AL",retail food,retail,445120,Valley Food Mart,"6574 Duck Springs Rd, Attalla, AL 35954, USA",(256) 570-0515,,34.1040968,-86.03853649999999,4.8,8.0,ChIJb_SEmjsWiogRFfru7cagITA,"convenience_store, gas_station, car_repair, point_of_interest, store, food, establishment"
"Attalla, AL",retail food,retail,,Mitchell Grocery Warehouse,"Albertville, AL 35951, USA",,,34.2894136,-86.21581019999999,2.8,6.0,ChIJN7vwTuEDiogR17GhwzZ8xmQ,"storage, point_of_interest, establishment"
"Attalla, AL",retail food,retail,,Etowah Crossing Shopping Center,"952 Gilbert Ferry Rd SE, Attalla, AL 35954, USA",,,33.9977469,-86.0948693,4.2,655.0,ChIJmZLqhFQ7iogRXNN5o2LPGio,"shopping_mall, point_of_interest, establishment"
"Attalla, AL",retail food,retail,445120,Murphy USA,"215 E Meighan Blvd, Gadsden, AL 35903, USA",(256) 547-5002,http://www.murphyusa.com/,34.009759,-85.98989379999999,4.0,181.0,ChIJgWhl3sc-iogRcUyVMRfe8Q8,"gas_station, convenience_store, point_of_interest, store, food, establishment"
"Attalla, AL",retail food,retail,445120,Murphy USA,"1625-A Pelham Rd S, Jacksonville, AL 36265, USA",(256) 435-4036,http://www.murphyusa.com/,33.7877686,-85.76211769999999,4.3,66.0,ChIJlVYjAHVSiogRUGMS0H-hjDo,"gas_station, convenience_store, point_of_interest, store, food, establishment"
"Attalla, AL",retail food,retail,,Coosa Town Center,"334 E Meighan Blvd, Gadsden, AL 35903, USA",,,34.0123541,-85.9884864,4.3,2312.0,ChIJf0RhsMc-iogRSxSsT5FXC3g,"shopping_mall, point_of_interest, establishment"
"Attalla, AL",retail food,retail,445120,Murphy USA,"1468 N Brindlee Mountain Pkwy, Arab, AL 35016, USA",(256) 216-4138,http://www.murphyusa.com/,34.3427908,-86.5025722,3.9,116.0,ChIJjahmFpzmiYgRxWSIjRIIqKY,"gas_station, convenience_store, point_of_interest, store, food, establishment"
"Attalla, AL",retail food,retail,445120,Murphy USA,"2040 Florida Short Route US-431, Boaz, AL 35957, USA",(256) 593-0975,http://www.murphyusa.com/,34.215953,-86.1565351,4.3,104.0,ChIJJ6AIKZgbiogRtTdK7vT9rhw,"gas_station, convenience_store, point_of_interest, store, food, establishment"
"Attalla, AL",retail food,retail,445120,Titan Mart,"41127 US-411, Ashville, AL 35953, USA",(205) 594-5781,,33.89734070000001,-86.11070219999999,4.5,11.0,ChIJixLmduwviogRKmUmQEeISqQ,"gas_station, convenience_store, point_of_interest, store, food, establishment"
"Attalla, AL",retail food,retail,722511,Cracker Barrel Old Country Store,"101 Taylor Dr, Gadsden, AL 35904, USA",(256) 538-5938,https://www.crackerbarrel.com/Locations/States/al/gadsden/396/?utm_source=google&utm_medium=maps&utm_campaign=crackerbarrelurl,33.9978224,-86.0901461,4.1,3856.0,ChIJ232za1Q7iogRjjVNLnoQZ-U,"meal_takeaway, restaurant, point_of_interest, store, food, establishment"
"Attalla, AL",retail food,retail,,Canterbury Station,"2509 W Meighan Blvd, Gadsden, AL 35904, USA",,http://www.biglots.com/,34.024436,-86.042683,3.9,543.0,ChIJoVbOAmg8iogR1zvjEdEsLH0,"shopping_mall, point_of_interest, establishment"
"Attalla, AL",retail food,retail,445120,Murphy USA,"5564 McClellan Blvd, Anniston, AL 36206, USA",(256) 847-4040,http://www.murphyusa.com/,33.7200649,-85.8181686,3.9,37.0,ChIJYWmI2jGzi4gR_y_XRqTriD8,"gas_station, convenience_store, point_of_interest, store, food, establishment"
"Attalla, AL",clothing store,retail,448140,Citi Trends,"3220 McClellan Blvd, Anniston, AL 36201, USA",(256) 444-6585,https://locations.cititrends.com/al/anniston/3220-mcclellan-blvd.html,33.6887884,-85.824771,4.2,206.0,ChIJd5Xczw2zi4gRVAu6cUWDje4,"clothing_store, shoe_store, store, point_of_interest, establishment"
"Attalla, AL",clothing store,retail,448140,Ross Dress for Less,"7360 US-431, Albertville, AL 35950, USA",(256) 878-0726,https://www.rossstores.com/,34.2793845,-86.2067168,4.3,564.0,ChIJCxnDXzMDiogRN5V7LZJKagc,"clothing_store, shoe_store, department_store, store, point_of_interest, establishment"
"Attalla, AL",clothing store,retail,448140,Crimson Houndstooth (Alabama Crimson Tide Clothing Store),"1212 Quintard Ave, Anniston, AL 36201, USA",(800) 333-1552,https://crimsonhoundstooth.com/,33.6604714,-85.8269949,5.0,2.0,ChIJyerM65mzi4gRIGPvTN9eSoM,"clothing_store, store, point_of_interest, establishment"
"Attalla, AL",clothing store,retail,448140,Factory Connection,"145 N Brindlee Mountain Pkwy STE 7, Arab, AL 35016, USA",(256) 957-1692,http://www.factory-connection.com/,34.318849,-86.5046618,4.5,39.0,ChIJORw1RH7miYgRti7glPoEtRM,"clothing_store, shoe_store, home_goods_store, store, point_of_interest, establishment"
"Attalla, AL",clothing store,retail,448140,SHOP 5TH STREET LLC,"435 5th St SW, Arab, AL 35016, USA",(256) 640-3120,https://shop5thst.com/,34.3101819,-86.5008728,5.0,2.0,ChIJQ4Nxen3niYgRsB1iE8fg5HA,"clothing_store, store, point_of_interest, establishment"
"Attalla, AL",clothing store,retail,452210,T.J. Maxx,"7360 US-431, Albertville, AL 35950, USA",(256) 894-8107,https://tjmaxx.tjx.com/store/index.jsp,34.2790813,-86.20667949999999,4.4,751.0,ChIJO9lUFC4DiogRpuHdeyQLydA,"department_store, jewelry_store, clothing_store, store, point_of_interest, establishment"
"Attalla, AL",clothing store,retail,448140,Factory Connection,"14216 US-431, Guntersville, AL 35976, USA",(256) 582-8226,http://www.factory-connection.com/,34.3211691,-86.3107469,4.2,85.0,ChIJJ_XVYov_iYgRgKuVITxG4XY,"clothing_store, home_goods_store, store, point_of_interest, establishment"
"Attalla, AL",clothing store,retail,448140,Factory Connection,"Pelham Plaza Shopping Center, 804 Pelham Rd S, Jacksonville, AL 36265, USA",(256) 435-0914,http://www.factory-connection.com/,33.8062005,-85.7605595,4.5,37.0,ChIJwdAohAxSiogRS1Ornl8acV4,"clothing_store, shoe_store, home_goods_store, store, point_of_interest, establishment"
"Attalla, AL",clothing store,retail,448140,Factory Connection,"1537 US-431, Boaz, AL 35957, USA",(256) 593-5382,http://www.factory-connection.com/,34.2081341,-86.1545486,4.5,111.0,ChIJ__lVI74biogR8ZgtykQL7tA,"clothing_store, shoe_store, home_goods_store, store, point_of_interest, establishment"
"Attalla, AL",clothing store,retail,448140,Factory Connection,"1113 2nd Ave E, Oneonta, AL 35121, USA",(205) 274-0434,http://www.factory-connection.com/,33.9580803,-86.4630492,4.4,82.0,ChIJA3sh4KyRiYgRkJk4Nss0XOc,"clothing_store, shoe_store, home_goods_store, store, point_of_interest, establishment"
"Attalla, AL",clothing store,retail,448210,The Willow Tree Boutique,"131 W Main St, Centre, AL 35960, USA",(256) 927-3114,https://thewillowtree.com/?utm_source=google&utm_medium=organic&utm_campaign=gmb,34.1520068,-85.6795817,4.3,16.0,ChIJY9tJ87JmiogRwbVVZZaSiWU,"shoe_store, jewelry_store, clothing_store, store, point_of_interest, establishment"
"Attalla, AL",clothing store,retail,448140,Ross Dress for Less,"520 E Meighan Blvd, Gadsden, AL 35903, USA",(256) 547-4876,https://www.rossstores.com/,34.0111275,-85.9856518,4.4,881.0,ChIJw-7zRs8-iogRKJwkSNHfDoY,"clothing_store, shoe_store, department_store, store, point_of_interest, establishment"
"Attalla, AL",clothing store,retail,448140,Citi Trends,"1001 Rainbow Dr Ste 13, Gadsden, AL 35901, USA",(256) 444-6844,https://locations.cititrends.com/al/gadsden/1001-rainbow-dr--ste-13.html,33.9956897,-86.007024,4.1,77.0,ChIJUVEQ2CI8iogRgU8EOT93Vvw,"clothing_store, shoe_store, store, point_of_interest, establishment"
"Attalla, AL",clothing store,retail,448140,Factory Connection,"7315 US-431, Albertville, AL 35950, USA",(256) 878-0026,http://www.factory-connection.com/,34.2763871,-86.20668359999999,4.5,43.0,ChIJCwEdky0DiogR_QHCgFGA6n0,"clothing_store, shoe_store, home_goods_store, store, point_of_interest, establishment"
"Attalla, AL",clothing store,retail,448140,ZenvyMarket fashion store,"45 Clearview, Odenville, AL 35120, USA",(205) 577-1336,https://zenvy-market.myshopify.com/,33.6891146,-86.4385281,,,ChIJqRrzWFx3iYgRdpjU5zDxQEo,"clothing_store, store, point_of_interest, establishment"
"Attalla, AL",clothing store,retail,452210,T.J. Maxx,"316 E Meighan Blvd, Gadsden, AL 35903, USA",(256) 549-1335,https://tjmaxx.tjx.com/store/index.jsp,34.012656,-85.989677,4.4,647.0,ChIJswMaK8Y-iogRc_XF7gCjDLw,"department_store, jewelry_store, clothing_store, store, point_of_interest, establishment"
"Attalla, AL",clothing store,retail,448140,Old Navy,"312 E Meighan Blvd, Gadsden, AL 35903, USA",(256) 543-7371,https://oldnavy.gap.com/stores/al/gadsden/oldnavy-3791.html,34.0126686,-85.99010969999999,4.2,271.0,ChIJLzqpKsY-iogR5S86rSl3fBg,"clothing_store, store, point_of_interest, establishment"
"Attalla, AL",clothing store,retail,448140,bealls,"1477 Sunset Dr, Guntersville, AL 35976, USA",(256) 571-1646,https://stores.bealls.com/al/guntersville/1477-sunset-drive,34.3519271,-86.31525839999999,4.4,84.0,ChIJeR9d3IP5iYgRRjEUqZLDv_E,"clothing_store, shoe_store, home_goods_store, store, point_of_interest, establishment"
"Attalla, AL",clothing store,retail,443142,Roses Discount Store,"3101 McClellan Blvd, Anniston, AL 36201, USA",(256) 741-9996,https://www.rosesdiscountstores.com/,33.6852309,-85.8210924,4.5,75.0,ChIJSQYwGgmzi4gROhAQDB3_zIc,"electronics_store, clothing_store, home_goods_store, store, point_of_interest, establishment"
"Attalla, AL",clothing store,retail,452210,Wakefield's Inc,"1212 Quintard Ave, Anniston, AL 36201, USA",(256) 237-9521,,33.6603946,-85.8271073,4.2,80.0,ChIJaSoQ67-zi4gRMv6kdIoHJ_E,"department_store, clothing_store, store, point_of_interest, establishment"
"Attalla, AL",clothing store,retail,448140,Martin's Family Clothing,"2801 Rainbow Dr, Rainbow City, AL 35906, USA",(256) 442-7000,http://www.martinsfc.com/,33.965496,-86.028758,4.2,858.0,ChIJGadav8g7iogRc-zFGxZQ3g8,"clothing_store, store, point_of_interest, establishment"
"Attalla, AL",clothing store,retail,448140,bealls,"324 E Meighan Blvd, Gadsden, AL 35903, USA",(256) 547-5167,https://stores.bealls.com/al/gadsden/324-e-meighan-blvd,34.0124626,-85.98893729999999,4.4,249.0,ChIJUz0lgsg-iogRSse6rcq97mI,"clothing_store, shoe_store, home_goods_store, store, point_of_interest, establishment"
"Attalla, AL",clothing store,retail,452210,Belk,"11655 US Hwy 431 S, Guntersville, AL 35976, USA",(256) 891-1314,https://www.belk.com/store/belk-guntersville-al/?StoreID=348,34.2990684,-86.2773208,4.1,877.0,ChIJH-U0tkX4iYgRLBF6kRVrY7k,"department_store, shoe_store, clothing_store, home_goods_store, store, point_of_interest, establishment"
"Attalla, AL",clothing store,retail,448140,Jazz It Up Boutique LLC,"212 S 5th St, Gadsden, AL 35901, USA",(256) 467-4247,http://www.jazzitupboutique.com/,34.0122884,-86.0055009,4.4,34.0,ChIJsU4B-cg_iogRHDFQ-rHQbP8,"clothing_store, store, point_of_interest, establishment"
"Attalla, AL",clothing store,retail,448140,True South Boutique,"390-A Gunter Ave, Guntersville, AL 35976, USA",(256) 486-3517,https://shoptruesouthboutique.com/,34.35978619999999,-86.29366279999999,4.4,20.0,ChIJ6YenO5b5iYgR_GHt1noNhjs,"clothing_store, store, point_of_interest, establishment"
"Attalla, AL",clothing store,retail,452210,Belk,"1001 Rainbow Dr, Gadsden, AL 35901, USA",(256) 549-6300,https://www.belk.com/store/belk-gadsden-al/?StoreID=616,33.9941797,-86.00791919999999,4.1,1163.0,ChIJ2UKAxlI5iogRku-ivgQyu3g,"department_store, shoe_store, clothing_store, home_goods_store, store, point_of_interest, establishment"
"Attalla, AL",clothing store,retail,448210,Cato Fashions,"11611 Highway 431 South, Guntersville, AL 35976, USA",(256) 878-2674,https://stores.catofashions.com/al/guntersville/11611-highway-431-south?utm_source=gmb&utm_medium=Yext&y_source=1_MjY1NjAxMzgtNzE1LWxvY2F0aW9uLndlYnNpdGU%3D,34.298652,-86.2764392,4.5,43.0,ChIJA6DXLUL4iYgRUg3HZnGzLKk,"shoe_store, clothing_store, store, point_of_interest, establishment"
"Attalla, AL",clothing store,retail,448140,bealls,"2079 US-431, Boaz, AL 35957, USA",(256) 593-6723,https://stores.bealls.com/al/boaz/2079-us-highway-431,34.2150989,-86.1593982,4.6,141.0,ChIJ2QIgLZgbiogRLBiW2awy4E4,"clothing_store, shoe_store, home_goods_store, store, point_of_interest, establishment"
"Attalla, AL",clothing store,retail,448140,The Willow Tree Boutique,"2109 Rainbow Dr, Gadsden, AL 35901, USA",(256) 549-0204,https://thewillowtree.com/?utm_source=google&utm_medium=organic&utm_campaign=gmb,33.9731501,-86.01802579999999,4.4,57.0,ChIJZxYToN47iogRyzp3IpDhALQ,"jewelry_store, clothing_store, store, point_of_interest, establishment"
"Attalla, AL",clothing store,retail,452210,The Southern,"214 1st Ave E, Oneonta, AL 35121, USA",(205) 274-2936,https://www.thesouthernonline.com/,33.9453956,-86.47544189999999,4.9,44.0,ChIJsXFYlJSQiYgR1HTnlUdI4oU,"department_store, clothing_store, store, point_of_interest, establishment"
"Attalla, AL",clothing store,retail,448140,Vogue To Vintage,"5659 US-431, Albertville, AL 35950, USA",(256) 878-0516,https://www.voguetovintageboutique.com/,34.2597346,-86.18738359999999,4.5,32.0,ChIJd1nT6i0DiogRslbEa-CSklM,"clothing_store, store, point_of_interest, establishment"
"Attalla, AL",clothing store,retail,448140,A Dream Boutique,"115 Francis St E, Jacksonville, AL 36265, USA",(256) 294-5395,https://adreamboutiquebytasha.commentsold.com/store,33.816047,-85.7599642,4.6,10.0,ChIJTxQ7I0xRiogRuy-_zPcI9pY,"clothing_store, store, point_of_interest, establishment"
"Attalla, AL",clothing store,retail,448210,Cato Fashions,"457 George Wallace Dr, Gadsden, AL 35901, USA",(256) 546-8000,https://stores.catofashions.com/al/gadsden/457-george-wallace-drive?utm_source=gmb&utm_medium=Yext&y_source=1_MjY1NjAyNjktNzE1LWxvY2F0aW9uLndlYnNpdGU%3D,34.0030642,-85.9968836,4.3,125.0,ChIJv7Klb7Q-iogRsBYalmXNl1E,"shoe_store, clothing_store, store, point_of_interest, establishment"
"Attalla, AL",clothing store,retail,448210,Allie and Me Boutique,"1070 US-431, Boaz, AL 35957, USA",(256) 281-9566,http://shopallieandme.com/,34.2019691,-86.1510772,4.7,21.0,ChIJZYGzJQkXiogRUjnX1iy2zxg,"shoe_store, clothing_store, jewelry_store, store, point_of_interest, establishment"
"Attalla, AL",clothing store,retail,443142,Roses Discount Store,"2509 W Meighan Blvd, Gadsden, AL 35904, USA",(256) 952-9915,https://www.rosesdiscountstores.com/,34.024436,-86.042683,5.0,16.0,ChIJTUPbiTE9iogRTBIaiHvfQ6U,"electronics_store, clothing_store, home_goods_store, store, point_of_interest, establishment"
"Attalla, AL",clothing store,retail,448210,Hibbett Sports,"7360 US-431 Ste 6, Albertville, AL 35950, USA",(256) 878-6002,https://www.hibbett.com/storedetails/AL/Albertville/1271?utm_source=gmblisting&utm_medium=organic,34.2793578,-86.2077834,4.0,90.0,ChIJpZOB2tMciogRrWr11aMOt2U,"shoe_store, clothing_store, store, point_of_interest, establishment"
"Attalla, AL",clothing store,retail,452210,Fants Inc,"355 Gunter Ave, Guntersville, AL 35976, USA",(256) 582-3845,https://fantsstore.com/,34.360073,-86.2929458,4.2,99.0,ChIJfyXzbtT4iYgRd13ZkBa7LTw,"department_store, furniture_store, clothing_store, jewelry_store, home_goods_store, store, point_of_interest, establishment"
"Attalla, AL",clothing store,retail,448210,Hibbett Sports,"11474 US-431, Guntersville, AL 35976, USA",(256) 891-2669,https://www.hibbett.com/storedetails/AL/Guntersville/341?utm_source=gmblisting&utm_medium=organic,34.3023303,-86.2772409,4.3,55.0,ChIJydL0f0H4iYgRuWQu7aDI58Y,"shoe_store, clothing_store, store, point_of_interest, establishment"
"Attalla, AL",clothing store,retail,448140,Pearls of Grace Boutique & Gifts,"1112 N Brindlee Mountain Pkwy, Arab, AL 35016, USA",(256) 339-2605,https://pearlsofgraceboutique.com/,34.3352111,-86.50240699999999,4.0,5.0,ChIJ9_ARwtbliYgR07Wkr_UMJAw,"clothing_store, jewelry_store, store, point_of_interest, establishment"
"Attalla, AL",clothing store,retail,448210,Cato Fashions,"5506 McClellan Blvd, Anniston, AL 36206, USA",(256) 820-5255,https://stores.catofashions.com/al/anniston/5506-mcclellan-boulevard?utm_source=gmb&utm_medium=Yext&y_source=1_MjY1NjAzNjYtNzE1LWxvY2F0aW9uLndlYnNpdGU%3D,33.7185416,-85.8204085,4.4,48.0,ChIJR-JK0DGzi4gRCBBJGT6l5Ts,"shoe_store, clothing_store, store, point_of_interest, establishment"
"Attalla, AL",clothing store,retail,448140,The Fig Tree Boutique,"104 Pelham Rd S, Jacksonville, AL 36265, USA",(256) 689-7215,,33.8130568,-85.76115180000001,5.0,3.0,ChIJne9um0xTiogRm7gZhcTwkPA,"clothing_store, store, point_of_interest, establishment"
"Attalla, AL",clothing store,retail,448140,The Box Truck Boutique,"1585 US-431, Boaz, AL 35957, USA",(256) 706-1238,https://boxtruckboutique.commentsold.com/store,34.2103094,-86.1554096,4.3,31.0,ChIJR7W8ZoUbiogR-ZmWjBlxZsE,"clothing_store, store, point_of_interest, establishment"
"Attalla, AL",clothing store,retail,448210,Hibbett Sports,"3218 McClellan Blvd, Anniston, AL 36201, USA",(256) 236-3624,https://www.hibbett.com/storedetails/AL/Anniston/1115?utm_source=gmblisting&utm_medium=organic,33.6885072,-85.8246434,4.1,73.0,ChIJTwV73wuzi4gRihdCGRujKSM,"shoe_store, clothing_store, store, point_of_interest, establishment"
"Attalla, AL",clothing store,retail,448140,BLINGS - N - THINGS,"618 Broad St, Gadsden, AL 35901, USA",(256) 441-4229,http://blingsnthings.com/,34.0146387,-86.0072684,4.8,21.0,ChIJRygpI6U-iogRflCho7P_kQQ,"clothing_store, store, point_of_interest, establishment"
"Attalla, AL",clothing store,retail,448140,America's Thrift Stores & Donation Center,"3225 Rainbow Dr Suite 200-C, Rainbow City, AL 35906, USA",(256) 442-9181,http://www.americasthrift.com/,33.9610465,-86.03574569999999,3.9,354.0,ChIJwzuIjbY7iogR2QhsWW9MLOg,"clothing_store, store, point_of_interest, establishment"
"Attalla, AL",clothing store,retail,448140,American Eagle,"1001 Rainbow Dr, Gadsden, AL 35901, USA",(256) 546-5144,https://storelocations.ae.com/us/al/gadsden/00326-1001-rainbow-drive.html,33.9955043,-86.0075449,4.3,161.0,ChIJ2UKAxlI5iogRwUUMsuu1oro,"clothing_store, store, point_of_interest, establishment"
"Attalla, AL",clothing store,retail,448140,Spencer's,"1001 Rainbow Dr Suite 09, Gadsden, AL 35901, USA",(833) 543-0751,https://stores.spencersonline.com/al/gadsden/gadsden-mall-02012.html?utm_medium=referral&utm_source=google&utm_campaign=local_listing&utm_inex=e,33.9956897,-86.007024,4.2,104.0,ChIJC79EGFQ5iogRGGDCI8PSssQ,"clothing_store, jewelry_store, store, point_of_interest, establishment"
"Attalla, AL",clothing store,retail,448140,Hey Sister Boutique,"6806 AL-204, Jacksonville, AL 36265, USA",(256) 452-6162,https://shopheysister.co/,33.8294033,-85.808739,5.0,21.0,ChIJ4XKsgZ9PiogRsPQW1GQNMOY,"clothing_store, store, point_of_interest, establishment"
"Attalla, AL",clothing store,retail,448140,Variedades La Reyna,"133 E Main St, Albertville, AL 35950, USA",(256) 744-6167,,34.2673523,-86.20778039999999,3.6,12.0,ChIJYYCk0tMciogRN2V_HeRwm3s,"clothing_store, store, point_of_interest, establishment"
"Attalla, AL",clothing store,retail,448140,Corbitt & Co. Lakeside Apparel and Gear LLC.,"509 Gunter Ave, Guntersville, AL 35976, USA",(256) 572-0163,http://www.corbittapparel.com/,34.3578256,-86.2945814,5.0,16.0,ChIJ7a2tp4D5iYgRfZp_tRSX8NU,"clothing_store, store, point_of_interest, establishment"
"Attalla, AL",convenience store,retail,445120,Circle K,"2242 US-431, Boaz, AL 35957, USA",(256) 593-1779,https://www.circlek.com/store-locator/US/boaz/2242-us-hwy-431/2723654?utm_source=google&utm_medium=local&utm_campaign=google-local,34.2178875,-86.1570673,3.6,70.0,ChIJ9_bDrpkbiogRIsroWfsMOyc,"convenience_store, gas_station, atm, meal_takeaway, finance, store, restaurant, food, point_of_interest, establishment"
"Attalla, AL",convenience store,retail,445120,Quick Mart #5,"8067 AL-144, Alexandria, AL 36250, USA",(256) 892-0592,,33.7826493,-85.90509519999999,4.0,16.0,ChIJ618_jlxKiogRE3INR6E5tqI,"convenience_store, store, food, point_of_interest, establishment"
"Attalla, AL",convenience store,retail,445120,WAVAHO,"12565 US-431, Guntersville, AL 35976, USA",(256) 582-9159,,34.3059128,-86.2907326,4.4,149.0,ChIJ572JXE74iYgRxVBuQWTOGcw,"gas_station, convenience_store, store, food, point_of_interest, establishment"
"Attalla, AL",convenience store,retail,445120,MAPCO,"1601 Pelham Rd S, Jacksonville, AL 36265, USA",(256) 782-0232,https://www.mapcorewards.com/,33.7888319,-85.76180649999999,4.4,33.0,ChIJLeoB1XZSiogRU4PAozZvHG8,"convenience_store, gas_station, store, food, point_of_interest, establishment"
"Attalla, AL",convenience store,retail,445120,Aroney Express,"6392 Co Rd 26, Boaz, AL 35957, USA",(256) 561-3333,,34.2218131,-86.0802004,4.4,23.0,ChIJd0ijxokaiogRkWOLlCWGqhs,"convenience_store, store, food, point_of_interest, establishment"
"Attalla, AL",convenience store,retail,445120,Piedmont food mart (Chevron) samaa llc”,"6301 AL-74, Piedmont, AL 36272, USA",(256) 447-8181,,33.9559935,-85.7146006,3.8,13.0,ChIJuwI0D7BbiogR2aR1zSdHYbw,"convenience_store, store, food, point_of_interest, establishment"
"Attalla, AL",convenience store,retail,445120,Circle K,"1205 W Meighan Blvd, Gadsden, AL 35901, USA",(256) 549-0170,https://www.circlek.com/store-locator/US/gadsden/1205-w-meighan-blvd/2723649?utm_source=google&utm_medium=local&utm_campaign=google-local,34.0223713,-86.0214223,3.9,82.0,ChIJ5w-Pg-Y9iogR7CzeFh6Y5_g,"convenience_store, gas_station, atm, meal_takeaway, finance, store, restaurant, food, point_of_interest, establishment"
"Attalla, AL",convenience store,retail,445120,MAPCO Mart,"8873 US-431, Albertville, AL 35950, USA",(256) 891-0720,https://www.mapcorewards.com/,34.285154,-86.2316352,4.1,55.0,ChIJ8_JBCcYCiogRUNUbGIGGk1E,"convenience_store, gas_station, store, food, point_of_interest, establishment"
"Attalla, AL",convenience store,retail,445120,MAPCO,"706 Pelham Rd S, Jacksonville, AL 36265, USA",(256) 435-7920,https://www.mapcorewards.com/,33.8074855,-85.7611341,4.1,29.0,ChIJl8S9BwRSiogRbrOVO5HBO98,"convenience_store, gas_station, store, food, point_of_interest, establishment"
"Attalla, AL",convenience store,retail,445120,Centre Shell Mart,"125 Clarence E Chesnut Jr Bypass, Centre, AL 35960, USA",(256) 927-3006,,34.1591328,-85.6678535,4.2,10.0,ChIJcVNvXUhhiogRo1RNxmOEPMo,"convenience_store, gas_station, store, food, point_of_interest, establishment"
"Attalla, AL",convenience store,retail,445120,MAPCO,"2380 Pelham Rd S, Jacksonville, AL 36265, USA",(256) 435-7190,https://www.mapcorewards.com/,33.7717951,-85.7662636,4.4,19.0,ChIJdZg4ZYBNiogRfp9oNZfkO-g,"convenience_store, gas_station, store, food, point_of_interest, establishment"
"Attalla, AL",convenience store,retail,445120,Four way quick stop,"2930 Rose Rd, Albertville, AL 35951, USA",(256) 878-0489,,34.3118834,-86.2272917,4.1,7.0,ChIJp7Kkhi8diogRdl4aKkQf-Lc,"convenience_store, store, food, point_of_interest, establishment"
"Attalla, AL",convenience store,retail,445120,Shell,"1734 Rainbow Dr, Gadsden, AL 35901, USA",(256) 549-1311,https://find.shell.com/us/fuel/10010351-1734-rainbow-dr/en_US,33.9796011,-86.0073477,4.1,55.0,ChIJtyR9eV45iogRcMnPSfmmFsk,"gas_station, convenience_store, store, food, point_of_interest, establishment"
"Attalla, AL",convenience store,retail,445120,MinitMan Food Stores,"813 Horton Rd, Albertville, AL 35950, USA",(256) 878-8498,,34.2586059,-86.2171803,4.5,4.0,ChIJ7W6yDCcdiogRiZpJEDAcuIE,"convenience_store, gas_station, store, food, point_of_interest, establishment"
"Attalla, AL",convenience store,retail,445120,High Point Grocery,"4239 Highpoint Rd, Albertville, AL 35950, USA",(256) 891-6155,,34.241552,-86.27868319999999,4.4,20.0,ChIJqUKqGLj3iYgRyRML1qQmJGg,"gas_station, convenience_store, store, food, point_of_interest, establishment"
"Attalla, AL",convenience store,retail,445120,MinitMan Food Stores,"687 AL-75 North, Albertville, AL 35950, USA",(256) 878-3659,,34.2815508,-86.19461299999999,4.7,3.0,ChIJ_TlvR0gDiogROVOsBBK6_N8,"convenience_store, gas_station, store, food, point_of_interest, establishment"
"Attalla, AL",convenience store,retail,445120,MinitMan Food Stores,"12985 Highway 431 South, 12985 US-431, Guntersville, AL 35976, USA",(256) 582-8877,,34.307798,-86.2966532,3.1,9.0,ChIJcTf6VE34iYgRIHMGxzMPiq4,"convenience_store, gas_station, store, food, point_of_interest, establishment"
"Attalla, AL",convenience store,retail,445120,Grub Mart,"1700 W Main St, Centre, AL 35960, USA",(256) 927-7700,http://www.bp.com/,34.1602401,-85.70937479999999,3.6,58.0,ChIJo-Xv0KRmiogRiSO3yIs4610,"convenience_store, atm, finance, store, food, point_of_interest, establishment"
"Attalla, AL",convenience store,retail,445120,Shell,"1004 Florida Short Route US-431, Boaz, AL 35957, USA",(256) 593-4690,https://find.shell.com/us/fuel/10010305-1004-us-highway-431/en_US,34.2009614,-86.1507252,4.3,56.0,ChIJY7DzJcEbiogRFbXoepYZHjk,"gas_station, convenience_store, store, food, point_of_interest, establishment"
"Attalla, AL",convenience store,retail,445120,MinitMan Food Stores,"1004 US-431, Boaz, AL 35957, USA",(256) 593-4690,,34.200998,-86.1507139,5.0,1.0,ChIJxRNRkIkLiogRSIwNtzKAsEo,"convenience_store, gas_station, food, point_of_interest, store, establishment"
"Attalla, AL",convenience store,retail,445120,4 Way Express,"4000 Sardis Rd, Boaz, AL 35956, USA",(256) 840-1081,,34.1749853,-86.07782890000001,3.9,15.0,ChIJAbWI8EsXiogRazkRk9XZ2uM,"convenience_store, gas_station, food, point_of_interest, store, establishment"
"Attalla, AL",convenience store,retail,445120,Discount Food Mart,"5408 AL-68, Collinsville, AL 35961, USA",(256) 524-2401,,34.2747171,-85.87745129999999,3.0,6.0,ChIJSZcxDgxyiogRKYf0OdAWBUc,"convenience_store, gas_station, food, point_of_interest, store, establishment"
"Attalla, AL",convenience store,retail,445120,Shell,"2701 W Meighan Blvd, Gadsden, AL 35904, USA",(256) 543-0994,https://find.shell.com/us/fuel/10010350-2701-w-meighan-blvd/en_US,34.022948,-86.045805,3.9,94.0,ChIJuQGrfWc8iogRxUoMmw017t8,"gas_station, convenience_store, food, point_of_interest, store, establishment"
"Attalla, AL",convenience store,retail,445120,Grub Mart,"1101 W Meighan Blvd, Gadsden, AL 35901, USA",(256) 546-5181,,34.02057620000001,-86.01760139999999,3.9,181.0,ChIJhenNyxg8iogRrAFVBzESetg,"convenience_store, food, point_of_interest, store, establishment"
"Attalla, AL",convenience store,retail,445120,Texaco Food Mart,"400 N 12th St, Gadsden, AL 35901, USA",(256) 312-8202,,34.023365,-86.0222216,4.8,10.0,ChIJtbm8yiI8iogRMEYyV9wq4aw,"convenience_store, gas_station, food, point_of_interest, store, establishment"
"Attalla, AL",convenience store,retail,445120,Shell,"520 George Wallace Dr, Gadsden, AL 35903, USA",(256) 543-3340,https://find.shell.com/us/fuel/10010349-520-george-wallace-dr/en_US,34.0022409,-85.995716,3.5,52.0,ChIJYZ7GYLQ-iogRuuRMSKO-hlU,"gas_station, convenience_store, food, point_of_interest, store, establishment"
"Attalla, AL",convenience store,retail,445120,Hi Tech Express,"3697 AL-68, Collinsville, AL 35961, USA",(256) 524-2667,,34.25660800000001,-85.8657556,3.9,34.0,ChIJgQo2cPRtiogRddh26mrHyc4,"convenience_store, gas_station, food, point_of_interest, store, establishment"
"Attalla, AL",convenience store,retail,445120,Chevron Ashville,"36594 US-231, Ashville, AL 35953, USA",(205) 594-3200,https://www.chevron.com/,33.8612133,-86.2856584,4.2,24.0,ChIJuRZ8rhqHiYgRj_VEohgBUXI,"gas_station, convenience_store, liquor_store, restaurant, food, point_of_interest, store, establishment"
"Attalla, AL",convenience store,retail,445120,Chevron,"42941 AL-75, Snead, AL 35952, USA",(205) 466-5620,https://www.chevronwithtechron.com/station/,34.1195838,-86.3960031,3.4,19.0,ChIJnasCBcHyiYgRD9gsptE53oE,"gas_station, convenience_store, car_repair, food, point_of_interest, store, establishment"
"Attalla, AL",convenience store,retail,445120,Grub Mart,"420 Pelham Rd N, Jacksonville, AL 36265, USA",(256) 782-0007,https://m.facebook.com/pages/The-Grub-Mart/154451747905622,33.8182033,-85.7618182,3.4,37.0,ChIJs2McTPlRiogRl1HLGVs4XFY,"convenience_store, gas_station, food, point_of_interest, store, establishment"
"Attalla, AL",convenience store,retail,445310,1st Super Store,"12855 US-431, Boaz, AL 35956, USA",(256) 593-4345,,34.184085,-86.1456606,4.1,117.0,ChIJGwEILNgbiogR_LwiCToRUeQ,"liquor_store, convenience_store, gas_station, food, point_of_interest, store, establishment"
"Attalla, AL",convenience store,retail,445120,The Rock Store,"1009 Section Line Rd, Albertville, AL 35950, USA",(256) 878-4697,,34.2584209,-86.2336795,4.3,29.0,ChIJrTBi4DgdiogRe98paLnbxk8,"convenience_store, atm, finance, food, point_of_interest, store, establishment"
"Attalla, AL",convenience store,retail,445120,Shell,"687 AL-75 North, Albertville, AL 35950, USA",(256) 878-3659,https://find.shell.com/us/fuel/10013271-687-highway-75-north/en_US,34.281469,-86.194963,4.2,65.0,ChIJZQ2TJEgDiogRrQ3GTcJyy4s,"gas_station, convenience_store, food, point_of_interest, store, establishment"
"Attalla, AL",convenience store,retail,445120,smile express 101,"1216 E Meighan Blvd, Gadsden, AL 35903, USA",(256) 492-6522,,34.0029929,-85.96848829999999,3.8,21.0,ChIJKyS_zys_iogR21nZEjVfV1U,"convenience_store, gas_station, food, point_of_interest, store, establishment"
"Attalla, AL",convenience store,retail,445120,Coosa Corner,"5770 Weiss Lake Blvd, Leesburg, AL 35983, USA",(256) 526-7800,,34.1770953,-85.75938099999999,4.4,97.0,ChIJr42xhvlliogRZMT5TQOlOzU,"convenience_store, atm, gas_station, finance, food, point_of_interest, store, establishment"
"Attalla, AL",convenience store,retail,445120,Burton's Food Store Aurora,"4755 AL-179, Boaz, AL 35956, USA",(256) 281-9085,,34.11653039999999,-86.1925218,4.3,22.0,ChIJm5InZT8fiogReyfF6IKemDU,"convenience_store, gas_station, food, point_of_interest, store, establishment"
"Attalla, AL",convenience store,retail,445120,RaceTrac,"1715 W Grand Ave, Gadsden, AL 35904, USA",(404) 829-6113,https://www.racetrac.com/locations/alabama/gadsden/gadsden,33.99656909999999,-86.0812266,3.4,37.0,ChIJGYZ6OdA7iogRKyuyzgj0nfQ,"convenience_store, gas_station, liquor_store, cafe, meal_takeaway, store, restaurant, food, point_of_interest, establishment"
"Attalla, AL",convenience store,retail,445120,Rainbow Food Mart,"232 W Meighan Blvd, Gadsden, AL 35901, USA",(256) 547-3284,,34.0145755,-85.99992069999999,4.0,5.0,ChIJJUHoCrs-iogR5rJf3TQJZgc,"convenience_store, gas_station, store, food, point_of_interest, establishment"
"Attalla, AL",convenience store,retail,445120,Shell,"232 W Meighan Blvd, Gadsden, AL 35901, USA",(256) 547-3284,https://find.shell.com/us/fuel/10010348-232-w-meighan-blvd/en_US,34.0145634,-86.000124,3.9,177.0,ChIJJ-PCErs-iogRVKz9_dNRtKg,"gas_station, convenience_store, store, food, point_of_interest, establishment"
"Attalla, AL",convenience store,retail,445120,MAPCO Mart,"5585 AL-68, Collinsville, AL 35961, USA",(256) 472-0180,https://www.mapcorewards.com/,34.2755595,-85.8805196,4.1,27.0,ChIJi4U1c2VyiogRqfcVce_mBSU,"convenience_store, gas_station, store, food, point_of_interest, establishment"
"Attalla, AL",convenience store,retail,445120,Texaco Gadsden,"301 W Meighan Blvd, Gadsden, AL 35901, USA",(256) 549-0345,,34.0153918,-86.00037789999999,4.3,7.0,ChIJE7wDZrs-iogR8O-icn3pdho,"gas_station, convenience_store, car_repair, store, food, point_of_interest, establishment"
"Attalla, AL",convenience store,retail,445120,Chevron,"8334 US-431, Albertville, AL 35950, USA",(256) 878-0000,https://www.chevron.com/,34.2827493,-86.2222762,4.2,12.0,ChIJuTgv6tACiogR5z2xuO8AgSY,"gas_station, convenience_store, car_repair, store, food, point_of_interest, establishment"
"Attalla, AL",convenience store,retail,445120,Starmart Inc,"955 AL-204, Jacksonville, AL 36265, USA",(256) 435-4567,,33.8263082,-85.7770237,4.1,93.0,ChIJIeIWCRBOiogRwkcjT3QFoVI,"gas_station, convenience_store, store, food, point_of_interest, establishment"
"Attalla, AL",convenience store,retail,445120,MAPCO,"41425 AL-75, Geraldine, AL 35974, USA",(256) 743-4570,https://www.mapcorewards.com/,34.3614624,-86.0064367,3.8,38.0,ChIJKdHfCfwLiogRihAHh6HFdQw,"convenience_store, gas_station, store, food, point_of_interest, establishment"
"Attalla, AL",convenience store,retail,445120,Titan Mart,"2511 S 11th St, Gadsden, AL 35904, USA",(256) 549-9466,http://titan-mart.edan.io/,33.9965996,-86.0412319,4.0,41.0,ChIJPx3Kv4g7iogRKQHCMnlqWKE,"convenience_store, store, food, point_of_interest, establishment"
"Attalla, AL",convenience store,retail,445120,Durango's,"5588 AL-68, Collinsville, AL 35961, USA",(256) 524-4040,,34.2762645,-85.8801167,1.8,4.0,ChIJJXeNI55ziogRTXCBTqUItNQ,"convenience_store, store, food, point_of_interest, establishment"
"Attalla, AL",convenience store,retail,445120,Powell's Grocery,"3604 AL-75, Albertville, AL 35951, USA",(256) 878-8127,,34.2990764,-86.148747,3.9,9.0,ChIJg_LYtSr2iYgRRwvbqs_3On8,"convenience_store, gas_station, store, food, point_of_interest, establishment"
"Attalla, AL",convenience store,retail,445120,Vulcan Express,"13730 AL-168, Boaz, AL 35957, USA",(256) 281-9996,,34.2321815,-86.1241258,3.4,7.0,ChIJDx5RoPAaiogR6FcnnNgKZUQ,"convenience_store, gas_station, grocery_or_supermarket, store, food, point_of_interest, establishment"
"Attalla, AL",convenience store,retail,445120,Store,"13895 Greensport Rd, Ashville, AL 35953, USA",(205) 594-3399,,33.8798022,-86.1129527,4.2,52.0,ChIJ7yohYMgviogRgkcXlj0SG90,"convenience_store, store, food, point_of_interest, establishment"
"Attalla, AL",convenience store,retail,445120,Attalla Jet Pep,"606 5th Ave, Attalla, AL 35954, USA",(256) 538-2999,http://jetpep.com/,34.0193329,-86.0767362,4.6,12.0,ChIJrzWAiL48iogR5laTptBuS3U,"convenience_store, gas_station, store, food, point_of_interest, establishment"
"Attalla, AL",wholesale,retail,,BlackBerry Cottage Art Studios and gifts,"2115 Leighton Ave, Anniston, AL 36207, USA",(256) 860-0192,,33.6722259,-85.8249088,5.0,8.0,ChIJ7-sRewCzi4gRKVcbugDroDw,"point_of_interest, establishment"
"Attalla, AL",wholesale,retail,,Fieldstone Meats-Alabama Inc,"282 Fieldstone Rd, Oneonta, AL 35121, USA",(205) 625-3686,https://www.fsis.usda.gov/inspection/fsis-inspected-establishments/fieldstone-meats-alabama-inc.,33.934832,-86.4872917,4.2,20.0,ChIJS3weHqWQiYgRSJkslNVFX7o,"food, point_of_interest, establishment"
"Attalla, AL",wholesale,retail,,WHALEY ENTERPRISE,"62 Pelham Heights, Anniston, AL 36206, USA",(205) 777-7131,,33.7322352,-85.80287589999999,5.0,1.0,ChIJ4ZAty5ZNiogRVbrWZPHRjhg,"point_of_interest, establishment"
"Attalla, AL",distributor,retail,,Supreme Beverage Co Inc,"9100 US-431, Alexandria, AL 36250, USA",(256) 820-6686,http://supremebeverage.com/,33.8035534,-85.9009887,3.7,38.0,ChIJhR-Ro1FKiogREU1JtOWCQHI,"point_of_interest, establishment"
"Attalla, AL",distributor,retail,,Carpenter Distributing Co,"2721 McClellan Blvd, Anniston, AL 36201, USA",(256) 236-0698,,33.6798945,-85.82542699999999,5.0,1.0,ChIJs6yCYKCzi4gREFo7eUaYEgE,"point_of_interest, establishment"
"Attalla, AL",distributor,retail,,Adams Beverages Gadsden,"200 Jd Smith Dr, Attalla, AL 35954, USA",,,34.0012504,-86.11536459999999,4.3,14.0,ChIJLxxGBp8kiogRuCRCpbSRAMU,"point_of_interest, establishment"
"Attalla, AL",distributor,retail,,Allied Crawford Inc,"208 Lee St SE, Attalla, AL 35954, USA",(256) 538-8210,,33.9889962,-86.11887349999999,2.7,14.0,ChIJjbkpdZ8iiogRpLwv-G6GKNg,"point_of_interest, establishment"
"Attalla, AL",distributor,retail,,Wittichen Supply Co,"501 Railroad Ave, Albertville, AL 35950, USA",(256) 878-0381,http://wittichen-supply.com/locations/albertville-store/,34.2764247,-86.21191449999999,4.5,15.0,ChIJnzKEkisDiogRGsR-naa13Mc,"home_goods_store, store, point_of_interest, establishment"
"Attalla, AL",distributor,retail,,Hornsby Steel,"540 Industrial Park Rd, Oneonta, AL 35121, USA",,,33.9281113,-86.4860084,5.0,1.0,ChIJR2lB4aaQiYgRlVTwyfYMXCw,"point_of_interest, establishment"
"Attalla, AL",distributor,retail,,Distribuidora El Quetzal,"22 Davis St, Collinsville, AL 35961, USA",(256) 524-4519,https://www.deq-al.com/,34.260908,-85.86088,4.3,8.0,ChIJ17JzcQhyiogRrP0kWhi0UDs,"food, point_of_interest, establishment"
"Attalla, AL",distributor,retail,,S&G Machine LLC.,"5486 Main St, Hokes Bluff, AL 35903, USA",(256) 458-2889,,33.9975569,-85.8681519,4.6,9.0,ChIJ30EMiUpBiogRJcqWfatWNRY,"point_of_interest, establishment"
"Attalla, AL",distributor,retail,,Jemison Demsey Metals,"3001 Hickory St, Gadsden, AL 35904, USA",(256) 549-5555,https://www.jemisonmetals.com/,34.0079187,-86.0521048,3.4,5.0,ChIJO6Mu6n08iogRgwJA2A79cmk,"point_of_interest, establishment"
"Attalla, AL",distributor,retail,,A & J Steel Products,"110 Industrial Dr, Snead, AL 35952, USA",(205) 466-5636,http://www.aandjsteel.net/,34.1301083,-86.4095263,5.0,17.0,ChIJJfI-BMHyiYgRqU2y2z3aDoI,"store, point_of_interest, establishment"
"Attalla, AL",distributor,retail,,AJ's Audio Distributing,"2221 W Meighan Blvd, Gadsden, AL 35904, USA",(256) 547-9896,https://ajsaudiodist.com/,34.0238855,-86.03771979999999,5.0,2.0,ChIJKSztDVujnaURSqRjsAuFhNM,"point_of_interest, establishment"
"Attalla, AL",distributor,retail,,Southern Steel Products LLC,"489 Industrial Pkwy, Gadsden, AL 35903, USA",(256) 543-3968,http://southernsteelproducts.com/,33.9889673,-85.95424129999999,3.7,3.0,ChIJM4rFvMg4iogRgb19ku-m7RQ,"point_of_interest, establishment"
"Attalla, AL",distributor,retail,444130,"Oneonta Discount Building Supply, LLC","501 New St, Oneonta, AL 35121, USA",(205) 625-4853,,33.944208,-86.4695199,4.4,50.0,ChIJOase5EeRiYgRYBWtI9pHD1o,"hardware_store, store, point_of_interest, establishment"
"Attalla, AL",distributor,retail,445310,All American Beverage,"421 N Broad St #1727, Albertville, AL 35950, USA",(256) 660-1199,,34.2745995,-86.20503529999999,3.2,26.0,ChIJX4LQkDIDiogRn_xRps77rGs,"liquor_store, convenience_store, store, food, point_of_interest, establishment"
"Attalla, AL",food distributor,retail,,Osborn Brothers Inc,"259 N 5th St, Gadsden, AL 35901, USA",(256) 547-8601,https://www.osbornbros.com/,34.0169139,-86.0019418,4.6,97.0,ChIJe_cVtbw-iogRNhbT_zaHlaU,"food, point_of_interest, establishment"
"Attalla, AL",food distributor,retail,,Tyson Foods-Main Entrance,"2281 Steele Station Rd, Gadsden, AL 35906, USA",(256) 413-6800,https://www.tysonfoods.com/,33.962156,-86.0784276,3.8,115.0,ChIJlQZSTSE7iogRrXsxBhdAm3U,"food, point_of_interest, establishment"
"Attalla, AL",food distributor,retail,,G.A. Food Services,"516 Veterans Wy, Guntersville, AL 35976, USA",(888) 311-8003,,34.313099,-86.3077485,4.4,14.0,ChIJpW2TSn75iYgR-yx8Zt7_dIY,"food, point_of_interest, establishment"
"Attalla, AL",food distributor,retail,722511,Hilltop Farms & Market,"1028 US-11, Trussville, AL 35173, USA",(205) 452-2563,http://www.hilltopfarmsargo.com/,33.707611,-86.5174865,4.6,90.0,ChIJjVZbFwB1iYgRLMHc-GOJYbM,"cafe, florist, bakery, general_contractor, restaurant, food, point_of_interest, store, establishment"
"Attalla, AL",food distributor,retail,,"Central Seed, Supply & Equipment","13055 US-11, Springville, AL 35146, USA",(205) 467-9095,http://centralseedsupplyequipment.com/,33.8187003,-86.37557919999999,4.8,61.0,ChIJVWDIeiSdiYgRNauiixCWh-4,"food, point_of_interest, establishment"
"Attalla, AL",food distributor,retail,722511,Frito-Lay Inc,"9050 US-431, Alexandria, AL 36250, USA",(256) 820-0850,https://www.fritolay.com/,33.8026043,-85.90104480000001,3.3,3.0,ChIJk4yt_FVKiogRgVeKMEtLDUU,"meal_takeaway, restaurant, food, point_of_interest, establishment"
"Attalla, AL",food distributor,retail,,Emmaus Foods LLC,"661 Railroad Ave, Albertville, AL 35951, USA",(256) 894-5934,http://www.emmausfoods.com/,34.2831174,-86.2159193,3.5,39.0,ChIJQcvwvSkDiogR4gjqQZpnkwQ,"food, point_of_interest, establishment"
"Attalla, AL",food distributor,retail,,OK Foods 431,"5000 US-431, Albertville, AL 35950, USA",(256) 894-3339,,34.2532412,-86.1798036,2.9,43.0,ChIJJVg7bKEciogRJdBoDkVZI6o,"food, point_of_interest, establishment"
"Attalla, AL",food distributor,retail,,Koch Foods Inc,"501 Paden Rd, Gadsden, AL 35903, USA",(256) 549-6200,http://www.kochfoodsinc.com/,33.9705412,-85.97224849999999,3.3,158.0,ChIJ5UWKhh05iogRVRr5TXDJZCE,"food, point_of_interest, establishment"
"Attalla, AL",food distributor,retail,,Tyson Foods - Truck Entrance,"2283 Steele Station Rd, Gadsden, AL 35906, USA",(256) 413-6880,http://tysonfoods.com/,33.96209080000001,-86.08051610000001,1.0,1.0,ChIJid5_Gfo7iogRsqojVHng2ck,"food, point_of_interest, establishment"
"Attalla, AL",food distributor,retail,,Lebons food store LLC,"1432 3rd St SW suite 3, Attalla, AL 35954, USA",,,34.0054598,-86.1115185,,,ChIJk-rW8awjiogRn2TE7TTw7Zw,"point_of_interest, establishment"
"Attalla, AL",food distributor,retail,445110,"K Supply Company, Inc","930 Nixon Chapel Rd, Albertville, AL 35950, USA",(256) 894-0034,https://www.ksupplycompany.com/,34.2575236,-86.295611,4.9,13.0,ChIJ8yEmPJ73iYgRJ2Suk9kVlQ8,"grocery_or_supermarket, food, point_of_interest, store, establishment"
"Attalla, AL",grocery wholesaler,retail,,Mitchell Grocery Corporation,"2320 George Wallace Dr, Albertville, AL 35951, USA",(256) 891-0496,,34.2926712,-86.2174072,3.9,13.0,ChIJL5Dkz98CiogRjur0opQQPOs,"point_of_interest, establishment"
"Attalla, AL",wholesale grocery,retail,445110,Warehouse Discount Groceries of Arab,"2250 N Brindlee Mountain Pkwy, Arab, AL 35016, USA",(256) 586-6567,https://www.warehousediscountgroceries.com/store-locations/warehouse-discount-groceries-of-arab/?utm_source=gbp&utm_medium=organic,34.357398,-86.5043367,4.5,694.0,ChIJB4zX1KXmiYgRBEoyIbQvomw,"grocery_or_supermarket, supermarket, food, point_of_interest, store, establishment"
"Attalla, AL",wholesale grocery,retail,445110,Barrera Supermarket,"19294 AL-68, Crossville, AL 35962, USA",(256) 561-3639,https://www.facebook.com/share/1WeowB25Dw/?mibextid=wwXIfr,34.2688639,-86.0721066,4.4,84.0,ChIJGVDdKOAPiogRCqp1ECWiQCU,"grocery_or_supermarket, supermarket, food, point_of_interest, store, establishment"
"Attalla, AL",wholesale grocery,retail,445110,Phillips Produce,"2229 Allen Blvd, Gadsden, AL 35903, USA",(256) 492-1330,,33.9901701,-85.9415666,4.6,9.0,ChIJMS7Kw7E4iogRa8p3buGM77c,"grocery_or_supermarket, food, point_of_interest, store, establishment"
"Attalla, AL",wholesale meat,retail,,Christian Corner Meats,"1002 US-431, Anniston, AL 36206, USA",(256) 237-3518,,33.7007339,-85.8296984,4.8,212.0,ChIJtWC39Wqzi4gRpyc1t6XS7Ok,"food, point_of_interest, store, establishment"
"Attalla, AL",wholesale dairy,retail,,"My Dad & Me Family Farm, LLC","463 Pike Rd #8180, Piedmont, AL 36272, USA",(256) 492-7066,http://www.mydadandmefamilyfarm.com/,33.991816,-85.7944349,4.9,30.0,ChIJwZLLhJ1EiogRcD1uIiaDRqw,"point_of_interest, establishment"
"Attalla, AL",wholesale dairy,retail,,Dayspring Dairy - NOT OPEN TO THE PUBLIC,"212 Dogwood Dr, Gallant, AL 35972, USA",,http://dayspringdairy.com/,33.9834853,-86.2606763,5.0,15.0,ChIJrR2KjN6JiYgRYQkdycCo0SY,"food, point_of_interest, establishment"
"Attalla, AL",wholesale dairy,retail,,Tucker Milling LLC,"85 Signal Point Rd, Guntersville, AL 35976, USA",(256) 582-2552,http://tuckermilling.com/,34.348827,-86.2697006,4.3,106.0,ChIJybZrXcH4iYgRuyCqF4vE4Jg,"point_of_interest, establishment"
"Attalla, AL",wholesale dairy,retail,,"Dairyman's Supply Company, inc.","398 Rabbittown Rd #344, Gadsden, AL 35903, USA",(800) 883-6633,http://dairymanssupply.com/,33.9799628,-85.9381842,4.1,18.0,ChIJ7eoZeKM4iogRIYMmIxOzraI,"point_of_interest, establishment"
"Attalla, AL",wholesale dairy,retail,,Purity Dairies,"435 Mathis Mill Rd, Albertville, AL 35951, USA",(256) 878-5050,,34.2796821,-86.2096014,5.0,2.0,ChIJIcODSCIDiogRlCj6T7MTaA0,"point_of_interest, establishment"
"Attalla, AL",wholesale dairy,retail,,Wright Dairy,"241 Cane Creek Farm Rd, Alexandria, AL 36250, USA",(256) 820-1020,,33.7396222,-85.88752029999999,4.3,8.0,ChIJLZ8W0ydLiogRsvwyTVesS7A,"food, point_of_interest, establishment"
