Location,Search Keyword,Segment,NAICS Code,Business Name,Address,Phone Number,Website,Latitude,Longitude,Rating,User Ratings,Place ID,Types
"Robertsdale, AL",,retail,445110,Winn-Dixie,"13019 Sorrento Road, Pensacola, FL, 32507",+1 850-492-2076,https://www.winndixie.com/storedetails/pensacola/fl?search=493,30.3213613,-87.4179549,,,n_1672637310,"shop=supermarket, brand=Winn-Dixie"
"Robertsdale, AL",,retail,445310,Park Plaza Liquor,"Suite #11 13019 Sorrento Road, 32507",,https://www.winndixie.com/Pages/Home.aspx,30.3220461,-87.4182738,,,n_1672658884,shop=alcohol
"Robertsdale, AL",,retail,445120,Waves,,,,30.2443478,-87.7163479,,,n_1910737664,shop=convenience
"Robertsdale, AL",,retail,445110,Rouses,"1545 Gulf Shores Parkway, Gulf Shores, AL, 36542",,,30.2660105,-87.6900354,,,n_1910751544,"shop=supermarket, brand=Rouses"
"Robertsdale, AL",,retail,445110,Publix,"160 Cotton Creek Drive, Gulf Shores, AL, 36542-2850",+1 251-948-1281,https://www.publix.com/locations/1292,30.2986297,-87.6816058,,,n_1910763236,"shop=supermarket, brand=Publix"
"Robertsdale, AL",,retail,445292,Yogurt+Plus,,,,30.3687908,-87.6824448,,,n_1910800156,shop=confectionery
"Robertsdale, AL",,retail,452210,TJ Maxx,,,,30.3757563,-87.6785824,,,n_1910810082,"shop=department_store, brand=TJ Maxx"
"Robertsdale, AL",,retail,445110,Piggly Wiggly,"1200 South McKenzie Street, Foley, AL, 36535",+1 251-990-5690,,30.3928508,-87.6846334,,,n_1910817687,"shop=supermarket, brand=Piggly Wiggly"
"Robertsdale, AL",,retail,445292,Orange Julius,,,,30.3924713,-87.6820693,,,n_1910817688,"shop=confectionery, amenity=fast_food, brand=Orange Julius"
"Robertsdale, AL",,retail,445110,Winn-Dixie,"1235 South McKenzie Street, Foley, AL, 36535",+1 251-943-4866,https://www.winndixie.com/storedetails/foley/al?search=570,30.3932394,-87.6818332,,,n_1910817694,"shop=supermarket, brand=Winn-Dixie"
"Robertsdale, AL",,retail,453110,Stemz,,,,30.4049826,-87.6837,,,n_1910842777,shop=florist
"Robertsdale, AL",,retail,445110,Market by the Bay,"Old Spanish Trail, Daphne",,,30.649705,-87.913116,,,n_3281345162,shop=supermarket
"Robertsdale, AL",,retail,445110,Publix,"22530 US Highway 98, Fairhope, AL, 36532-6398",+1 251-929-7355,https://www.publix.com/locations/1265,30.555695,-87.890899,,,n_3281357970,"shop=supermarket, brand=Publix"
"Robertsdale, AL",,retail,445120,Clark's,,,,30.650643,-87.911868,,,n_3282381661,shop=convenience
"Robertsdale, AL",,retail,445120,Shell Food Mart,,,,30.341672,-87.402627,,,n_3581101896,shop=convenience
"Robertsdale, AL",,retail,445120,Tom Thumb,,,,30.341103,-87.403694,,,n_3581139393,shop=convenience
"Robertsdale, AL",,retail,446120,Knu Spa,59 North Section Street,+1 251-929-5099,https://www.facebook.com/Knu-Spa-870406889719318/,30.5250428,-87.9031441,,,n_3855242457,shop=beauty
"Robertsdale, AL",,retail,445120,Pierce Street Market,,,,30.5250893,-87.9028319,,,n_3855242458,shop=convenience
"Robertsdale, AL",,retail,445120,Circle K,,,,30.6541213,-87.7594928,,,n_4884566121,"shop=convenience, brand=Circle K"
"Robertsdale, AL",,retail,445110,Elberta Grocery,"25250 State Avenue, Elberta, AL, 36530",+1-251-986-8681,,30.4139062,-87.594974,,,n_5219982001,shop=supermarket
"Robertsdale, AL",,retail,445110,Walmart Neighborhood Market,"2570 Government Boulevard, Mobile, AL, 36606",+1 251-586-6481,https://www.walmart.com/store/5740-mobile-al,30.6698286,-88.1042696,,,n_5315596710,"shop=supermarket, brand=Walmart, operator=Walmart"
"Robertsdale, AL",,retail,446120,Island Tan,"1545 Gulf Shores Parkway, Gulf Shores, AL, 36542",,,30.2665272,-87.6900775,,,n_5445774438,shop=beauty
"Robertsdale, AL",,retail,445310,Al's Liquor Tobacco and Beer,"1545 Gulf Shores Pkwy, Gulf Shores, AL, 36542",,,30.2668236,-87.6898702,,,n_5445774440,shop=alcohol
"Robertsdale, AL",,retail,452319,Dollar Tree,"3800 Gulf Shores Pkwy, Gulf Shores, AL, 36542",,https://www.dollartree.com/locations/al/gulf-shores/5214/,30.302523,-87.6815184,,,n_5457950851,"shop=variety_store, brand=Dollar Tree"
"Robertsdale, AL",,retail,452319,Family Dollar,"1720 Gulf Shores Pkwy, Gulf Shores, AL, 36542",,,30.2711454,-87.6860058,,,n_5469243980,"shop=variety_store, brand=Family Dollar"
"Robertsdale, AL",,retail,446120,Posh Nail Salon,"2200 East 2nd Street, Gulf Shores, AL, 36542",,,30.2752153,-87.6824716,,,n_5469634901,shop=beauty
"Robertsdale, AL",,retail,445230,Hazel's Market,,,,30.6158103,-87.9046412,,,n_5647283544,shop=greengrocer
"Robertsdale, AL",,retail,446120,Davis White Salon,"3501 Gulf Shores Pkwy, Gulf Shores, AL, 36542",,,30.2922023,-87.6850468,,,n_5779248341,shop=beauty
"Robertsdale, AL",,retail,446120,Happy Nails,"3849 Gulf Shores Pkwy, Gulf Shores, AL, 36542",,,30.3056918,-87.6838874,,,n_5779248580,shop=beauty
"Robertsdale, AL",,retail,446120,Salon Karma,"3849 Gulf Shores Pkwy, Gulf Shores, AL, 36542",,,30.3055665,-87.6838874,,,n_5779248581,shop=beauty
"Robertsdale, AL",,retail,445310,Gulf Liquor,"3859 Gulf Shores Pkwy, Gulf Shores, AL, 36542",,,30.3061608,-87.6836821,,,n_5779248583,shop=alcohol
"Robertsdale, AL",,retail,446120,Sense's Nails,"3947 Gulf Shores Pkwy, Gulf Shores, AL, 36542",,,30.3094775,-87.6840931,,,n_5779271155,shop=beauty
"Robertsdale, AL",,retail,446120,Aveda Salon,"3947 Gulf Shores Pkwy, Gulf Shores, AL, 36542",,,30.3093505,-87.6839226,,,n_5779271158,shop=beauty
"Robertsdale, AL",,retail,446120,Suns Up Tan,"25741 Perdido Beach Boulevard, Orange Beach, AL, 36561",,,30.2695975,-87.589543,,,n_5825069261,shop=beauty
"Robertsdale, AL",,retail,446120,Elite Nails,"25755 Perdido Beach Boulevard, Orange Beach, AL, 36561",,,30.2703545,-87.5888216,,,n_5825069268,shop=beauty
"Robertsdale, AL",,retail,446120,The Salon,"25405 Perdido Beach Boulevard, Orange Beach, AL, 36561",,,30.2692674,-87.5913045,,,n_5837702200,shop=beauty
"Robertsdale, AL",,retail,446120,Ocean Nails Spa,"25405 Perdido Beach Boulevard, Orange Beach, AL, 36561",,,30.2695606,-87.5913208,,,n_5837702206,shop=beauty
"Robertsdale, AL",,retail,445310,ABC Beverages,"25405 Perdido Beach Boulevard, Orange Beach, AL, 36561",,,30.26963,-87.5913797,,,n_5837702207,shop=alcohol
"Robertsdale, AL",,retail,453110,All Island Flowers,"25405 Perdido Beach Boulevard, Orange Beach, AL, 36561",,,30.2702652,-87.5922479,,,n_5837800403,shop=florist
"Robertsdale, AL",,retail,445310,Al's Liquor Tobacco Wine,"25405 Perdido Beach Boulevard, Orange Beach, AL, 36561",,,30.2702651,-87.5921839,,,n_5837800404,shop=alcohol
"Robertsdale, AL",,retail,446120,Top Nails,"25241 Perdido Beach Boulevard, Orange Beach, AL, 36561",,,30.2688514,-87.5944056,,,n_5837800430,shop=beauty
"Robertsdale, AL",,retail,445310,Al's Liquor Wine Cigars,"25241 Perdido Beach Boulevard, Orange Beach, AL, 36561",,,30.2690738,-87.5934776,,,n_5837800433,shop=alcohol
"Robertsdale, AL",,retail,446120,Fusion Spa,"4776 Main Street, Orange Beach, AL, 36561",,,30.2937217,-87.6282445,,,n_5839373700,shop=beauty
"Robertsdale, AL",,retail,446120,Rejuvenation Med Spa,"4776 Main Street, Orange Beach, AL, 36561",,,30.2942291,-87.6283754,,,n_5839373701,shop=beauty
"Robertsdale, AL",,retail,445120,The Market,"4790 Wharf Parkway West, Orange Beach, AL, 36561",,,30.2941665,-87.6294461,,,n_5839479140,shop=convenience
"Robertsdale, AL",,retail,446120,Breathe at the Beach,"4751 Main Street, Orange Beach, AL, 36561",,,30.2938577,-87.6289231,,,n_5839479143,shop=beauty
"Robertsdale, AL",,retail,446120,High Cotton,"4751 Main Street, Orange Beach, AL, 36561",,,30.2936672,-87.6288221,,,n_5839479163,shop=cosmetics
"Robertsdale, AL",,retail,445310,Maggies Bottle & Tail,"25753 Canal Road, Orange Beach, AL, 36561",,,30.2912195,-87.5860144,,,n_5850491586,shop=alcohol
"Robertsdale, AL",,retail,445310,A To Z Beverage,"4575 Orange Beach Boulevard, Orange Beach, AL, 36561",,,30.291295,-87.5817169,,,n_5850590918,shop=alcohol
"Robertsdale, AL",,retail,446120,Lee Nails,"25299 Canal Road, Orange Beach, AL, 36561",,,30.2908197,-87.5938475,,,n_5850767417,shop=beauty
"Robertsdale, AL",,retail,445120,Tom Thumb (North),"4575 Orange Beach Boulevard, Orange Beach, AL, 36561",,,30.2915688,-87.5817243,,,n_5852371215,shop=convenience
"Robertsdale, AL",,retail,445310,Seaside Package #1,"26651 Perdido Beach Boulevard, Orange Beach, AL, 36561",,,30.273859,-87.5695104,,,n_5870553029,shop=alcohol
"Robertsdale, AL",,retail,445292,Sweet Cone Alabama,"26651 Perdido Beach Boulevard, Orange Beach, AL, 36561",,,30.2737944,-87.5693547,,,n_5870553030,shop=confectionery
"Robertsdale, AL",,retail,445310,ALs Liquor Tobacco Wine,"25637 Canal Road, Orange Beach, AL, 36561",,,30.2912037,-87.5872613,,,n_5889684492,shop=alcohol
"Robertsdale, AL",,retail,445110,Walmart Neighborhood Market,"25241 Perdido Beach Boulevard, Orange Beach, AL, 36561",+1 251-974-1810,https://www.walmart.com/store/5653-orange-beach-al,30.2691306,-87.5942267,,,n_5979492189,"shop=supermarket, brand=Walmart, operator=Walmart"
"Robertsdale, AL",,retail,446120,Jewels Beach Salon,"27250 Perdido Beach Boulevard, Orange Beach, AL, 36561",,,30.2755177,-87.5604847,,,n_6012065770,shop=beauty
"Robertsdale, AL",,retail,446120,Angels Nest,"25856 Canal Road, Orange Beach, AL, 36561",,,30.2908082,-87.5838444,,,n_6932019883,shop=beauty
"Robertsdale, AL",,retail,452319,Dollar Tree,"1500 Government Street, Mobile, AL",,https://www.dollartree.com/locations/al/mobile/2799/,30.6814361,-88.0730778,,,n_6950257050,"shop=variety_store, brand=Dollar Tree"
"Robertsdale, AL",,retail,446120,Beach Barber & Salon,,,,30.3185927,-87.4266574,,,n_6997431485,shop=beauty
"Robertsdale, AL",,retail,445310,Seaside Liquor 4,"25751 Perdido Beach Boulevard, Orange Beach, AL, 36561",,,30.271518,-87.5891172,,,n_7229123370,shop=alcohol
"Robertsdale, AL",,retail,445110,Rouses Market,"25405 Perdido Beach Boulevard, Orange Beach, AL, 36561",,,30.2699399,-87.5916512,,,n_7229176912,shop=supermarket
"Robertsdale, AL",,retail,445120,QuickFill,"7144 Mobile Highway, Pensacola, FL, 32526",,,30.4955589,-87.328208,,,n_7707491622,shop=convenience
"Robertsdale, AL",,retail,445120,Circle K,"6920 Mobile Highway, Pensacola, FL, 32526",,,30.4864754,-87.3153175,,,n_7707495694,"shop=convenience, brand=Circle K"
"Robertsdale, AL",,retail,445120,Speedway,"29636 State Highway 59, Loxley, AL, 36551",,,30.6557729,-87.7598719,,,n_8949777553,"shop=convenience, brand=Speedway"
"Robertsdale, AL",,retail,452319,Dollar General,,,https://www.dollargeneral.com/store-directory/al/mobile/6650,30.6712344,-88.0988227,,,n_9106929350,"shop=variety_store, brand=Dollar General"
"Robertsdale, AL",,retail,452319,Dollar General,"305 West Kingsfield Road / CR186, Cantonment, FL, 32533",,https://www.dollargeneral.com/store-directory/fl/cantonment/22344,30.5773158,-87.3280069,,,n_9297339835,"shop=variety_store, brand=Dollar General"
"Robertsdale, AL",,retail,445120,Tom Thumb,,,,30.361445,-87.3582857,,,n_9435091129,shop=convenience
"Robertsdale, AL",,retail,446120,Glamour Nails,,,,30.3185572,-87.4265581,,,n_9652972209,shop=beauty
"Robertsdale, AL",,retail,445120,Circle K,,,,30.3194301,-87.423495,,,n_9652972210,"shop=convenience, brand=Circle K"
"Robertsdale, AL",,retail,446120,Paradise Nails,,,,30.3221844,-87.4201759,,,n_9653056422,shop=beauty
"Robertsdale, AL",,retail,445120,,,,,30.6043367,-87.8526952,,,n_9819334097,shop=convenience
"Robertsdale, AL",,retail,445120,,,,,30.6031795,-87.8358146,,,n_9819368069,shop=convenience
"Robertsdale, AL",,retail,445120,,,,,30.5240159,-87.8867914,,,n_9819371793,shop=convenience
"Robertsdale, AL",,retail,446110,Walgreens,"2 Greeno Road South, Fairhope, AL, 36532",,https://www.walgreens.com/locator/walgreens-2+greeno+rd+s-fairhope-al-36532/id=6084,30.5232166,-87.8869133,,,n_9819371794,"shop=chemist, brand=Walgreens"
"Robertsdale, AL",,retail,446120,,,,,30.6084192,-87.899669,,,n_9819410079,shop=beauty
"Robertsdale, AL",,retail,445110,Winn-Dixie,"187 Baldwin Square, Fairhope, AL, 36532",+1 251-990-5188,https://www.winndixie.com/storedetails/fairhope/al?search=599,30.5206562,-87.8847345,,,n_9819442098,"shop=supermarket, brand=Winn-Dixie"
"Robertsdale, AL",,retail,452210,Big Lots,"150 Eastern Shore Shopping Center, Fairhope, AL, 36532",+1 251-929-3640,https://local.biglots.com/al/fairhope/150-eastern-shore-shopping-ctr,30.5230879,-87.8848106,,,n_9819442101,"shop=department_store, brand=Big Lots"
"Robertsdale, AL",,retail,446120,,,,,30.5232916,-87.8848875,,,n_9819442104,shop=beauty
"Robertsdale, AL",,retail,452319,Dollar Tree,,,https://www.dollartree.com/locations/al/fairhope/2936/,30.5195308,-87.8855019,,,n_9819470330,"shop=variety_store, brand=Dollar Tree"
"Robertsdale, AL",,retail,452319,Dollar General,,,https://www.dollargeneral.com/store-directory/al/fairhope/4952,30.5194991,-87.8844444,,,n_9819470331,"shop=variety_store, brand=Dollar General"
"Robertsdale, AL",,retail,452319,Dollar Tree,,,https://www.dollartree.com/locations/al/foley/2166/,30.3844414,-87.6850811,,,n_9888696451,"shop=variety_store, brand=Dollar Tree"
"Robertsdale, AL",,retail,445120,Bebo's,,,,30.3815359,-87.6839673,,,n_9888696453,shop=convenience
"Robertsdale, AL",,retail,445120,,,,,30.4751122,-87.7949877,,,n_9928291741,shop=convenience
"Robertsdale, AL",,retail,445120,,,,,30.4738156,-87.7945848,,,n_9928291742,shop=convenience
"Robertsdale, AL",,retail,445120,,,,,30.5461141,-87.768084,,,n_9968912699,shop=convenience
"Robertsdale, AL",,retail,445120,,,,,30.5449637,-87.8529716,,,n_9980932026,shop=convenience
"Robertsdale, AL",,retail,445120,,,,,30.3270945,-87.6819366,,,n_10115621543,shop=convenience
"Robertsdale, AL",,retail,445110,Publix,"8684 Beulah Road, Pensacola, FL, 32526",+1 850-944-8833,https://www.publix.com/locations/1746-nine-mile-crossing,30.5336814,-87.3792659,,,n_10761843930,"shop=supermarket, brand=Publix"
"Robertsdale, AL",,retail,445120,,,,,30.5532131,-88.1223126,,,n_11059567671,shop=convenience
"Robertsdale, AL",,retail,446110,Scott's Pharmacy,"6505 US-29, Molino, FL, 32577",+1-850-619-0326,https://www.scottspharmacyrx.com/,30.7173381,-87.350253,,,n_11077827472,shop=chemist
"Robertsdale, AL",,retail,446120,Mystic Nails Spa,"2107 West Nine Mile Road, Pensacola, FL, 32534",,,30.533373,-87.3116449,,,n_11182364850,shop=beauty
"Robertsdale, AL",,retail,445120,,,,,30.41499,-87.5819003,,,n_11498509685,shop=convenience
"Robertsdale, AL",,retail,445110,Publix,"2614 South McKenzie Street, Foley, AL, 36535",+1 251-943-3329,https://www.publix.com/locations/1673,30.377128,-87.6862157,,,n_11618396449,"shop=supermarket, brand=Publix"
"Robertsdale, AL",,retail,445110,ALDI,"130 East Pride Boulevard, Foley, AL, 36530",+1 844-476-4152,https://stores.aldi.us/al/foley/130-e-pride-blvd,30.3806781,-87.6819339,,,n_11618396450,"shop=supermarket, brand=ALDI"
"Robertsdale, AL",,retail,445110,Piggly Wiggly,"1078 South Hickory Street, Loxley, AL, 36551",+1 251-929-9740,https://wedigthepig.com/,30.6205932,-87.7536775,,,n_11618396451,"shop=supermarket, brand=Piggly Wiggly"
"Robertsdale, AL",,retail,445110,Publix,"18125 Wright Boulevard, Fairhope, AL, 36532-7335",+1 251-279-6442,https://www.publix.com/locations/1809,30.4889799,-87.8887318,,,n_11618396452,"shop=supermarket, brand=Publix"
"Robertsdale, AL",,retail,445110,Publix,"9867 State Highway 104, Fairhope, AL, 36532-4392",+1 251-279-6001,https://www.publix.com/locations/1799,30.5468043,-87.8548713,,,n_11618396453,"shop=supermarket, brand=Publix"
"Robertsdale, AL",,retail,445110,Piggly Wiggly,"6530 Spanish Fort Boulevard, Spanish Fort Boulevard, AL, 36527",+1 251-308-9584,https://wedigthepig.com/,30.6674754,-87.9094745,,,n_11618396455,"shop=supermarket, brand=Piggly Wiggly"
"Robertsdale, AL",,retail,445110,Piggly Wiggly,"1360 Navco Road, Mobile, AL, 36605",+1 251-206-5413,,30.646331,-88.102605,,,n_11618396465,"shop=supermarket, brand=Piggly Wiggly"
"Robertsdale, AL",,retail,452319,Dollar General,,,,30.7812695,-87.8783275,,,n_11972150341,"shop=variety_store, brand=Dollar General"
"Robertsdale, AL",,retail,445110,Piggly Wiggly,,,,30.6195904,-88.0747709,,,n_11973766570,"shop=supermarket, brand=Piggly Wiggly"
"Robertsdale, AL",,retail,445110,APS Foundation Repair and Waterproofing,"60 Saint Francis Street, Mobile, AL, 36602",+1-251-220-2728,https://www.apsfoundationrepair.com,30.6936982,-88.0404205,,,n_12801766888,shop=supermarket
"Robertsdale, AL",,retail,446110,Royal St Pharmacy,"1 South Royal Street, Mobile, AL, 36602",+1-251-277-8990,,30.6922063,-88.0407498,,,n_12889773025,shop=chemist
"Robertsdale, AL",,retail,445210,Mosley's Fine Meats,,,,30.5867822,-87.8994306,,,n_12957362944,shop=butcher
"Robertsdale, AL",,retail,452210,Kohl's,"21000 Town Center Avenue, Spanish Fort, AL, 36527",+1 251-626-2114,https://www.kohls.com/stores/al/spanishfort-1200.shtml,30.6625048,-87.9055926,,,w_222583995,"shop=department_store, brand=Kohl's"
"Robertsdale, AL",,retail,452210,JCPenney,,,,30.6605558,-87.9065461,,,w_222583996,"shop=department_store, brand=JCPenney"
"Robertsdale, AL",,retail,445110,Publix,"13390 Perdido Key Drive, Pensacola, FL, 32507",+1 850-492-5090,https://www.publix.com/locations/1296,30.3181452,-87.4265201,,,w_230855784,"shop=supermarket, brand=Publix"
"Robertsdale, AL",,retail,445110,Walmart Supercenter,"2951 South Blue Angel Parkway, Pensacola, FL, 32506",+1 850-458-5550,https://www.walmart.com/store/3484-pensacola-fl,30.3605945,-87.3620024,,,w_298160504,"shop=supermarket, brand=Walmart, operator=Walmart"
"Robertsdale, AL",,retail,445120,Clark's Exxon,"3690 Gulf Shores Pkwy, Gulf Shores, AL, 36542",,,30.2970272,-87.6820858,,,w_304798787,shop=convenience
"Robertsdale, AL",,retail,452210,Target,"3820 Gulf Shores Parkway, Gulf Shores, AL, 36542",+1 251-967-7001,https://www.target.com/sl/gulf-shores/2154,30.3039072,-87.6800281,,,w_304798792,"shop=department_store, brand=Target"
"Robertsdale, AL",,retail,445110,Winn-Dixie,"50 South Blue Angel Parkway, Pensacola, FL, 32506",+1 850-457-1395,https://www.winndixie.com/storedetails/pensacola/fl?search=535,30.4019342,-87.3402938,,,w_319202763,"shop=supermarket, brand=Winn-Dixie"
"Robertsdale, AL",,retail,446120,Ulta Beauty,"6850 90, Daphne, AL, 36526",+1 251-621-9512,https://www.ulta.com/stores/daphne-al-508,30.6532918,-87.9066347,,,w_321216746,"shop=beauty, brand=Ulta Beauty"
"Robertsdale, AL",,retail,446110,CVS Pharmacy,,,https://www.cvs.com/store-locator/mobile-al-pharmacies/2280-mlk-blvd-mobile-al-36610/storeid=4877,30.7174943,-88.0822267,,,w_337070935,"shop=chemist, brand=CVS Pharmacy"
"Robertsdale, AL",,retail,445110,,,,,30.7163214,-88.0821723,,,w_343299999,shop=supermarket
"Robertsdale, AL",,retail,446110,Walgreens,,,https://www.walgreens.com/locator/walgreens-2050+government+st-mobile-al-36606/id=7609,30.6759871,-88.0886854,,,w_343303571,"shop=chemist, brand=Walgreens"
"Robertsdale, AL",,retail,446110,CVS Pharmacy,,,https://www.cvs.com/store-locator/mobile-al-pharmacies/2550-dauphin-st-mobile-al-36606/storeid=4900,30.6882147,-88.1007841,,,w_343303575,"shop=chemist, brand=CVS Pharmacy"
"Robertsdale, AL",,retail,445310,,,,,30.6895423,-88.0981043,,,w_346960502,shop=alcohol
"Robertsdale, AL",,retail,445120,A-1,,,,30.7438756,-88.068626,,,w_352841780,shop=convenience
"Robertsdale, AL",,retail,445110,Publix,"2180 West Nine Mile Road, Pensacola, FL, 32534",+1 850-473-5020,https://www.publix.com/,30.5360947,-87.3122604,,,w_353036182,"shop=supermarket, brand=Publix"
"Robertsdale, AL",,retail,446110,Walgreens,"25801 Perdido Beach Boulevard, Orange Beach, AL, 36561",+1 251 981 7019,https://www.walgreens.com/locator/walgreens-25801+perdido+beach+boulevard-orange+beach-al-36561/id=17739,30.2704206,-87.5854193,,,w_353066186,"shop=chemist, brand=Walgreens"
"Robertsdale, AL",,retail,452319,Family Dollar,,,,30.6952899,-88.0548884,,,w_353941375,"shop=variety_store, brand=Family Dollar"
"Robertsdale, AL",,retail,445110,Greer's Downtown Market,"851 Government Street, Mobile, AL, 36602",,,30.6858468,-88.0528805,,,w_354671019,shop=supermarket
"Robertsdale, AL",,retail,445110,Walmart Neighborhood Market,"9301 Pine Forest Road, Pensacola, FL, 32534",+1 850-483-6007,https://www.walmart.com/store/6531-pensacola-fl,30.5327048,-87.3145449,,,w_355850641,"shop=supermarket, brand=Walmart, operator=Walmart"
"Robertsdale, AL",,retail,445120,Circle K,"2205 West Nine Mile Road, Pensacola, FL, 32534",,https://www.circlek.com/store-locator/US/pensacola/2205-w-nine-mile-rd/2704958,30.5336513,-87.3136013,,,w_355850643,"shop=convenience, amenity=fuel, brand=Circle K"
"Robertsdale, AL",,retail,445110,Walmart Neighborhood Market,"6670 Mobile Highway, Pensacola, FL, 32526",+1 850-483-6126,https://www.walmart.com/store/4357-pensacola-fl,30.4778081,-87.3083062,,,w_357924410,"shop=supermarket, brand=Walmart, operator=Walmart"
"Robertsdale, AL",,retail,452319,Family Dollar,,,,30.4863148,-87.307014,,,w_361489568,"shop=variety_store, brand=Family Dollar"
"Robertsdale, AL",,retail,445120,Valero,,,,30.6075346,-87.3172694,,,w_361986449,"shop=convenience, brand=Valero"
"Robertsdale, AL",,retail,445120,RaceWay,,,,30.6106464,-87.3207309,,,w_361986455,"shop=convenience, brand=RaceWay"
"Robertsdale, AL",,retail,445120,,,,,30.611893,-87.3201259,,,w_361986602,shop=convenience
"Robertsdale, AL",,retail,445110,Aldi,"1550 Government Street, Mobile, AL, 36604",+1 251-471-3115,https://www.winndixie.com/storedetails/mobile/al?search=1333,30.6804456,-88.0753452,,,w_362829504,"shop=supermarket, brand=Aldi"
"Robertsdale, AL",,retail,445292,Three Georges Southern Chocolates,"226 Dauphin Street, Mobile, AL, 36602",,,30.691445,-88.0439257,,,w_362999925,shop=chocolate
"Robertsdale, AL",,retail,445310,Dauphin Market,"201 Dauphin Street, Mobile, AL, 36602",,,30.6913399,-88.0429341,,,w_362999935,shop=alcohol
"Robertsdale, AL",,retail,445110,Walmart Supercenter,"2200 South McKenzie Street, Foley, AL, 36535",+1 251-943-3400,https://www.walmart.com/store/904-foley-al,30.3825014,-87.6864115,,,w_366848199,"shop=supermarket, brand=Walmart, operator=Walmart"
"Robertsdale, AL",,retail,445120,Pier 33 Grocery,900 West Beach Boulevard,,,30.2461681,-87.7038559,,,w_392885864,shop=convenience
"Robertsdale, AL",,retail,445110,Walmart Supercenter,"701 McMeans Ave;McMeans Avenue, Bay Minette, AL, 36507",+1 251-937-5558,https://www.walmart.com/store/2739-bay-minette-al,30.8860509,-87.7900853,,,w_397647967,"shop=supermarket, brand=Walmart, operator=Walmart"
"Robertsdale, AL",,retail,452319,Dollar General,"5955 W Nine Mile Rd, Pensacola, FL, 32526",+1-850-941-0191,https://www.dollargeneral.com/store-directory/fl/pensacola/13138,30.5348767,-87.3832852,,,w_429873439,"shop=variety_store, brand=Dollar General"
"Robertsdale, AL",,retail,445120,Tom Thumb,"5901 West Nine Mile Road, Pensacola, FL, 32526",,,30.5348803,-87.3810305,,,w_429887942,shop=convenience
"Robertsdale, AL",,retail,452319,Dollar Tree,,,https://www.dollartree.com/locations/al/mobile/5821/,30.6511159,-88.1148961,,,w_435224274,"shop=variety_store, brand=Dollar Tree"
"Robertsdale, AL",,retail,452210,Ross,"1310 Tingle Circle East, Mobile, AL, 36606",+1 251-478-1376,,30.6527314,-88.1157059,,,w_435224284,"shop=department_store, brand=Ross"
"Robertsdale, AL",,retail,445110,Greer's St. Louis Market,260 Saint Louis Street,,,30.6937446,-88.0459169,,,w_435400910,shop=supermarket
"Robertsdale, AL",,retail,453110,Flowersby the Shore,"1316 Gulf Shores Parkway, Gulf Shores, AL, 36542",,,30.2630782,-87.6881162,,,w_475943030,shop=florist
"Robertsdale, AL",,retail,446110,Walgreens,"Gulf Shores, AL, 36542",,https://www.walgreens.com/locator/walgreens-1421+gulf+shores+pkwy-gulf+shores-al-36542/id=1230,30.26379,-87.6893432,,,w_475943035,"shop=chemist, brand=Walgreens"
"Robertsdale, AL",,retail,445120,Battles Warf Mini-Mart,,,,30.4919019,-87.9263574,,,w_478366553,shop=convenience
"Robertsdale, AL",,retail,445310,Red or White Wine Fairborn,,,,30.5224937,-87.9033959,,,w_479310337,shop=wine
"Robertsdale, AL",,retail,445110,Greer's Fairhope Market,,,,30.5211976,-87.9025556,,,w_479310363,shop=supermarket
"Robertsdale, AL",,retail,445110,Walmart Supercenter,"170 East Fort Morgan Road, Gulf Shores, AL, 35642;36542",+1 251-968-5871,https://www.walmart.com/store/2748-gulf-shores-al,30.2674021,-87.6861677,,,w_486653956,"shop=supermarket, brand=Walmart, operator=Walmart"
"Robertsdale, AL",,retail,445110,Walmart Supercenter,"27520 US-98, Daphne, AL, 36526",+1 251-626-0923,https://www.walmart.com/store/934-daphne-al,30.6249654,-87.9046497,,,w_513821507,"shop=supermarket, brand=Walmart, operator=Walmart"
"Robertsdale, AL",,retail,452210,Big Lots,"3161 South McKenzie Street, Foley, AL, 36535",+1 251-943-8762,https://local.biglots.com/al/foley/3161-south-mckenzie-st,30.3678315,-87.6801192,,,w_527359996,"shop=department_store, brand=Big Lots"
"Robertsdale, AL",,retail,452210,"Checkouts, Inc.",,,,30.3971691,-87.6849733,,,w_528476820,shop=department_store
"Robertsdale, AL",,retail,445120,Circle K,701 McKenzie Street,,,30.3992006,-87.6826229,,,w_528476824,"shop=convenience, brand=Circle K"
"Robertsdale, AL",,retail,452319,Dollar General,"244 Gulf Shores Parkway, Gulf Shores, AL, 36542",,https://www.dollargeneral.com/store-directory/al/gulf-shores/14179,30.2501515,-87.6890271,,,w_565119924,"shop=variety_store, brand=Dollar General"
"Robertsdale, AL",,retail,445310,ABC Select Spirits,"1541 Gulf Shores Parkway, Gulf Shores, AL, 36542",,,30.2656179,-87.6880251,,,w_565167021,shop=alcohol
"Robertsdale, AL",,retail,446120,Cleopatra's Spa & Salon,"1538 Gulf Shores Parkway, Gulf Shores, AL, 36542",,,30.2662911,-87.6881817,,,w_565167650,shop=beauty
"Robertsdale, AL",,retail,446120,CC's Salon,"1556 Gulf Shores Parkway, Gulf Shores, AL, 36542",,,30.2674101,-87.6880472,,,w_565168712,shop=beauty
"Robertsdale, AL",,retail,445310,Al's Liquor Tobacco Wine,"817 Gulf Shores Parkway, Gulf Shores, AL, 36542",,,30.2564041,-87.6889329,,,w_565426477,shop=alcohol
"Robertsdale, AL",,retail,445310,Seaside Liquor #2,"316 East Beach Boulevard, Gulf Shores, AL, 36542",,,30.2492662,-87.6850396,,,w_565536331,shop=alcohol
"Robertsdale, AL",,retail,445310,ABC Select Spirits,"25803 Perdido Beach Boulevard, Orange Beach, AL, 36561",,,30.2706176,-87.5847129,,,w_567648403,shop=alcohol
"Robertsdale, AL",,retail,445110,Publix,"25771 Perdido Beach Boulevard, Orange Beach, AL, 36561",+1 251-980-1400,https://www.publix.com/locations/1213,30.2717427,-87.5880335,,,w_568465871,"shop=supermarket, brand=Publix"
"Robertsdale, AL",,retail,445310,,"1620 Gulf Shores Pkwy, Gulf Shores, AL, 36542",,,30.2691865,-87.6878724,,,w_568503905,shop=alcohol
"Robertsdale, AL",,retail,445120,Barge In,"2105 East 2nd Street, Gulf Shores, AL, 36542",,,30.2739987,-87.6837445,,,w_568517568,shop=convenience
"Robertsdale, AL",,retail,445110,Greer's Old Bay Market,"10835 Dauphin Island Parkway, Theodore, AL, 36582",,,30.465486,-88.1138451,,,w_572773733,shop=supermarket
"Robertsdale, AL",,retail,452319,Dollar General,"3250 Fowl River Rd, Theodore, AL, 36582",,https://www.dollargeneral.com/store-directory/al/theodore/9096,30.4661814,-88.1151718,,,w_572773734,"shop=variety_store, brand=Dollar General"
"Robertsdale, AL",,retail,445120,Kangaroo Express,"3225 West Nine Mile Road, Pensacola, FL, 32534",,,30.5338473,-87.3314541,,,w_599054601,"shop=convenience, brand=Kangaroo Express"
"Robertsdale, AL",,retail,445310,Seaside Liquor #3,"412 West Beach Boulevard, Gulf Shores, AL, 36542",,,30.2476638,-87.6959052,,,w_605013150,shop=alcohol
"Robertsdale, AL",,retail,445120,Sams Bait & Tackle,"27122 Canal Road, Orange Beach, AL, 36561",,,30.2950035,-87.5620721,,,w_605982574,shop=convenience
"Robertsdale, AL",,retail,452210,Dillard's,,+1 251-621-2257,https://www.dillards.com/stores/alabama/eastern-shore-centre-spanish-fort/0239,30.6671705,-87.8490978,,,w_613919462,"shop=department_store, brand=Dillard's"
"Robertsdale, AL",,retail,452210,Belk,,,,30.6714862,-87.8491461,,,w_613927564,"shop=department_store, brand=Belk"
"Robertsdale, AL",,retail,445110,Publix,"10179 Eastern Shore Drive, Spanish Fort, AL, 36527-5801",+1 251-621-9065,https://www.publix.com/locations/1400,30.6740858,-87.8480566,,,w_613927666,"shop=supermarket, brand=Publix"
"Robertsdale, AL",,retail,445120,Chevron,"29805 AL-181, Daphne, AL, 36526",,,30.659702,-87.852735,,,w_615411430,"shop=convenience, amenity=fuel, brand=Chevron"
"Robertsdale, AL",,retail,445120,Malbis Shell Express Car Wash,"29640 AL-181, Daphne, AL, 36526",+12512329261,,30.6564303,-87.8513442,,,w_615411561,shop=convenience
"Robertsdale, AL",,retail,445120,,,,,30.6760879,-87.8465116,,,w_615421481,shop=convenience
"Robertsdale, AL",,retail,445310,Seaside Liquor 1,"25601 Perdido Beach Boulevard, Orange Beach, AL, 36561",,,30.2690883,-87.5904494,,,w_616082819,shop=alcohol
"Robertsdale, AL",,retail,445120,Tom Thumb (South),"25435 Perdido Beach Boulevard, Orange Beach, AL, 36561",,,30.2690728,-87.5908319,,,w_616082820,shop=convenience
"Robertsdale, AL",,retail,452319,Dollar General,"24881 Perdido Beach Boulevard, Orange Beach, AL, 36561",,https://www.dollargeneral.com/store-directory/al/orange-beach/16294,30.2669793,-87.6001814,,,w_617569527,"shop=variety_store, brand=Dollar General"
"Robertsdale, AL",,retail,452319,Dollar General,"4225 Orange Beach Boulevard, Orange Beach, AL, 36561",,https://www.dollargeneral.com/store-directory/al/orange-beach/5707,30.2863789,-87.5817685,,,w_617582923,"shop=variety_store, brand=Dollar General"
"Robertsdale, AL",,retail,445120,Wahoo Shell,"6787 Foley Beach Express, Orange Beach, AL, 36561",,,30.323374,-87.6529082,,,w_617724251,"shop=convenience, brand=Shell"
"Robertsdale, AL",,retail,445120,Circle K,"4566 Orange Beach Boulevard, Orange Beach, AL, 36561",,,30.2915796,-87.580605,,,w_617777425,"shop=convenience, brand=Circle K"
"Robertsdale, AL",,retail,452319,Dollar General North,"25130 Canal Road, Orange Beach, AL, 36561",,https://www.dollargeneral.com/store-directory/al/orange-beach/14166,30.2895417,-87.5957166,,,w_619028485,"shop=variety_store, brand=Dollar General NORTH"
"Robertsdale, AL",,retail,445310,FloraBama Liquor & Lottery,"17395 Perdido Key Drive, Perdido Key, FL, 32507",,,30.2820972,-87.5177432,,,w_619381316,shop=alcohol
"Robertsdale, AL",,retail,445310,ABC Beverages North,"23680 Canal Road, Orange Beach, AL, 36561",,,30.289768,-87.6199305,,,w_619681539,shop=alcohol
"Robertsdale, AL",,retail,445120,Summit East,"26595 Perdido Beach Boulevard, Orange Beach, AL, 36561",,,30.273714,-87.5708025,,,w_621429445,shop=convenience
"Robertsdale, AL",,retail,445120,Summit West,"23141 Perdido Beach Boulevard, Orange Beach, AL, 36561",,,30.2594606,-87.6295095,,,w_631227842,shop=convenience
"Robertsdale, AL",,retail,445310,Tide Package Store #2,"23151 Perdido Beach Boulevard, Orange Beach, AL, 36561",,,30.2594367,-87.6291934,,,w_631227849,shop=alcohol
"Robertsdale, AL",,retail,452319,Dollar General,"20052 Richard Childress Ln, Foley, AL, 36535",,https://www.dollargeneral.com/store-directory/al/foley/13609,30.3333251,-87.682101,,,w_668459155,"shop=variety_store, brand=Dollar General"
"Robertsdale, AL",,retail,445110,Publix,"100 North Florida Street, Mobile, AL, 36607",+1 251-471-4860,https://www.publix.com/locations/1604,30.6925078,-88.0989552,,,w_686540093,"shop=supermarket, brand=Publix"
"Robertsdale, AL",,retail,445120,Food Mart,"7945 Pine Forest Road, Pensacola, FL, 32526",,,30.5192252,-87.3140231,,,w_698936633,shop=convenience
"Robertsdale, AL",,retail,445120,Cumberland Farms,,,,30.5179437,-87.3134151,,,w_698936647,"shop=convenience, brand=Cumberland Farms, operator=Cumberland Farms"
"Robertsdale, AL",,retail,445120,Race Way,,,,30.5165451,-87.3110718,,,w_698936712,shop=convenience
"Robertsdale, AL",,retail,445120,Snappy Foods,,,,30.5243293,-87.3129909,,,w_698936743,shop=convenience
"Robertsdale, AL",,retail,452210,Target,"2950 South Blue Angel Parkway, Pensacola, FL, 32506-6905",+1 850-454-3000,https://www.target.com/sl/pensacola-west/2445,30.3628808,-87.357332,,,w_701938057,"shop=department_store, brand=Target"
"Robertsdale, AL",,retail,445110,The Fresh Market,,,,30.6539682,-87.9040189,,,w_711097099,"shop=supermarket, brand=The Fresh Market"
"Robertsdale, AL",,retail,445120,Circle K,"2011 Gulf Shores Parkway, Gulf Shores, AL, 36542",+1-251-968-7781,,30.2729749,-87.6882503,,,w_727077058,"shop=convenience, brand=Circle K"
"Robertsdale, AL",,retail,445110,Piggly Wiggly,"100 Plantation Pointe, Fairhope, AL, 36532",+1 251-928-0239,,30.5250581,-87.8840737,,,w_817088228,"shop=supermarket, brand=Piggly Wiggly"
"Robertsdale, AL",,retail,452319,Dollar General,"8214 Lillian Highway, Pensacola, FL, 32506",,https://www.dollargeneral.com/store-directory/fl/pensacola/20561,30.4214376,-87.3203252,,,w_821213617,"shop=variety_store, brand=Dollar General"
"Robertsdale, AL",,retail,452319,Family Dollar,,,,30.4110935,-87.4432517,,,w_821502190,"shop=variety_store, brand=Family Dollar"
"Robertsdale, AL",,retail,445110,Schwan Food Co,"3230 Godwin Lane, Pensacola, FL, 32526",,,30.4761794,-87.3091771,,,w_825442114,shop=supermarket
"Robertsdale, AL",,retail,452319,Dollar General,"7071 Mobile Highway, Pensacola, FL, 32526",+1 850-332-1410,https://www.dollargeneral.com/store-directory/fl/pensacola/19555,30.4919347,-87.3237072,,,w_825448193,"shop=variety_store, brand=Dollar General"
"Robertsdale, AL",,retail,452319,Dollar General,"32225 US-90, Seminole, AL, 36574",,https://www.dollargeneral.com/store-directory/al/seminole/14243,30.5166427,-87.476849,,,w_825545776,"shop=variety_store, brand=Dollar General"
"Robertsdale, AL",,retail,452210,Coast Guard Exchange,"1500 15th Stree, Mobile, AL, 36615",,https://shopcgx.com/,30.6496138,-88.060649,,,w_830849493,"shop=department_store, operator=Coast Guard Exchange System"
"Robertsdale, AL",,retail,445120,Circle K,,,,30.5363091,-87.3811728,,,w_852735738,"shop=convenience, brand=Circle K"
"Robertsdale, AL",,retail,445110,Piggly Wiggly,"2306 Saint Stephens Road, Mobile, AL, 36617",+1 251-243-7574,,30.7193214,-88.0824378,,,w_880363808,"shop=supermarket, brand=Piggly Wiggly"
"Robertsdale, AL",,retail,446120,,,,,30.7189997,-88.0823844,,,w_880363809,shop=beauty
"Robertsdale, AL",,retail,446120,,,,,30.7189001,-88.0823312,,,w_880363810,shop=beauty
"Robertsdale, AL",,retail,452319,Dollar General,,,https://www.dollargeneral.com/store-directory/al/mobile/13626,30.7216127,-88.0846052,,,w_880365785,"shop=variety_store, brand=Dollar General"
"Robertsdale, AL",,retail,445292,Punta Clara Candy Kitchen,"17111 Scenic Highway 98, Fairhope, AL, 36532",,,30.4744135,-87.9196104,,,w_946821182,shop=confectionery
"Robertsdale, AL",,retail,452319,Dollar General,"1310 South Highway 29, Cantonment, FL, 32533",,https://www.dollargeneral.com/store-directory/fl/cantonment/7049,30.5815745,-87.2973095,,,w_947770831,"shop=variety_store, brand=Dollar General"
"Robertsdale, AL",,retail,445110,Winn-Dixie,"1550 South Highway 29, Cantonment, FL, 32533",+1 850-968-3388,https://www.winndixie.com/storedetails/cantonment/fl?search=498,30.5806641,-87.2958966,,,w_947770832,"shop=supermarket, brand=Winn-Dixie"
"Robertsdale, AL",,retail,452319,Dollar General,,,https://www.dollargeneral.com/store-directory/al/foley/6815,30.3878941,-87.6841892,,,w_964414322,"shop=variety_store, brand=Dollar General"
"Robertsdale, AL",,retail,445110,Greer's,,,,30.673701,-88.0557635,,,w_1035351171,shop=supermarket
"Robertsdale, AL",,retail,452210,Target,"8224 Highway 98, Daphne, AL, 36526-4252",+1 251-621-3540,https://www.target.com/sl/daphne/1274,30.6027052,-87.8960371,,,w_1039907022,"shop=department_store, brand=Target"
"Robertsdale, AL",,retail,452319,Dollar General,"13140 Sorrento Road, Pensacola, 32507",,https://www.dollargeneral.com/store-directory/fl/pensacola/9271,30.3218011,-87.4213737,,,w_1050436070,"shop=variety_store, brand=Dollar General"
"Robertsdale, AL",,retail,446110,Walgreens,,,,30.682536,-88.0676645,,,w_1059075791,"shop=chemist, brand=Walgreens"
"Robertsdale, AL",,retail,445110,Walmart Supercenter,"21141 State Highway 59, Robertsdale, AL, 36567",+1 251-947-4424,https://www.walmart.com/store/6173-robertsdale-al,30.5321387,-87.7111192,,,w_1076213707,"shop=supermarket, brand=Walmart, operator=Walmart"
"Robertsdale, AL",,retail,445110,ALDI,"2950 South Blue Angel Parkway, Pensacola, FL, 32506",+1 877-476-4157,https://stores.aldi.us/fl/pensacola/2950-s-blue-angel-pkwy-600,30.3617934,-87.3569591,,,w_1080887226,"shop=supermarket, brand=ALDI"
"Robertsdale, AL",,retail,452319,Dollar General,,,https://www.dollargeneral.com/store-directory/al/summerdale/11815,30.4733354,-87.7930774,,,w_1083365708,"shop=variety_store, brand=Dollar General"
"Robertsdale, AL",,retail,452319,Dollar General,,,https://www.dollargeneral.com/store-directory/al/daphne/22168,30.6761655,-87.8242436,,,w_1088041741,"shop=variety_store, brand=Dollar General"
"Robertsdale, AL",,retail,452319,Dollar General,,,https://www.dollargeneral.com/store-directory/al/gulf-shores/20457,30.2388269,-87.8574148,,,w_1105439116,"shop=variety_store, brand=Dollar General"
"Robertsdale, AL",,retail,445120,Cumberland Farms,"392 S. Highway 29, Cantonment, FL, 32533",,,30.6009357,-87.3135858,,,w_1123470573,"shop=convenience, brand=Cumberland Farms"
"Robertsdale, AL",,retail,452319,Dollar Tree,"2950 South Blue Angel Parkway, Pensacola, FL, 32506",,https://www.dollartree.com/locations/fl/pensacola/8725/,30.3620963,-87.3571178,,,w_1123472713,"shop=variety_store, brand=Dollar Tree"
"Robertsdale, AL",,retail,446191,BAM Nutrition,"394 South Highway 29, Cantonment, FL, 32533",(850) 679-4706,,30.6004335,-87.3135075,,,w_1123474795,shop=health_food
"Robertsdale, AL",,retail,452319,Dollar General,,,https://www.dollargeneral.com/store-directory/al/foley/20146,30.3551098,-87.7178768,,,w_1151416773,"shop=variety_store, brand=Dollar General"
"Robertsdale, AL",,retail,452319,Dollar General,,,https://www.dollargeneral.com/store-directory/al/bay-minette/18945,30.8893213,-87.7629498,,,w_1151569828,"shop=variety_store, brand=Dollar General"
"Robertsdale, AL",,retail,445120,Buc-ee's,"20403 County Road 68, Robertsdale, AL, 36567",+1-979-238-6390,,30.6342426,-87.6767544,,,w_1215344674,"shop=convenience, brand=Buc-ee's"
"Robertsdale, AL",,retail,445110,Walmart Supercenter,"10040 County Road 48, Fairhope, AL, 36532",+1 251-990-9006,https://www.walmart.com/store/4333-fairhope-al,30.5222994,-87.8487979,,,w_1222776495,"shop=supermarket, brand=Walmart, operator=Walmart"
"Robertsdale, AL",,retail,445110,Aldi,,,,30.5241748,-87.851601,,,w_1222776503,shop=supermarket
"Robertsdale, AL",,retail,452319,Dollar General,"101 Old Daphne Road, Bay Minette",,https://www.dollargeneral.com/store-directory/al/bay-minette/10518,30.8393231,-87.7741462,,,w_1234908091,"shop=variety_store, brand=Dollar General"
"Robertsdale, AL",,retail,445110,Publix,"27955 US Highway 98, Daphne, AL, 36526",+1 251-626-1305,https://www.publix.com/locations/1362,30.6309067,-87.9125916,,,w_1235770784,"shop=supermarket, brand=Publix"
"Robertsdale, AL",,retail,452319,Dollar General,,,https://www.dollargeneral.com/store-directory/fl/pensacola/14778,30.4621462,-87.3152523,,,w_1236165504,"shop=variety_store, brand=Dollar General"
"Robertsdale, AL",,retail,452319,Dollar General,,,,30.6678457,-88.055183,,,w_1327413553,"shop=variety_store, brand=Dollar General"
"Robertsdale, AL",,retail,453991,Havana Rey's,"2351 Airport Boulevard, Mobile, AL, 36606",,,30.6761435,-88.0961285,,,w_1336866668,shop=tobacco
"Robertsdale, AL",,retail,445310,Package King,"2320 Government Street, Mobile, AL, 36606",,,30.6739902,-88.0957871,,,w_1336866687,shop=alcohol
"Robertsdale, AL",,retail,452319,Dollar General,"28580 County Road 13, Daphne, AL, 36526",,,30.641523,-87.8657318,,,w_1381297845,"shop=variety_store, brand=Dollar General"
"Robertsdale, AL",,retail,445110,Rouses,"3075 US-98, Daphne, AL, 36526",+1 251-270-5006,,30.6196163,-87.9077987,,,w_1382981319,"shop=supermarket, brand=Rouses"
"Robertsdale, AL",,retail,445110,Aldi,"27060 US Highway 98, Daphne, AL, 36526",+1 877-476-4147,https://stores.aldi.us/al/daphne/27060-us-hwy-98,30.6198072,-87.9039815,,,w_1382981321,"shop=supermarket, brand=Aldi"
"Robertsdale, AL",,retail,445110,,,,,30.3676644,-87.6822336,,,w_1421403755,shop=supermarket
"Robertsdale, AL",,retail,445120,Shell,,,,30.676251,-88.0875319,,,r_4870491,"shop=convenience, brand=Shell"
