Location,Search Keyword,Segment,NAICS Code,Business Name,Address,Phone Number,Website,Latitude,Longitude,Rating,User Ratings,Place ID,Types
"Centre, AL",,retail,452319,Family Dollar,,,,33.8066063,-85.7602842,,,n_1252117590,"shop=variety_store, brand=Family Dollar"
"Centre, AL",,retail,452319,Dollar General,,,https://www.dollargeneral.com/store-directory/al/fort-payne/1934,34.4591228,-85.7074426,,,n_1360647462,"shop=variety_store, brand=Dollar General"
"Centre, AL",,retail,445120,Circle K,,,,34.4386305,-85.7565995,,,n_1360686845,"shop=convenience, brand=Circle K"
"Centre, AL",,retail,445110,Bruce's Foodland,,,,34.4672743,-85.7014345,,,n_1360686867,shop=supermarket
"Centre, AL",,retail,452210,Belk,,,,33.9939479,-86.0078778,,,n_1498100225,"shop=department_store, brand=Belk"
"Centre, AL",,retail,445120,B & B Pawn,,,,34.0217317,-86.0229832,,,n_1864945382,shop=convenience
"Centre, AL",,retail,445120,Gas Station,,,,34.021874,-86.023584,,,n_1864945385,shop=convenience
"Centre, AL",,retail,445210,Edward's Grocery and Valley Meats,,,,33.8297139,-85.8096008,,,n_2155655120,shop=butcher
"Centre, AL",,retail,445120,Country Store,,,,34.5006459,-85.6183999,,,n_4415250182,shop=convenience
"Centre, AL",,retail,452210,Big Lots,"110 Dekalb Plaza Boulevard Southwest, Fort Payne, AL, 35967",+1 256-845-8186,https://local.biglots.com/al/fort-payne/110-dekalb-plaza-blvd-sw,34.4312223,-85.7337316,,,n_6376254430,"shop=department_store, brand=Big Lots"
"Centre, AL",,retail,452319,Dollar General,,,https://www.dollargeneral.com/store-directory/al/fort-payne/943,34.4397062,-85.723469,,,n_6376254437,"shop=variety_store, brand=Dollar General"
"Centre, AL",,retail,445120,Xtreme,,,,34.4591348,-85.7064102,,,n_6376254442,shop=convenience
"Centre, AL",,retail,445110,Price Less IGA,,,,34.4614569,-85.7050261,,,n_6376254454,"shop=supermarket, brand=IGA"
"Centre, AL",,retail,452210,Hammer's,,,,34.4437719,-85.7208136,,,n_6376254458,shop=department_store
"Centre, AL",,retail,445120,MAPCO,,,,34.4510049,-85.6858653,,,n_6376301577,shop=convenience
"Centre, AL",,retail,445120,Timesaver,,,,34.4667159,-85.6481802,,,n_6376301580,shop=convenience
"Centre, AL",,retail,445110,Fyffe Foodland,,,,34.443161,-85.908923,,,n_6376600463,shop=supermarket
"Centre, AL",,retail,452319,Dollar General,"1258 Main Street, Fyffe, AL, 35971",,https://www.dollargeneral.com/store-directory/al/fyffe/3986,34.4447625,-85.9083855,,,n_6376600464,"shop=variety_store, brand=Dollar General"
"Centre, AL",,retail,445120,Mapco,,,,34.4582603,-85.707951,,,n_6376686465,"shop=convenience, brand=Mapco"
"Centre, AL",,retail,445120,Mapco,,,,34.4900645,-85.6807377,,,n_6376730052,"shop=convenience, brand=Mapco"
"Centre, AL",,retail,445120,MAPCO,,,,34.5090321,-85.6937654,,,n_6376730066,shop=convenience
"Centre, AL",,retail,445110,Johnson's Giant Food,"815 Pelham Rd S, 36265",,,33.8053897,-85.7631195,,,n_9146477729,shop=supermarket
"Centre, AL",,retail,446120,Epic Fresh Cuts LLC,"304 South 5th Street, Gadsden, AL, 35901",2053590929,https://www.appointfix.com/book/Epic-Fresh-Cuts-LLC,34.0105301,-86.0066826,,,n_9617182338,shop=beauty
"Centre, AL",,retail,445120,,,,,34.2754538,-85.8806511,,,n_10005144382,shop=convenience
"Centre, AL",,retail,445120,,,,,34.2735197,-85.8770261,,,n_10005144383,shop=convenience
"Centre, AL",,retail,445120,,,,,34.2747591,-85.8774287,,,n_10005144384,shop=convenience
"Centre, AL",,retail,445110,Food City,"951 Rainbow Drive, Gadsden, AL, 35901",+1 256-467-0364,https://www.foodcity.com/stores/store-details/502,33.9965338,-86.0065439,,,n_11456231723,"shop=supermarket, brand=Food City"
"Centre, AL",,retail,446120,Bath & Body Works,,,,33.9951327,-86.0076951,,,n_11456529301,"shop=cosmetics, brand=Bath & Body Works"
"Centre, AL",,retail,446120,Arch Eyebrows,,,,33.9955906,-86.0075782,,,n_11456529302,shop=beauty
"Centre, AL",,retail,446120,Nail Studio,,,,33.9943657,-86.0076943,,,n_11456529304,shop=beauty
"Centre, AL",,retail,445310,ABC Select Spirits,"210 Dekalb Plaza Boulevard, Fort Payne, AL, 35967",+1 256 997 1072,https://alabamaselectspirits.com,34.4315826,-85.7342757,,,n_11576272979,"shop=alcohol, operator=government"
"Centre, AL",,retail,452319,Dollar General,"Fort Payne, AL, 35967",+1 256 304 5989,https://www.dollargeneral.com/store-directory/al/fort-payne/6064,34.4315031,-85.7341276,,,n_11576272980,"shop=variety_store, brand=Dollar General"
"Centre, AL",,retail,446120,,"Fort Payne, AL, 35967",,,34.4320328,-85.7347925,,,n_11576272982,shop=beauty
"Centre, AL",,retail,452210,Goody's,,,,34.4327123,-85.7353795,,,n_11576273070,"shop=department_store, brand=Goody's"
"Centre, AL",,retail,445110,United Grocery Outlet,"1000 Dekalb Plaza Boulevard, Fort Payne, AL, 35967",+1 256 997 0722,https://www.myugo.com/locations/fort-payne-al/,34.4322095,-85.734961,,,n_11576273074,"shop=supermarket, brand=United Grocery Outlet"
"Centre, AL",,retail,445110,Piggly Wiggly,"594 South Valley Road, Collinsville, AL, 35961",+1 256-927-5661,,34.2571844,-85.8675744,,,n_11651005448,"shop=supermarket, brand=Piggly Wiggly"
"Centre, AL",,retail,445110,Piggly Wiggly,"3800 Highway 9, Cedar Bluff, AL, 35959",+1 256-779-6284,,34.2173291,-85.6015107,,,n_11651005449,"shop=supermarket, brand=Piggly Wiggly"
"Centre, AL",,retail,446120,Fringe Salon,"170 Plaza Drive, Centre, AL, 35960",+1 256 266 1012,,34.1604022,-85.6942971,,,n_11658551160,shop=beauty
"Centre, AL",,retail,446110,Walgreens,"107 East Meighan Boulevard, Gadsden, AL, 35903",,,34.0104857,-85.991585,,,n_12705124599,"shop=chemist, brand=Walgreens"
"Centre, AL",,retail,452319,Five Below,,,,34.0110473,-85.9847876,,,n_12705135710,"shop=variety_store, brand=Five Below"
"Centre, AL",,retail,452210,Ross,,,,34.0111718,-85.9856568,,,n_12705135712,"shop=department_store, brand=Ross"
"Centre, AL",,retail,446120,Ulta Beauty,,,,34.0110849,-85.9849971,,,n_12705135716,"shop=cosmetics, brand=Ulta Beauty"
"Centre, AL",,retail,445110,Walmart Supercenter,"340 East Meighan Boulevard, Gadsden, AL, 35903",+1 256-547-2637,https://www.walmart.com/store/301-gadsden-al,34.0128046,-85.9872302,,,w_112548097,"shop=supermarket, brand=Walmart, operator=Walmart"
"Centre, AL",,retail,445120,Food Mart,,,,33.9657514,-85.9433302,,,w_243819857,shop=convenience
"Centre, AL",,retail,452319,Dollar General,"619 Pelham Road South, Jacksonville, 36265",,https://www.dollargeneral.com/store-directory/al/jacksonville/3681,33.8088725,-85.7619373,,,w_391144460,"shop=variety_store, brand=Dollar General"
"Centre, AL",,retail,446110,City Pharmacy,"Gadsden, AL",,,33.9991968,-86.0049081,,,w_540563370,shop=chemist
"Centre, AL",,retail,452319,Evan's Store and Deli,,,,34.258603,-85.3440059,,,w_557837625,shop=general
"Centre, AL",,retail,446110,Walgreens,,,https://www.walgreens.com/locator/walgreens-3434+rainbow+dr-rainbow+city-al-35906/id=7716,33.9548637,-86.0406839,,,w_560592773,"shop=chemist, brand=Walgreens"
"Centre, AL",,retail,445110,Publix,"128 West Grand Avenue, Rainbow City, AL, 35906-3238",+1 256-442-2509,https://www.publix.com/locations/1476,33.9552395,-86.0440349,,,w_560592777,"shop=supermarket, brand=Publix"
"Centre, AL",,retail,445120,,,,,34.0429666,-86.0194948,,,w_591912594,shop=convenience
"Centre, AL",,retail,452319,Dollar General,"1407 South 11th Street, Gadsden, AL, 35904",(256) 546-1135,https://www.dollargeneral.com/store-directory/al/gadsden/7417,33.9970771,-86.0276309,,,w_593263852,"shop=variety_store, brand=Dollar General"
"Centre, AL",,retail,445120,,"Hokes Bluff, AL",,,33.9857426,-85.8644162,,,w_603470872,shop=convenience
"Centre, AL",,retail,452319,Dollar General,,,https://www.dollargeneral.com/store-directory/al/jacksonville/20316,33.8263518,-85.7716726,,,w_744704695,"shop=variety_store, brand=Dollar General"
"Centre, AL",,retail,445110,Cashsaver,"5700 US 278, Hokes Bluff, AL, 35903",,,33.9870734,-85.8659131,,,w_845879895,shop=supermarket
"Centre, AL",,retail,446110,Hokes Bluff Drug Shoppe,"5702 US 2278, Hokes Bluff, AL, 35903",,,33.986995,-85.8656163,,,w_845879896,shop=chemist
"Centre, AL",,retail,452319,Dollar General,"5698 US 278, Hokes Bluff, AL, 35903",,https://www.dollargeneral.com/store-directory/al/hokes-bluff/4172,33.9870106,-85.8662598,,,w_845879897,"shop=variety_store, brand=Dollar General"
"Centre, AL",,retail,445110,,"115 East Ladiga Street, Piedmont, AL, 36272",,,33.9231008,-85.6094144,,,w_911682994,shop=supermarket
"Centre, AL",,retail,445110,ALDI,"200 North Hood Avenue, Gadsden, AL, 35903",+1 833-470-7095,https://stores.aldi.us/al/gadsden/200-n-hood-ave,34.010222,-85.9935636,,,w_940789807,"shop=supermarket, brand=ALDI"
"Centre, AL",,retail,452319,Dollar General,,,https://www.dollargeneral.com/store-directory/al/gadsden/11277,34.01978,-86.0202535,,,w_960753822,"shop=variety_store, brand=Dollar General"
"Centre, AL",,retail,445120,,,,,33.9844305,-85.296156,,,w_982051075,shop=convenience
"Centre, AL",,retail,445120,Conoco Food Mart,,,,34.2680985,-85.276448,,,w_983312978,shop=convenience
"Centre, AL",,retail,445110,Dollar General,,,https://www.dollargeneral.com/store-directory/al/glencoe/15604,33.9466319,-85.9272902,,,w_1008169384,"shop=supermarket, brand=Dollar General"
"Centre, AL",,retail,452319,Dollar General,AL,,https://www.dollargeneral.com/store-directory/al/glencoe/22005,33.999173,-85.9372458,,,w_1113765631,"shop=variety_store, brand=Dollar General"
"Centre, AL",,retail,452319,Dollar General,,,https://www.dollargeneral.com/store-directory/al/leesburg/7769,34.1828334,-85.7617127,,,w_1158969589,"shop=variety_store, brand=Dollar General"
"Centre, AL",,retail,446120,KV Nails,"1925 West Main Street, Centre, AL, 35960",,,34.1602692,-85.7144655,,,w_1219732187,shop=beauty
"Centre, AL",,retail,452319,Dollar Tree,"1925 West Main Street, Centre, AL, 35960",,https://www.dollartree.com/locations/al/centre/4364/,34.1601193,-85.7143214,,,w_1219732189,"shop=variety_store, brand=Dollar Tree"
"Centre, AL",,retail,445110,Walmart Supercenter,"1950 West Main Street, Centre, AL, 35960",+1 256-927-9900,https://www.walmart.com/store/5126-centre-al,34.1628603,-85.7125602,,,w_1219738653,"shop=supermarket, brand=Walmart, operator=Walmart"
"Centre, AL",,retail,445120,Texaco,"Centre, AL",,,34.1486458,-85.6683223,,,w_1219755233,"shop=convenience, brand=Texaco"
"Centre, AL",,retail,445120,Marathon,"Hokes Bluff, AL",,,33.9978958,-85.8660615,,,w_1219755257,"shop=convenience, brand=Marathon"
"Centre, AL",,retail,445120,Tang Mart,"Hokes Bluff, AL",,,33.9976715,-85.866625,,,w_1219755259,shop=convenience
"Centre, AL",,retail,446120,Lash & Brow Spa,"Gadsden, AL",,,34.0101347,-85.9883034,,,w_1219765870,shop=beauty
"Centre, AL",,retail,446120,Happy Nails,"East Meighan Boulevard, Gadsden, AL, 35903",,,34.0116951,-85.9912953,,,w_1219765878,shop=beauty
"Centre, AL",,retail,452319,Dollar General,"Centre, AL, 35960",,https://www.dollargeneral.com/store-directory/al/centre/9407,34.1609355,-85.7112322,,,w_1234954978,"shop=variety_store, brand=Dollar General"
"Centre, AL",,retail,445120,Mapco Mart,,,,34.4368369,-85.7509714,,,w_1245471792,"shop=convenience, brand=Mapco"
"Centre, AL",,retail,446110,Kilgore Express Pharmacy,"1614 Glenn Boulevard Southwest, Fort Payne, AL, 35968",+1 256 845 3402,https://www.mygnp.com/pharmacies/kilgore-express-pharmacy-6-fort-payne-al-35968/,34.4377359,-85.7557622,,,w_1245471816,shop=chemist
"Centre, AL",,retail,446110,C&H Discount Drugs,"Glenn Boulevard Southwest, Fort Payne, AL, 35968",+1 256 845 0242,,34.4378887,-85.756219,,,w_1245471817,shop=chemist
"Centre, AL",,retail,445310,Carter's Beverages,"Fort Payne, AL, 35968",,,34.4378822,-85.7571884,,,w_1245471819,shop=alcohol
"Centre, AL",,retail,445120,Love's Stop N Go,AL,,,34.4698433,-85.7870185,,,w_1245471826,shop=convenience
"Centre, AL",,retail,445120,Mapco,"Rainsville, AL, 35986",,,34.4831361,-85.8208415,,,w_1245471839,"shop=convenience, brand=Mapco"
"Centre, AL",,retail,452319,Dollar General,"1569 Main Street East, Rainsville, AL, 35986",+1 251 263 5921,https://www.dollargeneral.com/store-directory/al/rainsville/23703.html,34.4846584,-85.8224697,,,w_1245471840,"shop=variety_store, brand=Dollar General"
"Centre, AL",,retail,445120,Mapco,,,,34.424801,-85.7382895,,,w_1254203757,"shop=convenience, brand=Mapco"
"Centre, AL",,retail,445120,The Rock,"Sand Rock Avenue, Sand Rock, AL, 35983",,,34.2382771,-85.7673432,,,w_1254210909,shop=convenience
"Centre, AL",,retail,453110,Pat's Flowers & More,"1765 Sand Rock Avenue, Sand Rock, AL, 35983",+1 256 523 3000,,34.2376353,-85.7669178,,,w_1254210911,shop=florist
"Centre, AL",,retail,445120,,,,,34.182065,-85.7629282,,,w_1254222087,shop=convenience
"Centre, AL",,retail,445120,Corner,"Leesburg, AL, 35983",,,34.1770913,-85.7593282,,,w_1254222100,shop=convenience
"Centre, AL",,retail,453991,Tasty Haze LLC,"3335 Rainbow Drive, Rainbow City, AL",+1 256-399-0562,https://www.tastyhaze.com,33.9587217,-86.0377577,,,w_1259803427,shop=tobacco
"Centre, AL",,retail,445310,Northern Express Mart & Package,"23715 State Route 9, Piedmont, AL",+1 256-447-8729,,33.9548751,-85.6166021,,,w_1265418815,"shop=alcohol, amenity=fuel"
"Centre, AL",,retail,445110,Walmart Supercenter,"2001 Glenn Boulevard Southwest, Fort Payne, AL, 35968",+1 256-845-3163,https://www.walmart.com/store/691-fort-payne-al,34.4401648,-85.76202,,,w_1311903531,"shop=supermarket, brand=Walmart, operator=Walmart"
