Location,Search Keyword,Segment,NAICS Code,Business Name,Address,Phone Number,Website,Latitude,Longitude,Rating,User Ratings,Place ID,Types
"Nectar, AL",,retail,445110,Foodland,,,,33.6529759,-86.812571,,,n_1399429847,shop=supermarket
"Nectar, AL",,retail,452210,JCPenney,"5060 Pinnacle Square, Trussville, AL, 35173",,https://www.jcpenney.com/,33.6050521,-86.6422259,,,n_2089099510,"shop=department_store, brand=JCPenney, operator=jcpenny"
"Nectar, AL",,retail,452210,Kohl's,"5900 Chalkville Mountain Road, Birmingham, AL, 35235",+1 205-661-0580,https://www.kohls.com/stores/al/birmingham-658.shtml,33.6455668,-86.627228,,,n_2090005145,"shop=department_store, brand=Kohl's"
"Nectar, AL",,retail,445110,Winn-Dixie,"465 Main Street, Trussville, AL, 35173",+1 205-661-0026,https://www.winndixie.com/storedetails/trussville/al?search=461,33.6153319,-86.6181014,,,n_2154621848,"shop=supermarket, brand=Winn-Dixie"
"Nectar, AL",,retail,445110,Food Giant,,,,33.6980891,-86.6821978,,,n_2182845287,shop=supermarket
"Nectar, AL",,retail,445310,ABC Beverage,,,,33.6481904,-86.6321618,,,n_2217000896,shop=alcohol
"Nectar, AL",,retail,445310,ABC liquor ,,,http://www.abcboard.alabama.gov,33.607475,-86.6287749,,,n_2267416327,shop=alcohol
"Nectar, AL",,retail,452210,Belk,"5036 Pinnacle Square, Trussville, AL, 35173",,https://www.belk.com/store/belk-trussville-al/?storeid=349,33.6084431,-86.6385161,,,n_2457343889,"shop=department_store, brand=Belk"
"Nectar, AL",,retail,452210,TJ Maxx,,,,33.6046443,-86.6381253,,,n_2457343902,"shop=department_store, brand=TJ Maxx"
"Nectar, AL",,retail,445310,ABC SELECT SPIRITS,"300 Springville Sta Blvd, Springville, AL, 35146",+1-205-467-2534,https://www.alabcboard.gov/,33.7780217,-86.4342114,,,n_2870754849,shop=alcohol
"Nectar, AL",,retail,452319,Dollar Tree,"300 Springville Station Boulevard, Springville, AL, 35146",,https://www.dollartree.com/locations/al/springville/4496/,33.7789116,-86.4343982,,,n_2870754852,"shop=variety_store, brand=Dollar Tree"
"Nectar, AL",,retail,445120,,,,,34.2060882,-86.8722498,,,n_4640806660,shop=convenience
"Nectar, AL",,retail,445120,,,,,34.203912,-86.8279799,,,n_4640851729,shop=convenience
"Nectar, AL",,retail,445120,,,,,34.2026653,-86.8284171,,,n_4640851730,shop=convenience
"Nectar, AL",,retail,453991,Steampunk Vape,,,,33.8529195,-86.8176457,,,n_5046688851,shop=tobacco
"Nectar, AL",,retail,445110,Walmart Neighborhood Market,"1916 Center Point Parkway, Birmingham, AL, 35215",+1 205-520-0269,https://www.walmart.com/store/5100-birmingham-al,33.637368,-86.684495,,,n_5315597805,"shop=supermarket, brand=Walmart, operator=Walmart"
"Nectar, AL",,retail,446120,Ulta Beauty,"1108 Cullman Shopping Center Northwest, Cullman, AL, 35055",+1 256-734-8874,https://www.ulta.com/stores/cullman-al-1115,34.1824338,-86.849606,,,n_5712412163,"shop=beauty, brand=Ulta Beauty"
"Nectar, AL",,retail,445110,Piggly Wiggly,"415 Caldwell Drive, Warrior, AL, 35180",+1 205-647-3241,,33.8072708,-86.8104039,,,n_5713950595,"shop=supermarket, brand=Piggly Wiggly"
"Nectar, AL",,retail,446120,Palm Beach Tan,,,https://palmbeachtan.com/locations/AL/Cullman-Patriot-Way-South-West,34.1525005,-86.8408219,,,n_5716212063,"shop=beauty, brand=Palm Beach Tan"
"Nectar, AL",,retail,452210,TJ Maxx,,,,34.1509252,-86.8393091,,,n_5716219673,"shop=department_store, brand=TJ Maxx"
"Nectar, AL",,retail,452319,Dollar Tree,,,https://www.dollartree.com/locations/al/cullman/881/,34.1503634,-86.839315,,,n_5716219674,"shop=variety_store, brand=Dollar Tree"
"Nectar, AL",,retail,446120,,,,,33.6423283,-86.6238223,,,n_6352909950,shop=beauty
"Nectar, AL",,retail,446120,Palm Beach Tan,,,https://palmbeachtan.com/locations/AL/Trussville-Frank-Street,33.6424209,-86.6248077,,,n_6352909951,"shop=beauty, brand=Palm Beach Tan"
"Nectar, AL",,retail,445110,ALDI,"5485 Patrick Way, Birmingham, AL, 35235",+1 833-470-7035,https://stores.aldi.us/al/birmingham/5485-patrick-way,33.6104075,-86.6236095,,,n_7122756252,"shop=supermarket, brand=ALDI"
"Nectar, AL",,retail,446120,Ulta Beauty,"5473 Patrick Way, Birmingham, AL, 35235",+1 205-655-0767,https://www.ulta.com/stores/birmingham-al-1154,33.6099251,-86.6239977,,,n_7122756254,"shop=beauty, brand=Ulta Beauty"
"Nectar, AL",,retail,452319,Five Below,,+1 205-661-0361,https://locations.fivebelow.com/al/birmingham/5463-patrick-way,33.6097301,-86.62454,,,n_7122756256,"shop=variety_store, brand=Five Below"
"Nectar, AL",,retail,445110,Piggly Wiggly,"6730 Deerfoot Parkway, Clay, AL, 35048",+1 205-681-3639,,33.6974321,-86.6078766,,,n_7141430154,"shop=supermarket, brand=Piggly Wiggly"
"Nectar, AL",,retail,446120,Super Nail & Spa,,,,33.6978098,-86.6078227,,,n_7141430156,shop=beauty
"Nectar, AL",,retail,452319,Dollar General,,,https://www.dollargeneral.com/store-directory/al/trussville/21618,33.6169244,-86.6152504,,,n_7154346032,"shop=variety_store, brand=Dollar General"
"Nectar, AL",,retail,452319,Dollar Tree,,,https://www.dollartree.com/locations/al/trussville/2395/,33.6155715,-86.617434,,,n_7154346048,"shop=variety_store, brand=Dollar Tree"
"Nectar, AL",,retail,446110,Nelm's Pharmacy,,,,33.6136385,-86.6087843,,,n_7154359484,shop=chemist
"Nectar, AL",,retail,445110,Publix,"655 Fieldstown Road, Gardendale, AL, 35071-2411",+1 205-608-4677,https://www.publix.com/locations/1206-magnolia-city-place,33.6512225,-86.8222815,,,n_7198651223,"shop=supermarket, brand=Publix"
"Nectar, AL",,retail,452319,Dollar General,"1026 Main Street, Gardendale, AL, 35071",+1-205-285-3995,https://www.dollargeneral.com/store-directory/al/gardendale/4647,33.6540135,-86.8125647,,,n_7217288998,"shop=variety_store, brand=Dollar General"
"Nectar, AL",,retail,452210,Ross,"5933 Trussville Crossings Parkway, Trussville, AL, 35235",+1 205-655-4183,https://www.rossstores.com/,33.6392044,-86.62726,,,n_7297923930,"shop=department_store, brand=Ross"
"Nectar, AL",,retail,445110,Grikey's Meat & Market,"2344 Center Point Parkway, Center Point, AL, 35215",+1-205-326-7462,,33.6478347,-86.6846766,,,n_7729623232,shop=supermarket
"Nectar, AL",,retail,446110,,,,,33.9040332,-86.6204991,,,n_7810229622,shop=chemist
"Nectar, AL",,retail,445110,S & S Foods,,,,34.1753911,-86.6191135,,,n_7810359076,"shop=supermarket, brand=Grocery Outlet"
"Nectar, AL",,retail,445110,Target,"1654 Gadsden Highway, Birmingham, AL, 35235",+1 205-655-6950,https://www.target.com/sl/trussville/1773,33.605437,-86.6372845,,,n_7847374594,"shop=supermarket, brand=Target"
"Nectar, AL",,retail,452210,Marshalls,"5929 Trussville Crossings Pkwy, Trussville, AL, 35235",+1-205-655-7743,https://www.marshalls.com/us/store/stores/Trussville-AL-35235/767/aboutstore/,33.6391399,-86.6277568,,,n_7934996184,"shop=department_store, brand=Marshalls"
"Nectar, AL",,retail,452319,Dollar Tree,,,https://www.dollartree.com/locations/al/center-point/1323/,33.6471746,-86.6852721,,,n_8263205861,"shop=variety_store, brand=Dollar Tree"
"Nectar, AL",,retail,452319,Dollar General,,,https://www.dollargeneral.com/store-directory/al/birmingham/3118,33.6474681,-86.6852667,,,n_8263205862,"shop=variety_store, brand=Dollar General"
"Nectar, AL",,retail,452319,Family Dollar,,,,33.6087958,-86.6877429,,,n_8265064886,"shop=variety_store, brand=Family Dollar"
"Nectar, AL",,retail,445110,Piggly Wiggly,"100 Council Drive, Odenville, AL, 35120",+1 205-629-6390,,33.6752717,-86.4062638,,,n_8560049551,"shop=supermarket, brand=Piggly Wiggly"
"Nectar, AL",,retail,445110,Food Giant,"1675 Center Point Parkway, Center Point, AL, 35215",,,33.6325231,-86.6827145,,,n_8935293302,shop=supermarket
"Nectar, AL",,retail,445110,Meat Depot,"1127 Huffman Road, Birmingham, AL, 35215",+1 205 202 3718,,33.6096625,-86.6856752,,,n_8937258631,shop=supermarket
"Nectar, AL",,retail,452319,Dollar General,"Hayden, AL, 35079",,https://www.dollargeneral.com/store-directory/al/hayden/9077,33.9104355,-86.7280589,,,n_9862852918,"shop=variety_store, brand=Dollar General"
"Nectar, AL",,retail,452319,Family Dollar,,,,33.6397631,-86.6843447,,,n_10763191696,"shop=variety_store, brand=Family Dollar"
"Nectar, AL",,retail,446120,Nail Plus,,,,33.6156678,-86.6172117,,,n_11494914238,shop=beauty
"Nectar, AL",,retail,446120,Top Ten Nails,"245 Us-11, Trussville, AL, 35173",+1-205-467-2194,,33.6974018,-86.5229326,,,n_11537299450,"shop=beauty, operator=Top Ten Nails"
"Nectar, AL",,retail,446120,B & K Nails,"183 County Road 12, Odenville, AL, 35120",+1-205-629-0890,,33.6746747,-86.4892869,,,n_11661728904,"shop=beauty, operator=B & K Nails"
"Nectar, AL",,retail,446120,Sugarplum Kids,,,,33.6060797,-86.6413101,,,n_11688090335,shop=beauty
"Nectar, AL",,retail,446120,Bath & Body Works,"1628 Gadsden Highway, Trussville, AL, 35173",,https://www.bathandbodyworks.com/?cm_mmc=local_bbw01678,33.6038243,-86.6398671,,,n_11688091981,"shop=cosmetics, brand=Bath & Body Works"
"Nectar, AL",,retail,446120,Genesis Nail Spa,,,,33.6039018,-86.639803,,,n_11688091983,shop=beauty
"Nectar, AL",,retail,453991,Tobacco Shop,,,,33.6402163,-86.6306615,,,n_11688484714,shop=tobacco
"Nectar, AL",,retail,446120,Bath & Body Works,,,,33.640128,-86.6306619,,,n_11688484715,"shop=cosmetics, brand=Bath & Body Works"
"Nectar, AL",,retail,446120,Vickie Nails,,,,33.6402742,-86.6306613,,,n_11688484716,shop=beauty
"Nectar, AL",,retail,446191,Margaret Nutrition,"135 Jeffrey Wilson Drive, Odenville, AL, 35120",+1-205-736-1126,,33.6725484,-86.4893685,,,n_11706317570,"shop=health_food, operator=Margaret Nutrition"
"Nectar, AL",,retail,446120,The Nail Place,"2343 2nd Avenue East, Oneonta, AL, 35121",,,33.9706859,-86.4482429,,,n_11711912694,shop=beauty
"Nectar, AL",,retail,452319,Dollar Tree,,,,33.6408893,-86.6305104,,,n_11774091566,"shop=variety_store, brand=Dollar Tree"
"Nectar, AL",,retail,446120,Beautiful Heart Day Spa,,,,33.946341,-86.4735849,,,n_11879667473,shop=beauty
"Nectar, AL",,retail,446120,Styles Unlimited,,,,33.945526,-86.4752785,,,n_11879667477,shop=beauty
"Nectar, AL",,retail,452319,Ollie's Bargain Outlet,,,,33.6416602,-86.6217383,,,n_12066735267,"shop=variety_store, brand=Ollie's Bargain Outlet"
"Nectar, AL",,retail,446120,Nail Star,,,,33.9476365,-86.470957,,,n_12093884973,shop=beauty
"Nectar, AL",,retail,453991,Oneonta Smoke Shop,"2343 2nd Avenue East, Oneonta, AL, 35121",,,33.9708092,-86.4484272,,,n_12095724345,shop=tobacco
"Nectar, AL",,retail,446120,The Nail Spa,,,https://nail-spa-andover-mn.com,33.9586823,-86.4638138,,,n_12095881406,shop=beauty
"Nectar, AL",,retail,453991,Smoke n’ Dip,,,,33.9589219,-86.4634655,,,n_12099411876,shop=tobacco
"Nectar, AL",,retail,445110,Azteca Supermarket,"1112 2nd Avenue East, Oneonta, AL, 35121",+1 205-493-4527,,33.9593484,-86.4631101,,,n_12099491056,shop=supermarket
"Nectar, AL",,retail,445110,Piggly Wiggly,,,,34.1167078,-86.3919863,,,n_12114502538,shop=supermarket
"Nectar, AL",,retail,446110,Klein Drug Shoppe,,,,34.1167055,-86.3922143,,,n_12114502539,shop=chemist
"Nectar, AL",,retail,446120,Nail Art,,,,33.9718149,-86.448903,,,n_12178612293,shop=beauty
"Nectar, AL",,retail,445120,,,,,34.2072238,-86.8821291,,,n_12180406444,shop=convenience
"Nectar, AL",,retail,445120,Tiger Mart,,,,34.2086339,-86.8816239,,,n_12180406445,"shop=convenience, brand=Tiger Mart"
"Nectar, AL",,retail,452319,Dollar Tree,"5012 Pinnacle Square, Trussville, AL, 35173",,https://www.dollartree.com/locations/al/birmingham/9310/,33.60785,-86.6394454,,,n_12190351153,"shop=variety_store, brand=Dollar Tree"
"Nectar, AL",,retail,446191,The Root Health and Wellness,"28252 Alabama 75, Oneonta, AL, 35121",+1 205-274-7369,,33.9391743,-86.4875112,,,n_12263057781,shop=health_food
"Nectar, AL",,retail,446120,New Beginnings Salon,,,,33.9391934,-86.4874221,,,n_12265501903,shop=beauty
"Nectar, AL",,retail,445120,Circle K,,,,33.6193496,-86.6078692,,,n_12302833532,"shop=convenience, brand=Circle K"
"Nectar, AL",,retail,452319,Dollar General,,,,34.2506699,-86.8226119,,,n_12351232683,"shop=variety_store, brand=Dollar General"
"Nectar, AL",,retail,445120,Shell,,,,33.9838218,-86.5869197,,,n_12564678247,"shop=convenience, brand=Shell"
"Nectar, AL",,retail,445230,Dixie’s Produce Market,"25564 Highway 75, Oneonta, AL, 35121",,,33.9086188,-86.5120307,,,n_12669264002,shop=greengrocer
"Nectar, AL",,retail,453991,Tobacco Country,"1309 4th Street Southwest, Cullman, AL, 35055",,,34.1724607,-86.8527245,,,n_12761944600,shop=tobacco
"Nectar, AL",,retail,446120,Gadsen Nails,"5072 Pinnacle Square, Trussville, AL, 35235",,,33.6038646,-86.6432155,,,n_12779070351,shop=beauty
"Nectar, AL",,retail,446120,Lash & Wax 4U,"5066 Pinnacle Square, Trussville, AL, 35173",,,33.6045822,-86.6428345,,,n_12779070353,shop=beauty
"Nectar, AL",,retail,446120,Aria Nails,,,,33.6096566,-86.624839,,,n_12779265586,shop=beauty
"Nectar, AL",,retail,445110,La Azteca,,,,33.9717715,-86.4489596,,,n_12818012174,shop=supermarket
"Nectar, AL",,retail,446120,US Nails,,,,33.7782918,-86.4342418,,,n_12859745652,shop=beauty
"Nectar, AL",,retail,453991,Springville Tobacco & Vape,,,,33.7782377,-86.4342352,,,n_12859752815,shop=tobacco
"Nectar, AL",,retail,445110,Fresh Value,,,,33.617534,-86.6110817,,,n_12878102139,shop=supermarket
"Nectar, AL",,retail,446120,,,,,33.6176183,-86.6114459,,,n_12878102142,shop=beauty
"Nectar, AL",,retail,445110,Walmart Supercenter,"160 Springville Station Boulevard, Springville, AL, 35146",+1 205-467-6656,https://www.walmart.com/store/3386-springville-al,33.7797116,-86.4327693,,,w_170128382,"shop=supermarket, brand=Walmart, operator=Walmart"
"Nectar, AL",,retail,453110,Shirley's Florist,,,,33.618783,-86.6102192,,,w_205505474,shop=florist
"Nectar, AL",,retail,446110,CVS Pharmacy,,,https://www.cvs.com/store-locator/birmingham-al-pharmacies/5705-chalkville-rd-birmingham-al-35235/storeid=4948,33.6483035,-86.6341352,,,w_211737082,"shop=chemist, brand=CVS Pharmacy"
"Nectar, AL",,retail,445120,Texaco,,,,33.6484458,-86.6325099,,,w_211737085,"shop=convenience, brand=Texaco"
"Nectar, AL",,retail,445110,Publix,"7272 Gadsden Highway, Trussville, AL, 35173-1687",+1 205-661-1415,https://www.publix.com/locations/1082,33.6414101,-86.579883,,,w_220265063,"shop=supermarket, brand=Publix"
"Nectar, AL",,retail,445120,,,,,33.6991241,-86.6055866,,,w_220785869,shop=convenience
"Nectar, AL",,retail,445110,Publix,"5150 Old Springville Road, Pinson, AL, 35126-3635",+1 205-815-5224,https://www.publix.com/locations/1069,33.6558845,-86.6470403,,,w_222555912,"shop=supermarket, brand=Publix"
"Nectar, AL",,retail,446191,Honey & Spice,,,,33.6463546,-86.6341694,,,w_227350375,shop=health_food
"Nectar, AL",,retail,445120,,,,,33.6155192,-86.6065282,,,w_230219508,shop=convenience
"Nectar, AL",,retail,453110,Springville Florist,,,,33.7753509,-86.4717292,,,w_240657688,shop=florist
"Nectar, AL",,retail,446120,Spring Nails,,,,33.7732447,-86.474306,,,w_240657705,shop=beauty
"Nectar, AL",,retail,452319,Dollar General,,,https://www.dollargeneral.com/store-directory/al/springville/10198,33.7790036,-86.4602922,,,w_282957182,"shop=variety_store, brand=Dollar General"
"Nectar, AL",,retail,453110,Twin Daisys Flowers and Gifts,,,,33.7676727,-86.4791273,,,w_283161280,shop=florist
"Nectar, AL",,retail,445110,Burton's Food Store,,,,33.7676116,-86.4772837,,,w_283161283,shop=supermarket
"Nectar, AL",,retail,445110,Walmart Supercenter,"890 Odum Road, Gardendale, AL, 35071",+1 205-631-8110,https://www.walmart.com/store/1201-gardendale-al,33.6468918,-86.8227658,,,w_305932000,"shop=supermarket, brand=Walmart, operator=Walmart"
"Nectar, AL",,retail,445110,ALDI,"4701 Center Point Road, Pinson, AL, 35126",+1 800-325-7894,https://stores.aldi.us/al/pinson/4701-pinson-blvd,33.6954244,-86.679563,,,w_364002427,"shop=supermarket, brand=ALDI"
"Nectar, AL",,retail,445120,,,,,34.2076622,-86.8766399,,,w_469799321,shop=convenience
"Nectar, AL",,retail,445120,Conoco,"5982 Highway 157, Cullman, AL, 35058",,,34.2076962,-86.8748658,,,w_469799323,"shop=convenience, brand=Conoco"
"Nectar, AL",,retail,452319,Dollar General,"3194 New Castle Road, Birmingham, AL, 35217",+1-205-666-1281,https://www.dollargeneral.com/store-directory/al/birmingham/15423,33.6325615,-86.7845715,,,w_493038555,"shop=variety_store, brand=Dollar General"
"Nectar, AL",,retail,445110,Walmart Supercenter,"626 Olive Street Southwest, Cullman, AL, 35055",+1 256-739-1664,https://www.walmart.com/store/670-cullman-al,34.1490925,-86.8421996,,,w_511599556,"shop=supermarket, brand=Walmart, operator=Walmart"
"Nectar, AL",,retail,446110,CVS Pharmacy,,,https://www.cvs.com/store-locator/warrior-al-pharmacies/434-hwy-31-warrior-al-35180/storeid=4843,33.8061109,-86.8117761,,,w_601115127,"shop=chemist, brand=CVS Pharmacy"
"Nectar, AL",,retail,452319,Dollar General,,,https://www.dollargeneral.com/store-directory/al/warrior/1642,33.8085468,-86.812445,,,w_601116104,"shop=variety_store, brand=Dollar General"
"Nectar, AL",,retail,445110,Walmart Supercenter,"5601 Highway 157, Cullman, AL, 35058",+1 256-615-6667,https://www.walmart.com/store/7280-cullman-al,34.2043165,-86.8695694,,,w_601354365,"shop=supermarket, brand=Walmart, operator=Walmart"
"Nectar, AL",,retail,445110,ALDI,"1831 Cherokee Avenue Southwest, Cullman, AL, 35055",+1 833-470-7039,https://stores.aldi.us/al/cullman/1831-cherokee-ave-sw,34.1534389,-86.8420516,,,w_601414948,"shop=supermarket, brand=ALDI"
"Nectar, AL",,retail,445120,Ice House,,,,34.1717869,-86.8503082,,,w_608375942,shop=convenience
"Nectar, AL",,retail,445110,Publix,"1104 Cullman Shopping Center Northwest, Cullman, AL, 35055-2855",+1 256-736-7000,https://www.publix.com/locations/1503,34.1814387,-86.8494003,,,w_718229805,"shop=supermarket, brand=Publix"
"Nectar, AL",,retail,452210,Belk,,,,34.1825383,-86.8510923,,,w_718229810,"shop=department_store, brand=Belk"
"Nectar, AL",,retail,445310,ABC Store,,,,34.1830513,-86.851387,,,w_718229811,shop=alcohol
"Nectar, AL",,retail,452210,Ross,"1224 Cullman Shopping Center, Cullman, AL, 35055",+1 256-736-9216,,34.183295,-86.8515211,,,w_718229812,"shop=department_store, brand=Ross"
"Nectar, AL",,retail,452319,Five Below,,+1 256-736-5496,https://locations.fivebelow.com/al/cullman/1230-cullman-shopping-ctr-nw,34.1837195,-86.8515856,,,w_718229814,"shop=variety_store, brand=Five Below"
"Nectar, AL",,retail,445120,Circle K,,,,34.2065056,-86.8753703,,,w_729962256,"shop=convenience, brand=Circle K"
"Nectar, AL",,retail,445120,,,,,34.2061835,-86.8736651,,,w_729962260,shop=convenience
"Nectar, AL",,retail,452319,Dollar General,,,https://www.dollargeneral.com/store-directory/al/clay/13744,33.695312,-86.6064293,,,w_745327124,"shop=variety_store, brand=Dollar General"
"Nectar, AL",,retail,446110,Payless Drug Store,"585 Morris Majestic Road, Morris, AL, 35116",,,33.7474508,-86.8099225,,,w_753563011,shop=chemist
"Nectar, AL",,retail,453991,Tobacco Express,"1901 Center Point Parkway, Center Point, AL, 35215",+1-205-856-1155,,33.6364129,-86.6835048,,,w_756761764,shop=tobacco
"Nectar, AL",,retail,452319,Po' Boys Country Store,,,,33.8465019,-86.6617446,,,w_836597117,shop=general
"Nectar, AL",,retail,452319,Dollar General,,,https://www.dollargeneral.com/store-directory/al/locust-fork/24526,33.9070185,-86.6162201,,,w_836826043,"shop=variety_store, brand=Dollar General"
"Nectar, AL",,retail,445120,We-Tote-Em,"68960 Main Street, Blountsville, AL, 35031",+1-205-429-3949,,34.0804403,-86.590469,,,w_844471101,shop=convenience
"Nectar, AL",,retail,445120,,,,,34.0880622,-86.5873119,,,w_844480280,shop=convenience
"Nectar, AL",,retail,445120,Wavaho,,,,34.0964529,-86.5796059,,,w_844480282,shop=convenience
"Nectar, AL",,retail,445110,Lucky's Supermarket,"70670 Main Street, Blountsville, AL, 35031",,,34.0992835,-86.5740777,,,w_844480287,shop=supermarket
"Nectar, AL",,retail,452319,Dollar General,"70680 Main Street, Blountsville, AL, 35031",,https://www.dollargeneral.com/store-directory/al/blountsville/9783,34.0995757,-86.5736686,,,w_844480288,"shop=variety_store, brand=Dollar General"
"Nectar, AL",,retail,446110,Carroll Pharmacy,"6767 Old Springville Road, Pinson, AL, 35216",(205) 680-5557,https://carrollrx.com/,33.7012428,-86.6020069,,,w_888787415,shop=chemist
"Nectar, AL",,retail,446110,Walgreens,"2301 Center Point Parkway, Birmingham, AL, 35215",205-853-8360,https://www.walgreens.com/locator/walgreens-2301+center+point+pkwy-center+point-al-35215/id=4846,33.6464833,-86.6834009,,,w_888787417,"shop=chemist, brand=Walgreens"
"Nectar, AL",,retail,452319,Dollar General,,,https://www.dollargeneral.com/store-directory/al/ashville/14091,33.7813127,-86.2776401,,,w_892369812,"shop=variety_store, brand=Dollar General"
"Nectar, AL",,retail,445110,La Morenita,"1003 2nd Avenue East, AL",,https://www.lamorenitasupermarket.com,33.9566936,-86.4642066,,,w_896211988,shop=supermarket
"Nectar, AL",,retail,446110,CVS Pharmacy,"602 First Ave E, 35121",+1 205-625-6420,https://www.cvs.com/store-locator/oneonta-al-pharmacies/602-1st-avenue-east-oneonta-al-35121/storeid=4854,33.9483281,-86.4714138,,,w_896211990,"shop=chemist, brand=CVS Pharmacy"
"Nectar, AL",,retail,446110,CVS Pharmacy,"205 Fieldstown Road, Gardendale, 35071",+1-205-631-5638,https://www.cvs.com/store-locator/gardendale-al-pharmacies/205-fieldstown-rd-gardendale-al-35071/storeid=4833,33.6513331,-86.8120368,,,w_910077695,"shop=chemist, brand=CVS Pharmacy"
"Nectar, AL",,retail,446110,Walgreens,,,https://www.walgreens.com/locator/walgreens-100+fieldstown+rd-gardendale-al-35071/id=6488,33.6514484,-86.8106714,,,w_910077696,"shop=chemist, brand=Walgreens"
"Nectar, AL",,retail,452319,Dollar General,,,https://www.dollargeneral.com/store-directory/al/warrior/12990,33.852156,-86.8161815,,,w_969983990,"shop=variety_store, brand=Dollar General"
"Nectar, AL",,retail,445110,Dollar General,,,https://www.dollargeneral.com/store-directory/al/altoona/11201,34.0674912,-86.2999645,,,w_1007837937,"shop=supermarket, brand=Dollar General"
"Nectar, AL",,retail,445110,Dollar General Market,,+1-256-673-2670,https://www.dollargeneral.com/store-directory/al/snead/1671,34.1198242,-86.3968907,,,w_1007837949,"shop=supermarket, brand=Dollar General Market"
"Nectar, AL",,retail,445120,RaceTrac,"600 Fieldstown Road, Gardendale, AL, 35071",205-631-8203,,33.6530173,-86.8232014,,,w_1140388638,"shop=convenience, brand=RaceTrac"
"Nectar, AL",,retail,452319,Dollar General,,,https://www.dollargeneral.com/store-directory/al/cullman/15179,34.1778008,-86.741987,,,w_1159107853,"shop=variety_store, brand=Dollar General"
"Nectar, AL",,retail,452319,Dollar Tree,,,https://www.dollartree.com/locations/al/cullman/8504/,34.205148,-86.8729208,,,w_1159200622,"shop=variety_store, brand=Dollar Tree"
"Nectar, AL",,retail,445110,Walmart Supercenter,"2453 2nd Avenue East, Oneonta, AL, 35121",+1 205-625-6474,https://www.walmart.com/store/315-oneonta-al,33.9712166,-86.4465598,,,w_1202842948,"shop=supermarket, brand=Walmart, operator=Walmart"
"Nectar, AL",,retail,445120,Marathon,,,,33.9477265,-86.4721086,,,w_1226080493,"shop=convenience, brand=Marathon"
"Nectar, AL",,retail,452210,Pricketts,206 1st Avenue East,,,33.9453218,-86.4758028,,,w_1226352824,shop=department_store
"Nectar, AL",,retail,445110,Nico’s Supermarket #2,"Oneonta, AL",,,33.9478941,-86.4707406,,,w_1226353423,shop=supermarket
"Nectar, AL",,retail,452319,Dollar General,"300 7th Street North, Oneonta, AL, 35121",+12052748098,https://www.dollargeneral.com/store-directory/al/oneonta/4150,33.9505459,-86.4711847,,,w_1226362157,"shop=variety_store, brand=Dollar General"
"Nectar, AL",,retail,445110,IGA,,,,33.9551394,-86.4639371,,,w_1226362159,"shop=supermarket, brand=IGA"
"Nectar, AL",,retail,445230,Whited Farm Produce,"321 1st Avenue East, Oneonta, AL",+1 205-353-1199,,33.946242,-86.4737154,,,w_1226366849,shop=greengrocer
"Nectar, AL",,retail,445310,Grapes & Hops,"231 1st Avenue East, Oneonta, AL, 35121",+1 205-558-6050,,33.9453715,-86.4749833,,,w_1226366877,shop=wine
"Nectar, AL",,retail,452210,Hammer’s,"216 1st Avenue East, Oneonta, AL, 35121",+1 205-274-0644,,33.9456675,-86.4752524,,,w_1226366894,shop=department_store
"Nectar, AL",,retail,446120,Sun City Tanning Salon,"104 3rd Street North, Oneonta, AL, 35121",+1 205-274-2992,,33.9461031,-86.4747747,,,w_1226620000,shop=beauty
"Nectar, AL",,retail,445120,Shell,"28210 Alabama 75, Oneonta, AL, 35121",+1 205-625-6740,,33.9393178,-86.4879472,,,w_1228547283,"shop=convenience, brand=Shell"
"Nectar, AL",,retail,445310,ABC Spirits,,,,33.9431292,-86.4811103,,,w_1230237714,shop=alcohol
"Nectar, AL",,retail,452319,Heart’s Desire,,,,33.94627,-86.4743111,,,w_1230472212,shop=variety_store
"Nectar, AL",,retail,452319,Dollar General,,,https://www.dollargeneral.com/store-directory/al/mount-olive/10255,33.6723115,-86.8379908,,,w_1234954647,"shop=variety_store, brand=Dollar General"
"Nectar, AL",,retail,452319,Dollar General,"933 Main Street, Trussville, AL, 35173",+1-205-661-8445,https://www.dollargeneral.com/store-directory/al/trussville/16473,33.7066072,-86.5190597,,,w_1239242816,"shop=variety_store, brand=Dollar General"
"Nectar, AL",,retail,445120,Wahavo,,,,33.9485325,-86.4725414,,,w_1240654724,"shop=convenience, brand=Exxon"
"Nectar, AL",,retail,445120,Mobil Mart,,,,33.9414647,-86.4615632,,,w_1241712097,"shop=convenience, brand=Mobil Mart"
"Nectar, AL",,retail,452319,Dollar General,"141 County Road 12, Odenville, AL, 35120",+1-205-360-0651,https://www.dollargeneral.com/store-directory/al/odenville/13519,33.6741391,-86.4895614,,,w_1254497362,"shop=variety_store, brand=Dollar General, operator=Dollar General"
"Nectar, AL",,retail,452319,Dollar Tree,,,https://www.dollartree.com/locations/al/oneonta/1181/,33.9687963,-86.452315,,,w_1271309795,"shop=variety_store, brand=Dollar Tree"
"Nectar, AL",,retail,445120,,,,,33.8849105,-86.7656798,,,w_1277948076,shop=convenience
"Nectar, AL",,retail,453110,Becca’s Blooms,"216 1st Avenue East, Oneonta, AL, 35121",+1 205-353-6218,https://www.beccasbloomsal.com/,33.9456017,-86.4755405,,,w_1284485799,shop=florist
"Nectar, AL",,retail,452319,Dollar General,,,,34.1747485,-86.6110371,,,w_1308408950,"shop=variety_store, brand=Dollar General"
"Nectar, AL",,retail,452319,Dollar General,,,,34.277639,-86.4951266,,,w_1308408953,"shop=variety_store, brand=Dollar General"
"Nectar, AL",,retail,445120,Busy Bee,,,,33.9115159,-86.5101286,,,w_1308722061,shop=convenience
"Nectar, AL",,retail,445120,Pilot,,+1-256-338-1277,,34.1168782,-86.8637532,,,w_1314211599,"shop=convenience, brand=Pilot"
"Nectar, AL",,retail,445120,Super Saver,,,,33.8166489,-86.600395,,,w_1318594817,shop=convenience
"Nectar, AL",,retail,445120,Chevron,,,,33.5984876,-86.6443431,,,w_1335706814,"shop=convenience, brand=Chevron"
"Nectar, AL",,retail,445110,Walmart Supercenter,"5919 Trussville Crossings Parkway, Birmingham, AL, 35235",+1 205-661-1957,https://www.walmart.com/store/2713-birmingham-al,33.6389856,-86.6294761,,,w_1340865815,"shop=supermarket, brand=Walmart, operator=Walmart"
"Nectar, AL",,retail,452319,Dollar General,,,,33.7659625,-86.6327524,,,w_1341978613,"shop=variety_store, brand=Dollar General"
"Nectar, AL",,retail,452319,Dollar General,,,,33.9108583,-86.510804,,,w_1365843450,"shop=variety_store, brand=Dollar General"
"Nectar, AL",,retail,452319,Dollar General,"120 US 278 West, Cullman, AL, 35057",,,34.1702766,-86.8813587,,,w_1378279402,"shop=variety_store, brand=Dollar General"
"Nectar, AL",,retail,445210,Smith Farms,"1825 4th Street Southwest, Cullman, AL, 35055",,,34.171113,-86.8721265,,,w_1378289116,shop=butcher
"Nectar, AL",,retail,446110,Hospital Discount Pharmacy,"1201 4th Street Southwest, Cullman, AL, 35055",,,34.1724196,-86.851228,,,w_1378289121,shop=chemist
