Location,Search Keyword,Segment,NAICS Code,Business Name,Address,Phone Number,Website,Latitude,Longitude,Rating,User Ratings,Place ID,Types
"Wilsonville, AL",,retail,452210,Belk,,,,33.2327461,-86.8021973,,,n_459390701,"shop=department_store, brand=Belk, operator=Belk"
"Wilsonville, AL",,retail,452210,Target,"250 South Colonial Drive, Alabaster, AL, 35007-4657",+1 205-564-2608,https://www.target.com/sl/alabaster/2276,33.2243459,-86.8043602,,,n_459390707,"shop=department_store, brand=Target"
"Wilsonville, AL",,retail,445110,Publix,"365 Huntley Parkway, Pelham, AL, 35124-6164",+1 205-620-0102,https://www.publix.com/locations/1202,33.2747947,-86.7925621,,,n_474865135,"shop=supermarket, brand=Publix"
"Wilsonville, AL",,retail,445110,Publix,"4730 Highway 17, Helena, AL, 35080-3570",+1 205-620-0199,https://www.publix.com/locations/1074,33.2800438,-86.8538439,,,n_506856058,"shop=supermarket, brand=Publix"
"Wilsonville, AL",,retail,445110,Walmart Neighborhood Market,"335 Helena Market Place, Helena, AL, 35080",+1 205-624-1640,https://www.walmart.com/store/4189-helena-al,33.27952,-86.8512003,,,n_506856062,"shop=supermarket, brand=Walmart, operator=Walmart"
"Wilsonville, AL",,retail,446110,Walgreens,,,https://www.walgreens.com/locator/walgreens-2505+john+hawkins+pkwy-hoover-al-35244/id=5072,33.3551247,-86.8460815,,,n_1225845984,"shop=chemist, brand=Walgreens"
"Wilsonville, AL",,retail,445110,Publix,"2543 John Hawkins Parkway, Hoover, AL, 35244-3533",+1 205-982-8506,https://www.publix.com/locations/839,33.3559284,-86.8427022,,,n_1225845988,"shop=supermarket, brand=Publix"
"Wilsonville, AL",,retail,445110,Winn-Dixie,"150 Chelsea Corners Way, Chelsea, AL, 35043",+1 205-678-8808,https://www.winndixie.com/storedetails/chelsea/al?search=509,33.3462774,-86.6308773,,,n_1740785052,"shop=supermarket, brand=Winn-Dixie"
"Wilsonville, AL",,retail,445110,Walmart Supercenter,"16077 Highway 280, Chelsea, AL, 35043",+1 205-678-2222,https://www.walmart.com/store/4330-chelsea-al,33.347786,-86.619238,,,n_1740790505,"shop=supermarket, brand=Walmart, operator=Walmart"
"Wilsonville, AL",,retail,445110,Publix,"90 Marketplace Circle, Calera, AL, 35040",+1 205-668-3585,https://www.publix.com/locations/1281,33.1555779,-86.7485346,,,n_2760034105,"shop=supermarket, brand=Publix"
"Wilsonville, AL",,retail,445110,The Fresh Market,,,,33.467953,-86.774025,,,n_3376843197,"shop=supermarket, brand=The Fresh Market"
"Wilsonville, AL",,retail,445110,Publix,"3350 Morgan Drive, Vestavia Hills, AL, 35216",+1 205-978-9842,https://www.publix.com/locations/1675,33.4264824,-86.7742867,,,n_3422680475,"shop=supermarket, brand=Publix"
"Wilsonville, AL",,retail,446120,L'Occitane,,,,33.4467152,-86.7287987,,,n_3451010453,"shop=cosmetics, brand=L'Occitane"
"Wilsonville, AL",,retail,452210,Belk,"221 Summit Boulevard, Birmingham, AL, 35243",+1 205 9684200,https://www.belk.com/store/store_details.jsp?storeid=1408474395188042,33.447926,-86.7284419,,,n_3451010454,"shop=department_store, brand=Belk"
"Wilsonville, AL",,retail,445120,Circle K,,,,33.4624378,-86.7308047,,,n_3595026991,"shop=convenience, brand=Circle K"
"Wilsonville, AL",,retail,452210,TJ Maxx,,,,33.4218301,-86.6923337,,,n_3763255565,"shop=department_store, brand=TJ Maxx"
"Wilsonville, AL",,retail,445120,Allen's Food Mart,"33867 US Highway 280, Childersburg, AL, 35044",+1 256 378 7809,http://www.exxonmobilstations.com/en/13907-allens-food-mart-27-childersburg,33.2634204,-86.349421,,,n_4076735528,shop=convenience
"Wilsonville, AL",,retail,445120,The Cotton Patch,"6478 Renfroe Road, Talladega, AL, 35160",+1 256 268 2778,https://thecottonpatchal.com/home.htm,33.4553687,-86.2542454,,,n_4080688862,shop=convenience
"Wilsonville, AL",,retail,445110,Publix,"1944 Montgomery Highway South, Birmingham, AL, 35244",+1 205-987-3401,https://www.publix.com/locations/841,33.3469027,-86.7971285,,,n_4232573392,"shop=supermarket, brand=Publix"
"Wilsonville, AL",,retail,445110,Target,"5561 Grove Boulevard, Birmingham, AL, 35226",+1 205-747-1654,https://www.target.com/sl/hoover-west/2503,33.361752,-86.8531839,,,n_4232800617,"shop=supermarket, brand=Target"
"Wilsonville, AL",,retail,445110,Sprouts Farmers Market,"5250 Medford Drive, Hoover, AL, 35244",+1 205-263-4970,https://www.sprouts.com/store/al/hoover/medford-dr/,33.3559633,-86.8550969,,,n_4232811029,"shop=supermarket, brand=Sprouts Farmers Market"
"Wilsonville, AL",,retail,445292,Yogurt Mountain,"3032 John Hawkins Parkway, Hoover, AL, 35244",,,33.3723952,-86.8117394,,,n_4261176378,shop=confectionery
"Wilsonville, AL",,retail,445110,Trader Joe's,"205 Summit Boulevard, Birmingham, AL, 35243",+1 205-969-7801,https://locations.traderjoes.com/al/birmingham/737/,33.4465102,-86.7296304,,,n_4836985408,"shop=supermarket, brand=Trader Joe's"
"Wilsonville, AL",,retail,452319,Ollie's Bargain Outlet,,,,33.4603722,-86.8194065,,,n_4839324606,"shop=variety_store, brand=Ollie's Bargain Outlet"
"Wilsonville, AL",,retail,445110,Mr. Chen's Hometown Supermarket,,,,33.4607443,-86.8193762,,,n_4839324607,shop=supermarket
"Wilsonville, AL",,retail,452210,Big Lots,"3550 Pelham Parkway, Pelham, AL, 35124",+1 205-620-5051,https://local.biglots.com/al/pelham/3550-pelham-pkwy,33.2649118,-86.8122851,,,n_4840193224,"shop=department_store, brand=Big Lots"
"Wilsonville, AL",,retail,452319,Dollar General,,,https://www.dollargeneral.com/store-directory/al/pelham/12246,33.263938,-86.8124484,,,n_4840193228,"shop=variety_store, brand=Dollar General"
"Wilsonville, AL",,retail,445110,Walmart Supercenter,"41301 Us Highway 280, Sylacauga, AL, 35150",+1 256-245-0356,https://www.walmart.com/store/730-sylacauga-al,33.1757912,-86.2857733,,,n_5315596467,"shop=supermarket, brand=Walmart, operator=Walmart"
"Wilsonville, AL",,retail,445110,Walmart Supercenter,"2181 Pelham Parkway, Pelham, AL, 35124",+1 205-987-0108,https://www.walmart.com/store/5262-pelham-al,33.340851,-86.791181,,,n_5315597744,"shop=supermarket, brand=Walmart, operator=Walmart"
"Wilsonville, AL",,retail,445110,Walmart Supercenter,"209 Lakeshore Parkway, Homewood, AL, 35209",+1 205-945-8692,https://www.walmart.com/store/1481-homewood-al,33.4471,-86.821,,,n_5315601417,"shop=supermarket, brand=Walmart, operator=Walmart"
"Wilsonville, AL",,retail,446120,Sephora,,,,33.4493321,-86.7275066,,,n_5703240078,"shop=cosmetics, brand=Sephora"
"Wilsonville, AL",,retail,446120,MAC Cosmetics,,,,33.4488329,-86.7274961,,,n_5703240081,"shop=cosmetics, brand=MAC Cosmetics"
"Wilsonville, AL",,retail,445210,Mr. P’s Deli,,,,33.4204874,-86.847067,,,n_5711037854,shop=butcher
"Wilsonville, AL",,retail,445110,Piggly Wiggly,"2148 Tyler Road, Hoover, AL, 35226",+1 205-822-5361,,33.4142908,-86.8448869,,,n_5711037858,"shop=supermarket, brand=Piggly Wiggly"
"Wilsonville, AL",,retail,446120,Oasis Nail Spa,,,,33.4285936,-86.7064594,,,n_5782477615,shop=beauty
"Wilsonville, AL",,retail,446120,Halcyon Days,,,,33.4490425,-86.7313341,,,n_5840213932,shop=beauty
"Wilsonville, AL",,retail,446191,The Green Door Natural Foods,,,,33.4824415,-86.7720474,,,n_5864649585,shop=health_food
"Wilsonville, AL",,retail,453991,Vitola Fine Cigars,,,https://www.vitolafinecigars.com/,33.4819783,-86.7720993,,,n_5864649589,shop=tobacco
"Wilsonville, AL",,retail,445110,Piggly Wiggly,"3800 River Run Drive, Mountain Brook, AL, 35243",+1 205-776-8755,,33.4814219,-86.7119523,,,n_5876911856,"shop=supermarket, brand=Piggly Wiggly"
"Wilsonville, AL",,retail,445230,Murphree's Market and Garden Center,,,https://murphreesmarket.com/,33.4556096,-86.7376037,,,n_5877090644,shop=greengrocer
"Wilsonville, AL",,retail,445120,Sunny Foods,,,,33.344839,-86.7706009,,,n_5886332919,shop=convenience
"Wilsonville, AL",,retail,452319,Dollar Tree,,,https://www.dollartree.com/locations/al/birmingham/3382/,33.3825451,-86.7385259,,,n_5891792998,"shop=variety_store, brand=Dollar Tree"
"Wilsonville, AL",,retail,446120,Nail Tip & Spa,,,,33.385539,-86.7407994,,,n_5897632487,shop=beauty
"Wilsonville, AL",,retail,446120,Nail Vogue,,,,33.4449366,-86.7915876,,,n_5915002414,shop=beauty
"Wilsonville, AL",,retail,445110,The Fresh Market,"Birmingham, AL",,,33.4215003,-86.7000679,,,n_5925078513,"shop=supermarket, brand=The Fresh Market"
"Wilsonville, AL",,retail,445310,ABC Store,"1425 Montgomery Highway, 35216",2058231774,,33.4216016,-86.7967728,,,n_6153881885,shop=alcohol
"Wilsonville, AL",,retail,452210,Von Maur,"3000 Riverchase Galleria, Hoover, AL, 35244",+1-205-982-4337,https://www.vonmaur.com/StorePage.aspx?ID=37,33.3788557,-86.8101737,,,n_6156277986,shop=department_store
"Wilsonville, AL",,retail,452210,Macy's,,,,33.3776821,-86.8077222,,,n_6156277987,"shop=department_store, brand=Macy's"
"Wilsonville, AL",,retail,452210,Belk,,,,33.3803206,-86.8087805,,,n_6156277990,"shop=department_store, brand=Belk"
"Wilsonville, AL",,retail,452210,JCPenney,,,,33.3808456,-86.8101007,,,n_6156277991,"shop=department_store, brand=JCPenney"
"Wilsonville, AL",,retail,452210,Sears Outlet,"251 Lakeshore Parkway, Homewood, AL, 35209",,,33.4449991,-86.8245517,,,n_6185182223,"shop=department_store, brand=Sears Outlet"
"Wilsonville, AL",,retail,452319,Dirt Cheap,"146 Wildwood Parkway, Homewood, AL, 35209",,,33.4497209,-86.8255457,,,n_6185182236,shop=variety_store
"Wilsonville, AL",,retail,445110,Restaurant Depot,"126 Wildwood Parkway, Homewood, AL, 35209",,,33.4488057,-86.8268891,,,n_6185182245,shop=supermarket
"Wilsonville, AL",,retail,452319,Dollar Tree,"233 Lakeshore Parkway, Homewood, AL, 35209",,https://www.dollartree.com/locations/al/homewood/465/,33.4455826,-86.8236914,,,n_6188816195,"shop=variety_store, brand=Dollar Tree"
"Wilsonville, AL",,retail,446120,bluemercury,,,https://www.bluemercury.com/pages/store-details?store_number=172176,33.4485404,-86.7319746,,,n_6332131697,"shop=cosmetics, brand=bluemercury"
"Wilsonville, AL",,retail,446120,Lush,,,https://www.lushusa.com/shop?StoreID=742,33.4473517,-86.7319356,,,n_6332131698,"shop=cosmetics, brand=Lush"
"Wilsonville, AL",,retail,452210,TJ Maxx,"1646 Montgomery Highway, Hoover, AL, 35216",+1-205-822-8255,https://tjmaxx.tjx.com/store/stores/Hoover-AL-35216/242/aboutstore,33.3932499,-86.8077702,,,n_6385943576,"shop=department_store, brand=TJ Maxx"
"Wilsonville, AL",,retail,445110,GreenWise Market at Lane Parke,"1000 Jemison Lane, Mountain Brook, AL, 35223",+1-205-802-9189,https://www.publix.com/locations/1676-greenwise-market-at-lane-parke,33.4862601,-86.7730166,,,n_6945877857,shop=supermarket
"Wilsonville, AL",,retail,452319,Dollar General,"701 Montgomery Highway, Vestavia Hills, AL, 35216",+1-205-379-7725,https://www.dollargeneral.com/store-directory/al/vestavia-hills/30424,33.4467122,-86.7900966,,,n_6955775207,"shop=variety_store, brand=Pop Shelf"
"Wilsonville, AL",,retail,452319,Ollie's Bargain Outlet,"1715 Montgomery Highway, Hoover, AL, 35244",+1-205-989-7991,https://www.ollies.us/locations/1715-montgomery-highway-hoover-al/,33.3816556,-86.8036208,,,n_7175263940,"shop=variety_store, brand=Ollie's Bargain Outlet"
"Wilsonville, AL",,retail,452319,Five Below,"1725 Montgomery Highway, Birmingham, AL, 35244",+1-205-739-5944,https://locations.fivebelow.com/al/birmingham/1725-montgomery-highway,33.3798791,-86.803905,,,n_7217675838,"shop=variety_store, brand=Five Below"
"Wilsonville, AL",,retail,452210,TJ Maxx,,,,33.1738297,-86.282984,,,n_7241397916,"shop=department_store, brand=TJ Maxx"
"Wilsonville, AL",,retail,452319,Tools & More!,"6200 Grand River Boulevard, Leeds, AL, 35094",+1-205-702-4247,,33.5494027,-86.5961687,,,n_7373007263,shop=variety_store
"Wilsonville, AL",,retail,446120,Beauty & Beyond,"1615 Montgomery Highway, Hoover, AL, 35216",+1-205-834-8503,,33.3972447,-86.8050118,,,n_7626654081,shop=beauty
"Wilsonville, AL",,retail,445310,ABC Store,,,,33.386407,-86.7402035,,,n_7689170790,shop=alcohol
"Wilsonville, AL",,retail,452319,Bargain Hunt,"3313 Lorna Road, Hoover, AL, 35216",+1-205-978-7215,https://www.bargainhunt.com/,33.3936961,-86.7963103,,,n_7722337795,shop=variety_store
"Wilsonville, AL",,retail,452319,Dollar Tree,,,https://www.dollartree.com/locations/al/hoover/4302/,33.359762,-86.855167,,,n_7725988508,"shop=variety_store, brand=Dollar Tree"
"Wilsonville, AL",,retail,452210,Marshalls,,,,33.360901,-86.8537052,,,n_7725988510,"shop=department_store, brand=Marshalls"
"Wilsonville, AL",,retail,445120,Circle K,"3101 Shannon Oxmoor Road, Birmingham, AL, 35211",+1-205-945-4717,https://www.circlek.com/store-locator/US/birmingham/3101-shannon-oxmoor-rd/2701611,33.4343382,-86.843585,,,n_7746662198,"shop=convenience, brand=Circle K"
"Wilsonville, AL",,retail,446110,Village Drug Co,,,,33.4083771,-86.6313016,,,n_7784313879,shop=chemist
"Wilsonville, AL",,retail,446110,Liberty Pharmacy,"3735 Corporate Woods Drive, Vestavia Hills, AL, 35242",+1-205-977-9290,https://libertypharmacyal.com/,33.4804188,-86.7024969,,,n_7792769430,shop=chemist
"Wilsonville, AL",,retail,445310,ABC Select Spirits,"3232 Galleria Circle, Hoover, AL, 35244",+1-205-989-3386,https://alabcboard.gov/58,33.3746398,-86.8106234,,,n_7830843734,shop=alcohol
"Wilsonville, AL",,retail,452319,Dollar General,"2144 Tyler Road, Hoover, AL, 35226",+1-205-379-8350,https://www.dollargeneral.com/store-directory/al/hoover/9521,33.4166573,-86.8449962,,,n_7857845674,"shop=variety_store, brand=Dollar General"
"Wilsonville, AL",,retail,452319,Dollar General,,,https://www.dollargeneral.com/store-directory/al/irondale/9390,33.5314767,-86.7056704,,,n_8268622751,"shop=variety_store, brand=Dollar General"
"Wilsonville, AL",,retail,452210,Macy's,"3000 Riverchase Galleria, Hoover, AL, 35244",+1-205-985-2600,https://www.macys.com/stores/al/hoover/riverchase-galleria_747.html,33.3776821,-86.8077222,,,n_8297340822,"shop=department_store, brand=Macy's"
"Wilsonville, AL",,retail,446110,CVS Pharmacy,"93 Euclid Avenue, Mountain Brook, AL, 35213",+1-205-871-2151,https://www.cvs.com/store-locator/mountain-brook-al-pharmacies/93-euclid-avenue-mountain-brook-al-35213/storeid=2505,33.5029356,-86.7573238,,,n_8937258648,"shop=chemist, brand=CVS Pharmacy"
"Wilsonville, AL",,retail,452210,TJ Maxx,,,,33.2236663,-86.8038966,,,n_8941907815,"shop=department_store, brand=TJ Maxx"
"Wilsonville, AL",,retail,446120,Ulta Beauty,"100 South Colonial Drive, Alabaster, AL, 35007",+1 205-664-4985,https://www.ulta.com/stores/alabaster-al-1084,33.2257461,-86.8045431,,,n_8941907833,"shop=cosmetics, brand=Ulta Beauty"
"Wilsonville, AL",,retail,452319,Dollar General,,,https://www.dollargeneral.com/store-directory/al/sylacauga/6434,33.1849697,-86.2468455,,,n_9009330676,"shop=variety_store, brand=Dollar General"
"Wilsonville, AL",,retail,446120,M. D. Nails,,,,33.1847448,-86.2468483,,,n_9009330678,shop=beauty
"Wilsonville, AL",,retail,453110,Blakelee's Bouquets,931 Oxmoor Road,+1-205-579-4900,https://www.blakeleesbouquets.com/,33.47353,-86.8087617,,,n_9354700613,shop=florist
"Wilsonville, AL",,retail,452319,pOpshelf,"5537 Grove Boulevard, Hoover, AL, 35226",+1-205-502-2206,https://www.popshelf.com/store/24033,33.3622906,-86.8520489,,,n_9514689706,"shop=variety_store, brand=pOpshelf"
"Wilsonville, AL",,retail,446110,Walgreens,"1615 Montgomery Highway, Hoover, AL, 35216",+1-205-823-6091,https://www.walgreens.com/locator/walgreens-1615+montgomery+highway-hoover-al-35216/id=17346,33.3977454,-86.8048819,,,n_9642256543,"shop=chemist, brand=Walgreens"
"Wilsonville, AL",,retail,446120,Beauty & Beyond Galleria,"1642 Montgomery Highway, Hoover, AL, 35216",+1-205-460-1106,,33.393886,-86.8069558,,,n_9645853330,shop=beauty
"Wilsonville, AL",,retail,446110,Walgreens,"Birmingham, AL, 35242",,https://www.walgreens.com/locator/walgreens-4700+highway+280-hoover-al-35242/id=11651,33.4216186,-86.700532,,,n_9694213735,"shop=chemist, brand=Walgreens"
"Wilsonville, AL",,retail,445110,Jubilee Groceries,"3321 Lorna Road, Hoover, AL, 35216",+12055822299,,33.3925961,-86.796308,,,n_10126990406,shop=supermarket
"Wilsonville, AL",,retail,445310,ABC Select Spirits,,,,33.2790087,-86.85116,,,n_10309244560,shop=alcohol
"Wilsonville, AL",,retail,453991,Fifth Earl Cigars,"485 Helena Market Place, Helena, AL, 35080",,,33.2786006,-86.8511573,,,n_10309244563,shop=tobacco
"Wilsonville, AL",,retail,446110,Helena Drugs,,,,33.2788203,-86.8511627,,,n_10309244566,shop=chemist
"Wilsonville, AL",,retail,445110,Piggly Wiggly,,,,33.4165668,-86.8437131,,,n_10740153965,"shop=supermarket, brand=Piggly Wiggly"
"Wilsonville, AL",,retail,452210,Ross,"1616 Montclair Road, Birmingham, AL, 35210",+1 205-951-1563,,33.5280616,-86.7222549,,,n_10751583085,"shop=department_store, brand=Ross"
"Wilsonville, AL",,retail,452319,Five Below,,+1 205-564-1043,https://locations.fivebelow.com/al/birmingham/1612-montclair-rd,33.5283658,-86.7219063,,,n_10751583086,"shop=variety_store, brand=Five Below"
"Wilsonville, AL",,retail,452319,Dollar Tree,,,https://www.dollartree.com/locations/al/birmingham/1130/,33.5271976,-86.7323663,,,n_10751586652,"shop=variety_store, brand=Dollar Tree"
"Wilsonville, AL",,retail,452210,Burkes Outlet,,,,33.1766132,-86.2875547,,,n_10762069322,shop=department_store
"Wilsonville, AL",,retail,446120,Bath & Body Works,,,,33.1764381,-86.2872352,,,n_10762069324,"shop=cosmetics, brand=Bath & Body Works"
"Wilsonville, AL",,retail,452319,Five Below,,+1 256-367-1274,https://locations.fivebelow.com/al/sylacauga/41271-us-280-w,33.1762922,-86.286969,,,n_10762069327,"shop=variety_store, brand=Five Below"
"Wilsonville, AL",,retail,445110,Publix,"501 Chelsea Crossroads, Chelsea, AL, 35043-3900",+1 205-678-5600,https://www.publix.com/locations/1370,33.3532285,-86.6088316,,,n_10765291274,"shop=supermarket, brand=Publix"
"Wilsonville, AL",,retail,446120,Fragrance outlet,,,,33.5488295,-86.595275,,,n_11378280651,shop=perfumery
"Wilsonville, AL",,retail,446120,Bath & Body Works,,,,33.5484217,-86.5955647,,,n_11418198799,"shop=cosmetics, brand=Bath & Body Works"
"Wilsonville, AL",,retail,445292,La Fiesta Snack Bar And Dulcería,"410 1st Street Southwest, Alabaster, AL",+1 205-624-3191,,33.2396704,-86.8183735,,,n_11762759252,shop=confectionery
"Wilsonville, AL",,retail,453991,Mary Jane's CBD Dispensary - Smoke & Vape Shop Homewood,"231 State Farm Parkway, Homewood, AL, 35209",+1 205-848-2210,https://mjcbdd.com/top-tobacco-cbd-vape-shop-cbd-homewood,33.4462406,-86.8270585,,,n_11765220239,shop=tobacco
"Wilsonville, AL",,retail,453991,Walco Handy Mart,"626 Alabama Avenue, Sylacauga, AL, 35150",256-249-9263,,33.1830259,-86.2716509,,,n_11919268747,"shop=tobacco, operator=Andy Patel"
"Wilsonville, AL",,retail,446120,ACE Beauty Supply,,,,33.3918567,-86.8071277,,,n_11943406698,shop=beauty
"Wilsonville, AL",,retail,445120,,,,,33.3349519,-86.7817676,,,n_12361107172,shop=convenience
"Wilsonville, AL",,retail,445120,,,,,33.2821553,-86.3624549,,,n_12361301180,shop=convenience
"Wilsonville, AL",,retail,445120,,,,,33.3370662,-86.7814685,,,n_12362076799,shop=convenience
"Wilsonville, AL",,retail,445110,Lucky's FoodLand,"4000 AL 25, Montevallo, AL, 35115",+1 205-665-5124,,33.0917618,-86.8648624,,,n_12500584535,"shop=supermarket, brand=FoodLand"
"Wilsonville, AL",,retail,446120,LaserAway,"133 Summit Boulevard, Birmingham, AL, 35243",+1 248-973-1111,https://www.laseraway.com/locations/al/birmingham/,33.4442832,-86.7306865,,,n_12854695768,"shop=beauty, brand=LaserAway"
"Wilsonville, AL",,retail,452319,Five Below,"100 South Colonial Drive, Alabaster, AL, 35007",+1 205-564-1095,https://locations.fivebelow.com/al/alabaster/100-s-colonial-dr,33.2259199,-86.8045403,,,n_12861953001,"shop=variety_store, brand=Five Below"
"Wilsonville, AL",,retail,445110,Trader Joe's,"1769 Montgomery Highway, Hoover, AL, 35244",+1-205-202-7715,,33.3792085,-86.803154,,,n_12879762317,"shop=supermarket, brand=Trader Joe's"
"Wilsonville, AL",,retail,445120,Circle K,"4209 Stemley Bridge Road, Pell City, AL",,https://www.circlek.com/store-locator/US/pell-city/4209-stemley-bridge-rd/2654160,33.5363071,-86.2599972,,,n_13004872148,"shop=convenience, brand=Circle K"
"Wilsonville, AL",,retail,446120,Nail Star,,,,33.3930091,-86.8076239,,,n_13072870880,shop=beauty
"Wilsonville, AL",,retail,445110,Walmart Supercenter,"2780 John Hawkins Parkway, Hoover, AL, 35244",+1 205-733-0303,https://www.walmart.com/store/1229-hoover-al,33.3618236,-86.82463,,,w_40183520,"shop=supermarket, brand=Walmart, operator=Walmart"
"Wilsonville, AL",,retail,445230,Andy's Market and Nursery,"124 Mars Hill Road, Hoover, AL, 35244",,,33.3537755,-86.8430812,,,w_106509793,shop=greengrocer
"Wilsonville, AL",,retail,445110,Whole Foods Market,"3100 Cahaba Village Plaza, Birmingham, AL, 35243",+1 205-912-8400,https://www.wholefoodsmarket.com/stores/birmingham,33.4600495,-86.7526192,,,w_185563808,"shop=supermarket, brand=Whole Foods Market"
"Wilsonville, AL",,retail,452210,Saks Fifth Avenue,,,,33.4452927,-86.7309379,,,w_234158797,"shop=department_store, brand=Saks Fifth Avenue"
"Wilsonville, AL",,retail,446110,CVS Pharmacy,,,https://www.cvs.com/store-locator/vestavia-hills-al-pharmacies/4197-crosshaven-dr-vestavia-hills-al-35243/storeid=4851,33.454524,-86.7302825,,,w_338176764,"shop=chemist, brand=CVS Pharmacy"
"Wilsonville, AL",,retail,445110,Publix,"3141 Overton Road, Mountain Brook, AL, 35223",+1 205-967-2188,https://www.publix.com/locations/1085-publix-on-overton,33.4657735,-86.7327702,,,w_351676259,"shop=supermarket, brand=Publix"
"Wilsonville, AL",,retail,445110,Winn-Dixie,"3925 Crosshaven Drive, Birmingham, AL, 35243",+1 205-969-2307,https://www.winndixie.com/storedetails/vestavia%20hills/al?search=517,33.4630084,-86.730101,,,w_351676262,"shop=supermarket, brand=Winn-Dixie"
"Wilsonville, AL",,retail,445110,Winn-Dixie,"4476 Montevallo Road, Birmingham, AL, 35213",+1 205-951-6768,https://www.winndixie.com/storedetails/birmingham/al?search=435,33.5204494,-86.7286637,,,w_364002420,"shop=supermarket, brand=Winn-Dixie"
"Wilsonville, AL",,retail,445110,Winn-Dixie,"500 Inverness Corners, Birmingham, AL, 35242",+1 205-991-0230,https://www.winndixie.com/storedetails/birmingham/al?search=445,33.4173085,-86.6945429,,,w_364002423,"shop=supermarket, brand=Winn-Dixie"
"Wilsonville, AL",,retail,452210,Kohl's,"1100 Inverness Corners, Birmingham, AL, 35242",+1 205-980-4770,https://www.kohls.com/stores/al/birmingham-657.shtml,33.4158879,-86.6966641,,,w_364002425,"shop=department_store, brand=Kohl's"
"Wilsonville, AL",,retail,452210,Target,"4616 Highway 280, Birmingham, AL, 35242-5028",+1 205-408-7687,https://www.target.com/sl/birmingham-280-corridor/1772,33.4253677,-86.7125261,,,w_372771836,"shop=department_store, brand=Target"
"Wilsonville, AL",,retail,445110,Walmart Supercenter,"5355 Highway 280, Hoover, AL, 35242",+1 205-980-5156,https://www.walmart.com/store/2111-hoover-al,33.4219449,-86.6758432,,,w_374365342,"shop=supermarket, brand=Walmart"
"Wilsonville, AL",,retail,446110,CVS Pharmacy,"1881 Chace Drive, Hoover, AL, 35244",+1-205-987-7286,https://www.cvs.com/store-locator/hoover-al-pharmacies/1881-chace-rd-hoover-al-35244/storeid=4889,33.3697267,-86.800164,,,w_426044111,"shop=chemist, brand=CVS Pharmacy"
"Wilsonville, AL",,retail,452210,Kohl's,"5513 Grove Boulevard, Hoover, AL, 35226",+1 205-403-4549,https://www.kohls.com/stores/al/hoover-1331.shtml,33.3631584,-86.851329,,,w_426237190,"shop=department_store, brand=Kohl's"
"Wilsonville, AL",,retail,452319,Dollar General,,,https://www.dollargeneral.com/store-directory/al/helena/7175,33.2765502,-86.8518647,,,w_453550722,"shop=variety_store, brand=Dollar General"
"Wilsonville, AL",,retail,445120,Circle K,,,,33.1804395,-86.6153225,,,w_569166394,"shop=convenience, brand=Circle K"
"Wilsonville, AL",,retail,445110,Piggly Wiggly,"211 West College Street, Columbiana, AL, 35051",+1 205-669-9916,,33.1791063,-86.6133071,,,w_569166397,"shop=supermarket, brand=Piggly Wiggly"
"Wilsonville, AL",,retail,445310,ABC Beverages,,,,33.1793324,-86.6139413,,,w_569166399,shop=alcohol
"Wilsonville, AL",,retail,445120,,,,,33.0546551,-86.1466357,,,w_592485793,shop=convenience
"Wilsonville, AL",,retail,445110,Piggly Wiggly,"1351 North Fort Williams Street, Sylacauga, AL, 35150",+1 256-249-8989,,33.1647041,-86.272942,,,w_592487546,"shop=supermarket, brand=Piggly Wiggly"
"Wilsonville, AL",,retail,446110,CVS Pharmacy,,,https://www.cvs.com/store-locator/hoover-al-pharmacies/5400-hwy-280-hoover-al-35242/storeid=10181,33.4182388,-86.6714245,,,w_592538911,"shop=chemist, brand=CVS Pharmacy"
"Wilsonville, AL",,retail,445310,Pink Package Store,,,,33.4305626,-86.7097782,,,w_610588837,shop=alcohol
"Wilsonville, AL",,retail,445110,Aldi,"4639 Highway 280, Birmingham, AL, 35242",+1 833-470-7072,https://stores.aldi.us/al/birmingham/4639-hwy-280,33.4263503,-86.7029511,,,w_610605475,"shop=supermarket, brand=Aldi"
"Wilsonville, AL",,retail,445110,Piggly Wiggly,"1324 Dunnavant Valley Road, Birmingham, AL, 35242",+1 205-918-7120,,33.4064498,-86.6317268,,,w_619892086,"shop=supermarket, brand=Piggly Wiggly, operator=Piggly Wiggly"
"Wilsonville, AL",,retail,445110,Hudd's Food Center,,,,33.2357699,-86.4834795,,,w_620995890,shop=supermarket
"Wilsonville, AL",,retail,445110,Publix,"410 Doug Baker Boulevard, Hoover, AL, 35242-2682",+1 205-981-7415,https://www.publix.com/locations/882,33.4089505,-86.6685659,,,w_621546648,"shop=supermarket, brand=Publix"
"Wilsonville, AL",,retail,446110,Walgreens,"101 Doug Baker Boulevard, Birmingham, AL, 35242",,https://www.walgreens.com/locator/walgreens-101+doug+baker+blvd-hoover-al-35242/id=7791,33.4087669,-86.6653142,,,w_621547404,"shop=chemist, brand=Walgreens"
"Wilsonville, AL",,retail,445120,Shell,,,,33.4355106,-86.6635273,,,w_623235121,"shop=convenience, brand=Shell"
"Wilsonville, AL",,retail,445110,Piggly Wiggly,"3000 Montgomery Highway, Homewood, AL, 35209",,,33.4781818,-86.7877788,,,w_623588813,"shop=supermarket, brand=Piggly Wiggly"
"Wilsonville, AL",,retail,445120,,,,,33.3552451,-86.747251,,,w_623950944,shop=convenience
"Wilsonville, AL",,retail,445120,Circle K,,,,33.3835302,-86.7389778,,,w_623950947,"shop=convenience, brand=Circle K"
"Wilsonville, AL",,retail,445110,Walmart Neighborhood Market,"2653 Valleydale Road, Hoover, AL, 35244",+1 205-582-6183,https://www.walmart.com/store/3424-birmingham-al,33.3823187,-86.7392069,,,w_623950948,"shop=supermarket, brand=Walmart, operator=Walmart"
"Wilsonville, AL",,retail,445110,Publix,"5188 Caldwell Mill Road, Hoover, AL, 35244-1915",+1 205-980-7500,https://www.publix.com/locations/838,33.3859038,-86.7405858,,,w_624532376,"shop=supermarket, brand=Publix"
"Wilsonville, AL",,retail,445120,,,,,33.4161958,-86.8429708,,,w_625441385,shop=convenience
"Wilsonville, AL",,retail,445120,,,,,33.3729884,-86.8106556,,,w_625444025,shop=convenience
"Wilsonville, AL",,retail,445120,,,,,33.352505,-86.8750509,,,w_625447671,shop=convenience
"Wilsonville, AL",,retail,445120,Kangaroo Express,,,,33.5267933,-86.7179562,,,w_625453342,"shop=convenience, brand=Kangaroo Express"
"Wilsonville, AL",,retail,445110,Publix,"1325 Montclair Road, Birmingham, AL, 35210-2205",+1 205-951-6626,https://www.publix.com/locations/1059,33.5210723,-86.731183,,,w_626530351,"shop=supermarket, brand=Publix"
"Wilsonville, AL",,retail,445110,Publix,"784 Montgomery Highway, Vestavia Hills, AL, 35216-1800",+1 205-824-6005,https://www.publix.com/locations/842,33.4447149,-86.7932822,,,w_626535108,"shop=supermarket, brand=Publix"
"Wilsonville, AL",,retail,445110,ALDI,"7400 Crestwood Boulevard, Birmingham, AL, 35210",+1 855-955-2534,https://stores.aldi.us/al/birmingham/7400-crestwood-blvd,33.5306929,-86.7272854,,,w_626785370,"shop=supermarket, brand=ALDI"
"Wilsonville, AL",,retail,445110,Walmart Supercenter,"1600 Montclair Road, Irondale, AL, 35210",+1 205-956-0416,https://www.walmart.com/store/1711-birmingham-al,33.5289994,-86.720159,,,w_626785374,"shop=supermarket, brand=Walmart, operator=Walmart"
"Wilsonville, AL",,retail,452210,Burlington,,,,33.5270212,-86.7345615,,,w_627044273,"shop=department_store, brand=Burlington"
"Wilsonville, AL",,retail,446110,CVS Pharmacy,,,https://www.cvs.com/store-locator/birmingham-al-pharmacies/105-inverness-plaza-hwy-280-birmingham-al-35242/storeid=4864,33.4193551,-86.6956285,,,w_627646968,"shop=chemist, brand=CVS Pharmacy"
"Wilsonville, AL",,retail,446110,CVS Pharmacy,,,https://www.cvs.com/store-locator/vestavia-hills-al-pharmacies/1100-montgomery-hwy-vestavia-hills-al-35216/storeid=4855,33.4370167,-86.7894831,,,w_628729513,"shop=chemist, brand=CVS Pharmacy"
"Wilsonville, AL",,retail,445110,Walmart Neighborhood Market,"3320 Lorna Road, Hoover, AL, 35216",+1 205-909-4306,https://www.walmart.com/store/3184-hoover-al,33.3929994,-86.7993722,,,w_631085601,"shop=supermarket, brand=Walmart, operator=Walmart"
"Wilsonville, AL",,retail,445110,Publix,"1584 Montgomery Highway, Hoover, AL, 35216",+1 205-824-7218,https://www.publix.com/locations/1207,33.4035299,-86.8083774,,,w_651201182,"shop=supermarket, brand=Publix"
"Wilsonville, AL",,retail,445110,Publix,"2200 Village Drive, Moody, AL, 35004-3241",+1 205-640-3230,https://www.publix.com/locations/1508,33.5700723,-86.5175326,,,w_659591301,"shop=supermarket, brand=Publix"
"Wilsonville, AL",,retail,445110,Walmart Neighborhood Market,"1300 Montgomery Highway, Vestavia Hills, AL, 35216",+1 205-822-9994,https://www.walmart.com/store/4580-vestavia-hills-al,33.4285722,-86.7918464,,,w_678034773,"shop=supermarket, brand=Walmart"
"Wilsonville, AL",,retail,446110,Walgreens,"1801 Montgomery Highway, Hoover, 35244",+1 205 988 9118,https://www.walgreens.com/locator/walgreens-1801+montgomery+hwy-hoover-al-35244/id=13937,33.3770393,-86.802583,,,w_678961801,"shop=chemist, brand=Walgreens"
"Wilsonville, AL",,retail,445120,,,,,33.1783649,-86.6050588,,,w_690258115,shop=convenience
"Wilsonville, AL",,retail,452210,JCPenney,,,,33.2226227,-86.8022847,,,w_698363626,"shop=department_store, brand=JCPenney"
"Wilsonville, AL",,retail,445110,ALDI,"1025 Marble Terrace, Hoover, AL, 35244",+1 833-470-7027,https://stores.aldi.us/al/hoover/1025-marble-terrace,33.3540635,-86.8470958,,,w_744135860,"shop=supermarket, brand=ALDI"
"Wilsonville, AL",,retail,452319,Dollar General,"32300 US Highway 280, Childersburg, AL, 35044",+1 256 378 5682,https://www.dollargeneral.com/store-directory/al/childersburg/4339,33.2831706,-86.3625301,,,w_751960709,"shop=variety_store, brand=Dollar General"
"Wilsonville, AL",,retail,452319,Dollar General,,,https://www.dollargeneral.com/store-directory/al/wilsonville/6415,33.2402518,-86.4801614,,,w_751965807,"shop=variety_store, brand=Dollar General"
"Wilsonville, AL",,retail,452319,Dollar General,"45 Stemley Road, Talladega, AL, 35160",+1 256 474 4580,https://www.dollargeneral.com/store-directory/al/talladega/15731,33.4487572,-86.2362908,,,w_752003309,"shop=variety_store, brand=Dollar General"
"Wilsonville, AL",,retail,445110,Publix,"6219 Tattersall Boulevard, Hoover, AL, 35242",+1 205-981-3995,https://www.publix.com/locations/1687-publix-at-tattersall-park,33.4198104,-86.6675865,,,w_764046010,"shop=supermarket, brand=Publix"
"Wilsonville, AL",,retail,445120,Citgo,,,,33.4072443,-86.8049896,,,w_767444349,"shop=convenience, brand=Citgo"
"Wilsonville, AL",,retail,445120,Sunoco,,,,33.4093211,-86.8061766,,,w_767444355,"shop=convenience, brand=Sunoco"
"Wilsonville, AL",,retail,446110,CVS Pharmacy,"1675 Montclair Road, Birmingham, AL, 35210",+1-205-592-2424,https://www.cvs.com/store-locator/cvs-pharmacy-address/1675+Montclair+Rd-Birmingham-AL-35210/storeid=4936,33.5263274,-86.71882,,,w_778461007,"shop=chemist, brand=CVS Pharmacy"
"Wilsonville, AL",,retail,446110,Walgreens,,,https://www.walgreens.com/locator/walgreens-5271+ross+bridge+pkwy-hoover-al-35226/id=12056,33.353269,-86.8740671,,,w_803104901,"shop=chemist, brand=Walgreens"
"Wilsonville, AL",,retail,446110,CVS Pharmacy,,,https://www.cvs.com/store-locator/hoover-al-pharmacies/2301-john-hawkins-pkwy-hoover-al-35244/storeid=2662,33.3498619,-86.8681618,,,w_803149486,"shop=chemist, brand=CVS Pharmacy"
"Wilsonville, AL",,retail,452210,Target,"531 Brookwood Village, Homewood, AL, 35209",+1-205-994-7531,https://www.target.com/sl/homewood/2796,33.467136,-86.7750993,,,w_803149488,"shop=department_store, brand=Target"
"Wilsonville, AL",,retail,446110,Walgreens,,,https://www.walgreens.com/locator/walgreens-9458+helena+rd-pelham-al-35124/id=4589,33.3450475,-86.7970649,,,w_803452920,"shop=chemist, brand=Walgreens"
"Wilsonville, AL",,retail,445110,ALDI,"200 Big Mountain Road, Pelham, AL, 35124",+1 833-470-7032,https://stores.aldi.us/al/pelham/200-big-mtn-rd,33.3438559,-86.7950314,,,w_803452921,"shop=supermarket, brand=ALDI"
"Wilsonville, AL",,retail,445110,Walmart Supercenter,"5100 U.S. 31, Calera, AL, 35040",+1 205-668-0831,https://www.walmart.com/store/3271-calera-al,33.1464208,-86.7518383,,,w_807671039,"shop=supermarket, brand=Walmart, operator=Walmart"
"Wilsonville, AL",,retail,445120,Circle K,,,,33.381911,-86.7947657,,,w_808122486,"shop=convenience, brand=Circle K"
"Wilsonville, AL",,retail,445120,Shell,,,,33.4329041,-86.73894,,,w_819549713,"shop=convenience, brand=Shell"
"Wilsonville, AL",,retail,446110,Walgreens,,,https://www.walgreens.com/locator/walgreens-1832+ashville+rd-leeds-al-35094/id=10110,33.5630301,-86.5228147,,,w_819609628,"shop=chemist, brand=Walgreens"
"Wilsonville, AL",,retail,445120,Sunoco,,,,33.4188004,-86.8022379,,,w_819970740,"shop=convenience, brand=Sunoco"
"Wilsonville, AL",,retail,445120,Chevron,,,,33.5421056,-86.5871601,,,w_821649122,"shop=convenience, brand=Chevron"
"Wilsonville, AL",,retail,445120,Marathon,,,,33.5424731,-86.5861517,,,w_821649124,"shop=convenience, amenity=fuel, brand=Marathon"
"Wilsonville, AL",,retail,445120,Shell,,,,33.5318333,-86.695207,,,w_821973582,"shop=convenience, brand=Shell"
"Wilsonville, AL",,retail,445120,,,,,33.5331167,-86.7045064,,,w_821973587,shop=convenience
"Wilsonville, AL",,retail,445110,Publix,"3201 Endeavor Lane, Vestavia Hills, AL, 35242",+1 205-967-5998,https://www.publix.com/locations/1692-the-market-place-at-the-bray,33.4726186,-86.7033285,,,w_823527411,"shop=supermarket, brand=Publix"
"Wilsonville, AL",,retail,445120,BP Shop,,,,33.3588571,-86.7710457,,,w_823920498,"shop=convenience, brand=BP Shop"
"Wilsonville, AL",,retail,445120,Circle K,,,,33.4274494,-86.7078698,,,w_824652075,"shop=convenience, brand=Circle K"
"Wilsonville, AL",,retail,445110,Publix,"3040 Healthy Way, Vestavia Hills, AL, 35243",+1 205-970-7501,https://www.publix.com/locations/1545,33.4293727,-86.7375532,,,w_824652102,"shop=supermarket, brand=Publix"
"Wilsonville, AL",,retail,445120,Sunoco,,,,33.3963248,-86.8068493,,,w_824968890,"shop=convenience, brand=Sunoco"
"Wilsonville, AL",,retail,446120,Hwy 31 Nails & Spa,,,,33.3965422,-86.8054608,,,w_824968923,shop=beauty
"Wilsonville, AL",,retail,452319,Family Dollar,,,,33.3972421,-86.8021841,,,w_824968989,"shop=variety_store, brand=Family Dollar"
"Wilsonville, AL",,retail,446120,Cream De La Creme,,,,33.3955101,-86.7952251,,,w_825417457,shop=beauty
"Wilsonville, AL",,retail,445120,Everyday convenience/package store,,,,33.4152158,-86.8051513,,,w_827093747,shop=convenience
"Wilsonville, AL",,retail,445120,,,,,33.4673397,-86.7320211,,,w_831560305,shop=convenience
"Wilsonville, AL",,retail,446110,Walgreens,"737 Montgomery Highway, Vestavia, AL, 35216",,https://www.walgreens.com/locator/walgreens-737+montgomery+hwy-vestavia+hills-al-35216/id=9701,33.4446613,-86.7902096,,,w_833611655,"shop=chemist, brand=Walgreens"
"Wilsonville, AL",,retail,445110,Walmart Supercenter,"8551 Whitfield Avenue, Leeds, AL, 35094",+1 205-699-0701,https://www.walmart.com/store/562-leeds-al,33.5621994,-86.5186802,,,w_837963215,"shop=supermarket, brand=Walmart, operator=Walmart"
"Wilsonville, AL",,retail,445110,Walmart Neighborhood Market,"9085 Highway 119, Alabaster, AL, 35007",+1 205-624-6229,https://www.walmart.com/store/4756/alabaster-al,33.2121987,-86.8298012,,,w_870061882,"shop=supermarket, brand=Walmart, operator=Walmart"
"Wilsonville, AL",,retail,452319,Dollar General,,,https://www.dollargeneral.com/store-directory/al/alabaster/9539,33.2138347,-86.8248607,,,w_870061889,"shop=variety_store, brand=Dollar General"
"Wilsonville, AL",,retail,445110,Publix,"9200 Highway 119, Alabaster, AL, 35007-5344",+1 205-663-3443,https://www.publix.com/locations/1073,33.2127058,-86.8256557,,,w_870061890,"shop=supermarket, brand=Publix"
"Wilsonville, AL",,retail,446110,CVS Pharmacy,,,,33.2146532,-86.8278442,,,w_870061893,"shop=chemist, brand=CVS Pharmacy"
"Wilsonville, AL",,retail,445110,Walmart Supercenter,"630 Colonial Promenade Parkway, Alabaster, AL, 35007",+1 205-620-0360,https://www.walmart.com/store/423-alabaster-al,33.2354875,-86.8012835,,,w_870236304,"shop=supermarket, brand=Walmart, operator=Walmart"
"Wilsonville, AL",,retail,452210,Belk,,,,33.2327608,-86.8021965,,,w_870236314,"shop=department_store, brand=Belk"
"Wilsonville, AL",,retail,452210,Ross,"300 Colonial Promenade Parkway, Alabaster, AL, 35007",+1 205-663-1319,,33.2317788,-86.8021313,,,w_870236316,"shop=department_store, brand=Ross"
"Wilsonville, AL",,retail,452319,Dollar Tree,,,https://www.dollartree.com/locations/al/alabaster/4579/,33.2320907,-86.8022601,,,w_870513407,"shop=variety_store, brand=Dollar Tree"
"Wilsonville, AL",,retail,445120,,,,,33.5313316,-86.7164363,,,w_889398761,shop=convenience
"Wilsonville, AL",,retail,446110,,,,,33.218775,-86.825569,,,w_921953497,shop=chemist
"Wilsonville, AL",,retail,445110,,,,,33.2170917,-86.8264418,,,w_921953510,shop=supermarket
"Wilsonville, AL",,retail,445110,ALDI,"113 Simmsville Road, Alabaster, AL, 35007",+1 833-470-7038,https://stores.aldi.us/al/alabaster/113-simmsville-rd,33.2399113,-86.8154814,,,w_940866324,"shop=supermarket, brand=ALDI"
"Wilsonville, AL",,retail,445120,RaceWay,,,,33.2778545,-86.8125705,,,w_963775252,"shop=convenience, brand=RaceWay"
"Wilsonville, AL",,retail,445110,Piggly Wiggly,"41 Church Street, Mountain Brook, AL, 35213",+1 205-802-9078,https://www.thepigbham.com/crestline/,33.502488,-86.7547279,,,w_966316434,"shop=supermarket, brand=Piggly Wiggly"
"Wilsonville, AL",,retail,445110,Sprouts Farmers Market,"5265 US Highway 280, Birmingham, AL, 35242",+1 205-263-2808,https://www.sprouts.com/store/al/birmingham/us-hwy-280/,33.4201203,-86.683399,,,w_968339835,"shop=supermarket, brand=Sprouts Farmers Market"
"Wilsonville, AL",,retail,452319,Five Below,,+1 205-408-5213,https://locations.fivebelow.com/al/birmingham/5267-us-280,33.4197581,-86.6835648,,,w_968339836,"shop=variety_store, brand=Five Below"
"Wilsonville, AL",,retail,445110,Piggly Wiggly,"1244 North Talladega Highway, Sylacauga, AL, 35150",+1 256-249-4836,,33.1847328,-86.243721,,,w_973430147,"shop=supermarket, brand=Piggly Wiggly"
"Wilsonville, AL",,retail,445120,,,,,33.4737597,-86.6945022,,,w_1009609521,shop=convenience
"Wilsonville, AL",,retail,446110,CVS Pharmacy,"2828 Moody Parkway, Moody, AL, 35004",,https://www.cvs.com/store-locator/moody-al-pharmacies/2828-moody-parkway-moody-al-35004/storeid=4967,33.5904659,-86.4953048,,,w_1054972114,"shop=chemist, brand=CVS Pharmacy"
"Wilsonville, AL",,retail,452319,Dixie Drugs [Defunct],,,,33.1780002,-86.2504658,,,w_1058148307,shop=general
"Wilsonville, AL",,retail,445110,Piggly Wiggly,"24716 US-31, Jemison, AL, 35085",+1 205-688-2477,,32.9591894,-86.7420219,,,w_1069806466,"shop=supermarket, brand=Piggly Wiggly"
"Wilsonville, AL",,retail,446110,Hayes Drug,"24724 US-31, Jemison, AL, 35085",,,32.9594803,-86.7421703,,,w_1069806470,shop=chemist
"Wilsonville, AL",,retail,452319,Dollar General,"8898 County Road 42 East, Jemison, AL, 35085",,https://www.dollargeneral.com/store-directory/al/jemison/8862,32.9583581,-86.742272,,,w_1069806472,"shop=variety_store, brand=Dollar General"
"Wilsonville, AL",,retail,445120,Buc-ee's,"6900 Buc-ee's Boulevard, Leeds, AL, 35094",(979) 238-6390,https://buc-ees.com,33.5444227,-86.5866156,,,w_1074628131,"shop=convenience, brand=Buc-ee's"
"Wilsonville, AL",,retail,445120,,,,,33.4889834,-86.640891,,,w_1084509379,shop=convenience
"Wilsonville, AL",,retail,445120,,,,,33.5266071,-86.6643527,,,w_1084509381,shop=convenience
"Wilsonville, AL",,retail,452319,Dollar General,"110 Cedar Street, Montevallo, AL, 35115",,https://www.dollargeneral.com/store-directory/al/montevallo/4962,33.0928915,-86.86227,,,w_1154319432,"shop=variety_store, brand=Dollar General"
"Wilsonville, AL",,retail,445120,,,,,33.139679,-86.7519431,,,w_1154360283,shop=convenience
"Wilsonville, AL",,retail,452319,Dollar Tree,,,https://www.dollartree.com/locations/al/calera/1881/,33.1483036,-86.748558,,,w_1154360324,"shop=variety_store, brand=Dollar Tree"
"Wilsonville, AL",,retail,452319,Dollar General,,,https://www.dollargeneral.com/store-directory/al/sylacauga/2332,33.1681611,-86.251296,,,w_1157063293,"shop=variety_store, brand=Dollar General"
"Wilsonville, AL",,retail,452319,Dollar General,,,https://www.dollargeneral.com/store-directory/al/sylacauga/16257,33.2219136,-86.3213124,,,w_1157123646,"shop=variety_store, brand=Dollar General"
"Wilsonville, AL",,retail,452319,Dollar General,"1010 Avalon Drive, Moody, AL, 35004",,https://www.dollargeneral.com/store-directory/al/moody/6068,33.5963243,-86.4888048,,,w_1161456924,"shop=variety_store, brand=Dollar General"
"Wilsonville, AL",,retail,452319,Dollar General,,,https://www.dollargeneral.com/store-directory/al/sylacauga/22329,33.2508963,-86.3400606,,,w_1225604557,"shop=variety_store, brand=Dollar General"
"Wilsonville, AL",,retail,452319,Dollar General,,,,33.0755627,-86.5715285,,,w_1263564433,"shop=variety_store, brand=Dollar General"
"Wilsonville, AL",,retail,446110,CVS Pharmacy,,,https://www.cvs.com/store-locator/columbiana-al-pharmacies/227-west-college-st-columbiana-al-35051/storeid=4866,33.1792015,-86.6146782,,,w_1263564449,"shop=chemist, brand=CVS Pharmacy"
"Wilsonville, AL",,retail,445120,Leeds Coosa Mart,,,,33.5465309,-86.5473349,,,w_1265668817,shop=convenience
"Wilsonville, AL",,retail,445110,Winn-Dixie,,,,33.3462256,-86.6312701,,,w_1322310227,"shop=supermarket, brand=Winn-Dixie"
"Wilsonville, AL",,retail,452319,Dollar Tree,,,https://www.dollartree.com/locations/al/sylacauga/541/,33.1729327,-86.2894706,,,w_1373113697,"shop=variety_store, brand=Dollar Tree"
