Location,Search Keyword,Segment,NAICS Code,Business Name,Address,Phone Number,Website,Latitude,Longitude,Rating,User Ratings,Place ID,Types
"Ashville, AL",wholesale,wholesale,424490,Snead Wholesale,"87490 US-278, Snead, AL 35952, USA",(855) 203-6893,http://www.sneadwholesale.com/,34.1160247,-86.3902742,4.4,126.0,ChIJ-1bmgMTyiYgRmG27iLIXbxg,"point_of_interest, establishment"
"Ashville, AL",wholesale,wholesale,424490,J & G WHOLESALE LIQUIDATORS,"2113 Center Point Pkwy, Birmingham, AL 35215, USA",(205) 747-0803,,33.6407476,-86.6832218,5.0,4.0,ChIJC-FDL8AOiYgRAYP47UnBz8U,"point_of_interest, establishment"
"Ashville, AL",wholesale,wholesale,424490,"Alabama Wholesale Stone, Inc.","1480 County Hwy 36, Oneonta, AL 35121, USA",(205) 466-3600,http://alastone.com/,34.0239118,-86.4283178,4.4,29.0,ChIJc52s2o-NiYgRfNi9vb26v8E,"store, general_contractor, point_of_interest, establishment"
"Ashville, AL",wholesale,wholesale,424490,P&k wholesalers,"55 AL-144, Ragland, AL 35131, USA",,,33.6560186,-86.2771837,3.8,19.0,ChIJFVDMN9p_iYgR-pV88cehn1U,"store, point_of_interest, establishment"
"Ashville, AL",wholesale,wholesale,424490,T & T Wholesale,"753 Sutton Bridge Rd, Rainbow City, AL 35906, USA",(256) 442-6001,,33.9668956,-86.03963519999999,5.0,4.0,ChIJu6H_m7A7iogRH9wKRPpPHtw,"point_of_interest, establishment"
"Ashville, AL",wholesale,wholesale,424490,"L & S Wholesale Dist/ Lowery Manufacturing, Inc.","145 AL-179, Boaz, AL 35957, USA",(256) 593-8842,http://www.lowerymanufacturing.com/,34.190334,-86.1881631,4.3,53.0,ChIJtwZnvRsciogREdkN0fWi10Y,"food, point_of_interest, establishment"
"Ashville, AL",wholesale,wholesale,424490,Birmingham Pistol Wholesale Inc. (BPW),"6969 Gadsden Hwy, Trussville, AL 35173, USA",(205) 655-7800,http://www.birminghampistol.com/,33.6333336,-86.5865501,4.0,335.0,ChIJOSJzRMkMiYgR2L3VkUoyCnM,"store, point_of_interest, establishment"
"Ashville, AL",wholesale,wholesale,424490,Brothers Wholesale Appliances,"210 3rd St SW, Attalla, AL 35954, USA",(256) 538-1972,http://www.facebook.com/brotherswholesaleappliances,34.016682,-86.0952834,4.3,170.0,ChIJT1q95kwjiogRSuVTSKP7JKc,"home_goods_store, store, point_of_interest, establishment"
"Ashville, AL",wholesale,wholesale,424490,Plumbers Wholesale Supply,"2100 Forrest Ave, Gadsden, AL 35904, USA",(256) 546-9257,http://plumberswholesalesupply.net/,34.0190683,-86.0330422,4.8,65.0,ChIJcWw2MGs8iogRC7NpXMtCDlE,"store, point_of_interest, establishment"
"Ashville, AL",wholesale,wholesale,424490,Alabama Wholesale Diamonds,"1820 Tin Valley Cir, Birmingham, AL 35235, USA",(205) 661-1667,http://www.alabamawholesalediamonds.com/,33.6071064,-86.6302576,4.7,127.0,ChIJBxuox68NiYgROXdsowOJkjw,"jewelry_store, store, point_of_interest, establishment"
"Ashville, AL",wholesale,wholesale,424490,Southern Wholesale Automobiles,"740 US-11, Trussville, AL 35173, USA",(205) 352-0450,http://www.southernwholesale.net/,33.7016498,-86.5198818,4.3,19.0,ChIJlwzuKBZ2iYgRd2kRJJll1FY,"car_dealer, store, point_of_interest, establishment"
"Ashville, AL",wholesale,wholesale,424490,"Trussville Wholesale Autos, LLC","8140 Gadsden Hwy, Trussville, AL 35173, USA",(205) 655-4713,http://www.trussvilleautos.com/,33.6610372,-86.54657440000001,3.7,67.0,ChIJNQ3JR4J0iYgRqLkTrhHyjZE,"car_dealer, store, point_of_interest, establishment"
"Ashville, AL",wholesale,wholesale,424490,D&D Wholesale & Buying Services,"69 Argo Pk Ln, Trussville, AL 35173, USA",(205) 467-7366,,33.697283,-86.52173049999999,,,ChIJ4_5wiEl0iYgRCM7jF6U8SnI,"point_of_interest, establishment"
"Ashville, AL",distributor,wholesale,424490,Audio Electronic Distributors Inc,"4729 Alton Ct, Birmingham, AL 35210, USA",(205) 951-2700,http://www.aedusa.net/,33.5495508,-86.6619772,5.0,2.0,ChIJ53O_z4oRiYgRx7DndX-3aCs,"point_of_interest, establishment"
"Ashville, AL",distributor,wholesale,424490,Four Seasons Distributors,"21925 AL-79, Pinson, AL 35126, USA",(205) 681-0400,,33.80521239999999,-86.67970860000001,5.0,1.0,ChIJATh1BN2miYgRZ20LUE4nTvw,"point_of_interest, establishment"
"Ashville, AL",distributor,wholesale,424490,Gadsden Industrial Distributors,"192 Wiggins St, Rainbow City, AL 35906, USA",(256) 442-1361,https://giddirect.com/,33.9796566,-86.041628,4.8,5.0,ChIJk6zWw5c7iogREaCES-tGhQ0,"store, point_of_interest, establishment"
"Ashville, AL",distributor,wholesale,424490,"Rainbow Distributor, Air and Water INC.","829 Snow St, Oxford, AL 36203, USA",(256) 831-2737,http://doitandgetit.com/,33.6153512,-85.8206847,3.0,9.0,ChIJ-erRJ22xi4gRYCVU1T5P_YY,"point_of_interest, establishment"
"Ashville, AL",distributor,wholesale,424490,Dixie Steamway Distributors,"2618 Forrest Ave, Gadsden, AL 35904, USA",(256) 547-7527,http://www.dixiesteamway.com/,34.0188143,-86.04515099999999,4.0,2.0,ChIJaeOPZmY8iogRRZChQ6cw7JI,"point_of_interest, establishment"
"Ashville, AL",distributor,wholesale,424490,Eastern Tire Distributors Inc,"1664 Center Point Pkwy, Birmingham, AL 35215, USA",(205) 854-2326,http://www.easttire.com/,33.6320645,-86.6851724,4.7,432.0,ChIJh8q3NOwOiYgRmnF3SWJ1v78,"car_repair, store, point_of_interest, establishment"
