Location,Search Keyword,Segment,NAICS Code,Business Name,Address,Phone Number,Website,Latitude,Longitude,Rating,User Ratings,Place ID,Types
"Ariton, AL",wholesale,wholesale,424410,Henderson Black Wholesale Grocery Co,"218 E Academy St, Troy, AL 36081, USA",(334) 566-0331,,31.8092171,-85.9702243,5.0,2.0,ChIJP6vsAvbsjYgRPVqpxHhzlI0,"point_of_interest, establishment"
"Ariton, AL",wholesale,wholesale,424490,Enterprise Wholesale Flooring & Lighting,"1093 Geneva Hwy, Enterprise, AL 36330, USA",(334) 347-7033,https://enterprisewholesaleflooring.com/,31.2992591,-85.85777279999999,3.8,105.0,ChIJ37czwBpskogRzJtoi_2tRXY,"general_contractor, home_goods_store, store, point_of_interest, establishment"
"Ariton, AL",wholesale,wholesale,424490,Montgomery Wholesale Floral Co,"1072 Geneva Hwy, Enterprise, AL 36330, USA",(334) 347-9481,,31.2996235,-85.8586041,5.0,4.0,ChIJ50zPrxpskogRxm1u2f-tP-M,"point_of_interest, establishment"
"Ariton, AL",distributor,wholesale,424490,Delta Distributors Llc,"424 AL-134, Daleville, AL 36322, USA",(334) 598-2155,,31.3067689,-85.7075492,5.0,1.0,ChIJK0ot8LRlkogROAuE4b5BlDQ,"point_of_interest, establishment"
"Ariton, AL",distributor,wholesale,424490,Conrad Yelvington Distributors,"305 W Wilson St, Dothan, AL 36303, USA",(334) 836-3570,,31.2426706,-85.39566599999999,5.0,2.0,ChIJl-oCULOTkogRciqO_tzs9LA,"point_of_interest, establishment"
"Ariton, AL",produce wholesaler,wholesale,424480,Regional Produce Distributors,"1432 Leona St, Dothan, AL 36303, USA",,http://www.regionalproduce.net/,31.2441286,-85.3973764,,,ChIJG0kNXUuSkogRjTxi7hHeyQY,"storage, point_of_interest, establishment"
