Location,Search Keyword,Segment,NAICS Code,Business Name,Address,Phone Number,Website,Latitude,Longitude,Rating,User Ratings,Place ID,Types
"Belgreen, AL",wholesale,wholesale,424490,Farris Wholesale,"220 Farris Dr, Tuscumbia, AL 35674, USA",(256) 381-3333,http://www.farriswholesale.com/,34.68148900000001,-87.587243,4.6,9.0,ChIJzQxspZdNfYgRDlbnVftTgi8,"point_of_interest, establishment"
"Belgreen, AL",wholesale,wholesale,424490,Image Wholesale,"410 Constitution Dr, Iuka, MS 38852, USA",(662) 424-9754,,34.8160474,-88.1970747,4.3,8.0,ChIJTZzRo8uffYgRvt8KP8RfTxY,"point_of_interest, establishment"
"Belgreen, AL",wholesale,wholesale,424490,KATE & LOLO'S WHOLESALE,"45 CR 864, Dennis, MS 38838, USA",,,34.5587071,-88.2261547,,,ChIJvX_sBtOBfYgR43ToblUuJsE,"point_of_interest, establishment"
"Belgreen, AL",wholesale,wholesale,424490,TVC Wholesale Inc,"2117 Helton Drive, Florence, AL 35630, USA",(256) 766-3744,https://www.corr-williams.com/,34.8316856,-87.6680406,3.0,2.0,ChIJGxVZ8CVIfYgRdq2IBBSif0c,"store, food, point_of_interest, establishment"
"Belgreen, AL",wholesale,wholesale,424490,JR'S Wholesale & Boutique,"412 Constitution Dr, Iuka, MS 38852, USA",(662) 660-0228,,34.8160772,-88.1972852,5.0,2.0,ChIJaSw9La2ffYgRTM2HuYfDh3s,"point_of_interest, establishment"
"Belgreen, AL",wholesale,wholesale,424490,Cass Pace Services and Wholesale Bark and Stone,"4110 S Wilson Dam Rd, Muscle Shoals, AL 35661, USA",(256) 314-0800,http://www.casspaceservices.com/,34.71946250000001,-87.6354861,4.6,44.0,ChIJPTweELlOfYgRSnefmsADB_k,"store, general_contractor, point_of_interest, establishment"
"Belgreen, AL",wholesale,wholesale,424490,EMI Wholesale Fireworks,"10 Fillmore St, Belmont, MS 38827, USA",(662) 660-4029,https://emiwholesalefireworks.com/,34.5081424,-88.2065717,5.0,1.0,ChIJV-4VoyKffYgRSg0J9hEEI2U,"store, point_of_interest, establishment"
"Belgreen, AL",wholesale,wholesale,424490,Wholesale Bark & Stone,"4709 Huntsville Rd, Florence, AL 35634, USA",(256) 768-0081,http://www.casspaceservices.com/,34.8289578,-87.61851759999999,5.0,1.0,ChIJoTGefQpKfYgRD1O9lm2vax4,"point_of_interest, establishment"
"Belgreen, AL",wholesale,wholesale,424490,Mays Wholesale Flowers,"2965 Alabama Ave, Haleyville, AL 35565, USA",(205) 486-7106,http://www.mwflowers.com/,34.232291,-87.6387124,4.4,14.0,ChIJ6fRXdRfkh4gR8tUH_hYI9qY,"florist, store, point_of_interest, establishment"
"Belgreen, AL",distributor,wholesale,424490,Southland Distributors,"209 Industrial Dr, Muscle Shoals, AL 35661, USA",(256) 314-6030,http://www.southland-distributors.com/,34.7244526,-87.6631331,4.6,16.0,ChIJ1XCyNhlPfYgRNKmKNTxFySw,"home_goods_store, point_of_interest, store, establishment"
"Belgreen, AL",distributor,wholesale,424490,Supreme Floral Distributors,"4005 Hatch Blvd, Sheffield, AL 35660, USA",(256) 381-7070,,34.7728221,-87.6713636,5.0,1.0,ChIJR9C3GMJIfYgRzFqA3NjbhG4,"point_of_interest, establishment"
"Belgreen, AL",distributor,wholesale,424490,Rainbow Authorized Distributor Sales & Service,"1300 John R St c, Muscle Shoals, AL 35661, USA",(256) 942-7172,,34.7487569,-87.665731,,,ChIJk4MFZ9tPfYgR23neYd409KI,"point_of_interest, establishment"
