Location,Search Keyword,Segment,NAICS Code,Business Name,Address,Phone Number,Website,Latitude,Longitude,Rating,User Ratings,Place ID,Types
"Almyra, AR",,retail,445120,E-Z Mart,,,,34.6924189,-91.3097312,,,n_10221430618,shop=convenience
"Almyra, AR",,retail,452210,Belk,,,,34.4803195,-91.5592472,,,n_11138927263,"shop=department_store, brand=Belk"
"Almyra, AR",,retail,445110,Foot Gigant,,,,34.4785139,-91.5522367,,,n_11138927268,shop=supermarket
"Almyra, AR",,retail,445110,Walmart Supercenter,"406 East 22nd Street, Stuttgart, AR, 72160",+1 870-673-3349,https://www.walmart.com/store/102-stuttgart-ar,34.4770476,-91.5490773,,,w_1201431066,"shop=supermarket, brand=Walmart"
"Almyra, AR",,retail,452319,Dollar General,,,https://www.dollargeneral.com/store-directory/ar/gillett/22141,34.1258226,-91.3722915,,,w_1201431093,"shop=variety_store, brand=Dollar General"
"Almyra, AR",,retail,452319,Dollar General,,,https://www.dollargeneral.com/store-directory/ar/clarendon/3557,34.6929487,-91.3050487,,,w_1201478547,"shop=variety_store, brand=Dollar General"
"Almyra, AR",,retail,445120,Lemus Store LLC,"11001 State Highway 88, Cornerstone, AR, 72004",,,34.2300803,-91.7451928,,,w_1422211977,shop=convenience
