Location,Search Keyword,Segment,NAICS Code,Business Name,Address,Phone Number,Website,Latitude,Longitude,Rating,User Ratings,Place ID,Types
"Manila, AR",,retail,445110,Sav-A-Lot,,,,35.9269615,-89.9258988,,,n_1162546751,shop=supermarket
"Manila, AR",,retail,452319,Dollar General,"517 West Keiser Avenue, Osceola, AR, 72370",,https://www.dollargeneral.com/store-directory/ar/osceola/4689,35.6972446,-89.974011,,,n_1354236220,"shop=variety_store, brand=Dollar General"
"Manila, AR",,retail,445120,Stop -N- By,,,,35.6981899,-89.98224,,,n_1354236226,shop=convenience
"Manila, AR",,retail,452210,Walmart,,,,35.6966564,-89.9840746,,,n_1354236244,"shop=department_store, brand=Walmart"
"Manila, AR",,retail,445120,Mark's,,,,35.8891079,-89.9192833,,,n_1354652499,shop=convenience
"Manila, AR",,retail,445310,,,,,35.9284901,-89.8813519,,,n_1354899340,shop=alcohol
"Manila, AR",,retail,452319,Family Dollar,,,,36.0521382,-90.488966,,,n_1371000939,"shop=variety_store, brand=Family Dollar"
"Manila, AR",,retail,445310,,"Marmaduke, 72443",,,36.1858385,-90.3833876,,,n_1570019036,"shop=alcohol, amenity=waste_basket"
"Manila, AR",,retail,445120,Quick Stop,,,,36.1862668,-90.3844772,,,n_5646073262,shop=convenience
"Manila, AR",,retail,445110,Hometown Supermarket,"132 Greenwood Avenue, Lepanto, AR, 72354",1(870) 475-2319,,35.6148556,-90.3316301,,,n_6540968646,"shop=supermarket, operator=Bill Manget"
"Manila, AR",,retail,445310,,,,,35.6134313,-90.340424,,,n_6541001047,shop=alcohol
"Manila, AR",,retail,452319,Dollar General,"329 West Broad Street, Lepanto, AR, 72354",,,35.6130517,-90.3373635,,,n_6541001467,"shop=variety_store, brand=Dollar General"
"Manila, AR",,retail,453110,The Lepanto Flower Shop,"214 Greenwood Ave, Lepanto, AR, 72354",,,35.612232,-90.3307363,,,n_6541068496,shop=florist
"Manila, AR",,retail,446120,Wigs & Beauy,,,,35.6984523,-89.9838377,,,n_8280971674,shop=beauty
"Manila, AR",,retail,453991,Osceola Tobacco Shop,,,,35.6984524,-89.9834387,,,n_8280971685,shop=tobacco
"Manila, AR",,retail,445120,,,,,35.9306717,-89.8754624,,,n_8584510350,shop=convenience
"Manila, AR",,retail,445120,,,,,35.7562798,-89.936046,,,n_8584510379,shop=convenience
"Manila, AR",,retail,452319,Dollar General,,,,35.9592384,-89.9669847,,,n_8584694694,shop=variety_store
"Manila, AR",,retail,453991,Tobacco,,,,35.9276082,-89.8820968,,,n_8586566402,shop=tobacco
"Manila, AR",,retail,452319,Dollar General,,,https://www.dollargeneral.com/store-directory/ar/blytheville/18033,35.9276587,-89.8874324,,,n_8586611019,"shop=variety_store, brand=Dollar General"
"Manila, AR",,retail,446120,Pro-Nails,,,,35.9268784,-89.8900066,,,n_8586611032,shop=beauty
"Manila, AR",,retail,445120,Hays,,,,35.9277554,-89.9006456,,,n_8586611062,shop=convenience
"Manila, AR",,retail,445110,Hays,,,,35.9356016,-89.9106234,,,n_8586611086,shop=supermarket
"Manila, AR",,retail,445110,Kroger,"400 West Moultrie Drive, Blytheville, AR, 72315",+1 870-763-7524,https://www.kroger.com/stores/grocery/ar/blytheville/blytheville/025/00465,35.9371859,-89.9069971,,,n_8586611098,"shop=supermarket, brand=Kroger"
"Manila, AR",,retail,452319,Dollar General,,,https://www.dollargeneral.com/store-directory/ar/blytheville/13718,35.9436589,-89.9107019,,,n_8586611124,"shop=variety_store, brand=Dollar General"
"Manila, AR",,retail,445120,Gary's Food Mart,,,,35.9361902,-89.9050257,,,n_8663757850,shop=convenience
"Manila, AR",,retail,453110,A-1 Flowers,,,,35.9293794,-89.9006966,,,n_8663757882,shop=florist
"Manila, AR",,retail,445120,Cherry Tree,,,,35.9297519,-89.9161354,,,n_8711096768,shop=convenience
"Manila, AR",,retail,445120,Denny Street & Fish market,,,,35.9156779,-89.8954609,,,n_8869901478,shop=convenience
"Manila, AR",,retail,445120,Noon Market,,,,35.9195314,-89.8999858,,,n_8869901796,shop=convenience
"Manila, AR",,retail,445310,Mack's Liquor,,,,35.9271141,-89.8961958,,,n_8869901834,shop=alcohol
"Manila, AR",,retail,446120,Fashion Nails,,,,35.9279166,-89.8946938,,,n_8869901841,shop=beauty
"Manila, AR",,retail,445120,Danny's Store,,,,35.9192251,-89.9274006,,,n_9046835874,shop=convenience
"Manila, AR",,retail,445110,NEA Full Spectrum,"12001 Highway 49 North, Brookland, AR, 72417",(870) 634-6412,https://www.neafullspectrummedicine.com/,35.960958,-90.5664335,,,n_9790492535,"shop=supermarket, brand=Cannabis, operator=NEA Full Spectrum"
"Manila, AR",,retail,453110,Lunsfords Flowers & Gifts,"1505 West Main Street, Blytheville State, 72315",+1-870-763-7001,https://lunsfordsflowers.com,35.9282317,-89.9224836,,,n_11070507931,shop=florist
"Manila, AR",,retail,445120,Milans Mini Mart,,,,35.9482857,-89.9608871,,,n_11273077854,shop=convenience
"Manila, AR",,retail,445310,The Party Store,"7205 US 49, Paragould, AR, 72450",870-236-7827,,35.9710439,-90.5551331,,,n_11284643189,shop=alcohol
"Manila, AR",,retail,445110,Harps,"8121 US 49;AR 1, Brookland, AR, 72417",(870) 790-2321,,35.9085656,-90.5900326,,,n_13005833548,"shop=supermarket, brand=Harps"
"Manila, AR",,retail,452319,Brookland Sales Inc.,"8159 US 49;AR 1, Brookland, AR, 72417",(870) 933-8240,,35.9114479,-90.5887585,,,n_13005836576,shop=general
"Manila, AR",,retail,452319,Dollar General,,,https://www.dollargeneral.com/store-directory/ar/marmaduke/12181,36.1841414,-90.3855701,,,w_591305007,"shop=variety_store, brand=Dollar General"
"Manila, AR",,retail,452319,Dollar General,,,https://www.dollargeneral.com/store-directory/ar/bay/12421,35.7404702,-90.5646918,,,w_744212322,"shop=variety_store, brand=Dollar General"
"Manila, AR",,retail,445110,ALDI,"2810 West Kingshighway, Paragould, AR, 72450",+1 855-955-2534,https://stores.aldi.us/ar/paragould/2810-w-kingshighway,36.0593992,-90.524571,,,w_934749515,"shop=supermarket, brand=ALDI"
"Manila, AR",,retail,445120,Quick Stop 2,,,,35.9961143,-90.3432428,,,w_1184671409,shop=convenience
"Manila, AR",,retail,445120,Mr. T's Express,"525 State Highway F, Cardwell, MO, 63829",,,35.9962881,-90.3425469,,,w_1184671413,shop=convenience
"Manila, AR",,retail,452319,Dollar General,,,https://www.dollargeneral.com/store-directory/ar/manila/4767,35.8797448,-90.1782044,,,w_1203052357,"shop=variety_store, brand=Dollar General"
"Manila, AR",,retail,452319,Dollar General,,,https://www.dollargeneral.com/store-directory/ar/paragould/12506,36.0194528,-90.5251327,,,w_1203052384,"shop=variety_store, brand=Dollar General"
"Manila, AR",,retail,445120,Kum & Go,,,https://www.kumandgo.com/store-locator?details=0349,36.0200487,-90.5265967,,,w_1203052386,"shop=convenience, brand=Kum & Go"
"Manila, AR",,retail,445110,Walmart Neighborhood Market,"2600 Linwood Drive, Paragould, AR, 72450",+1 870-586-7946,https://www.walmart.com/store/5780-paragould-ar,36.0301971,-90.523232,,,w_1203052391,"shop=supermarket, brand=Walmart"
"Manila, AR",,retail,452210,American Freight,,,,36.0440825,-90.5101593,,,w_1203052398,"shop=department_store, brand=American Freight"
"Manila, AR",,retail,452319,Dollar General,,,https://www.dollargeneral.com/store-directory/ar/paragould/19979,36.0532053,-90.4595909,,,w_1203052403,"shop=variety_store, brand=Dollar General"
"Manila, AR",,retail,452319,Dollar General,,,https://www.dollargeneral.com/store-directory/ar/paragould/764,36.054208,-90.4879292,,,w_1203052404,"shop=variety_store, brand=Dollar General"
"Manila, AR",,retail,445120,Kum & Go,,,https://www.kumandgo.com/store-locator?details=0398,36.0606836,-90.5474407,,,w_1203052409,"shop=convenience, brand=Kum & Go"
"Manila, AR",,retail,452319,Dollar General,,,,36.0602999,-90.5460771,,,w_1203052410,"shop=variety_store, brand=Dollar General"
"Manila, AR",,retail,445120,Kum & Go,,,https://www.kumandgo.com/store-locator?details=0394,36.0605066,-90.5205577,,,w_1203052420,"shop=convenience, brand=Kum & Go"
"Manila, AR",,retail,445120,Casey's General Store,,,,36.0569771,-90.5111446,,,w_1203052426,"shop=convenience, brand=Casey's General Store"
"Manila, AR",,retail,452319,Dollar General,,,https://www.dollargeneral.com/store-directory/ar/paragould/17203,36.070328,-90.5002888,,,w_1203052435,"shop=variety_store, brand=Dollar General"
"Manila, AR",,retail,452319,Dollar General,,,https://www.dollargeneral.com/store-directory/ar/paragould/12258,36.1130164,-90.5081542,,,w_1203412397,"shop=variety_store, brand=Dollar General"
"Manila, AR",,retail,452319,Dollar General,,,https://www.dollargeneral.com/store-directory/ar/gosnell/7276,35.9591951,-89.9658776,,,w_1216635949,"shop=variety_store, brand=Dollar General"
"Manila, AR",,retail,452319,Dollar General,,,https://www.dollargeneral.com/store-directory/ar/monette/11895,35.8899898,-90.3405112,,,w_1216635960,"shop=variety_store, brand=Dollar General"
"Manila, AR",,retail,452319,Dollar General,,,https://www.dollargeneral.com/store-directory/ar/blytheville/7264,35.9013749,-89.9193417,,,w_1216635963,"shop=variety_store, brand=Dollar General"
"Manila, AR",,retail,452319,Dollar General,"8144 US 49;AR 1, Brookland, AR, 72417",+15013010520,,35.9106758,-90.5872641,,,w_1253860335,"shop=variety_store, brand=Dollar General"
"Manila, AR",,retail,445120,Jordan's Kwik Stop,"8039 US 49;AR 1, Brookland, AR, 72417",+18703360701,,35.9069721,-90.5890859,,,w_1253862118,shop=convenience
"Manila, AR",,retail,445120,,,,,36.0175069,-89.8770707,,,w_1295910658,shop=convenience
"Manila, AR",,retail,445120,,,,,36.0165354,-89.8697174,,,w_1295910662,shop=convenience
"Manila, AR",,retail,445110,Dollar General Market,,,,35.942105,-90.2578769,,,w_1296098157,"shop=supermarket, brand=Dollar General Market"
"Manila, AR",,retail,445110,Walmart Supercenter,"3700 East Highway 18, Blytheville, AR, 72315",+1 870-763-0440,https://www.walmart.com/store/62-blytheville-ar,35.9310304,-89.8722971,,,w_1311905844,"shop=supermarket, brand=Walmart, operator=Walmart"
"Manila, AR",,retail,445110,Walmart Supercenter,"2720 West Keiser Avenue, Osceola, AR, 72370",+1 870-563-3251,https://www.walmart.com/store/74-osceola-ar,35.700175,-90.0124185,,,w_1311908120,"shop=supermarket, brand=Walmart, operator=Walmart"
"Manila, AR",,retail,445110,Walmart Supercenter,"2802 West Kingshighway, Paragould, AR, 72450",+1 870-236-9707,https://www.walmart.com/store/36-paragould-ar,36.0572837,-90.5228762,,,w_1311908377,"shop=supermarket, brand=Walmart, operator=Walmart"
"Manila, AR",,retail,445110,Hays Supermarket,"402 East Kings Highway, Paragould, AR",,,36.0518361,-90.4820006,,,w_1383519541,shop=supermarket
"Manila, AR",,retail,452319,Brookland Sales Inc.,"8159 US 49;AR 1, Brookland, AR, 72417",+18709338240,,35.9114393,-90.589028,,,w_1415324449,shop=general
