Location,Search Keyword,Segment,NAICS Code,Business Name,Address,Phone Number,Website,Latitude,Longitude,Rating,User Ratings,Place ID,Types
"Knoxville, AR",,retail,452319,Dollar General,"Pottsville, AR, 72858",,https://www.dollargeneral.com/store-directory/ar/pottsville/13890,35.2473569,-93.0353509,,,n_2362600515,"shop=variety_store, brand=Dollar General"
"Knoxville, AR",,retail,445120,Circle M,,,,35.447776,-93.7637559,,,n_3755358882,shop=convenience
"Knoxville, AR",,retail,452210,Walmart,"1501 East Walnut Street, Paris, AR, 72855",+1 479-963-2152,https://www.walmart.com/store/230-paris-ar,35.293369,-93.716195,,,n_5315599561,"shop=department_store, brand=Walmart, operator=Walmart"
"Knoxville, AR",,retail,453110,Clarksville Florist & Gifts,"142 W Main St, Clarksville, AR, 72830",+1 479-754-3658,http://clarksvillefloristandgifts.com,35.4714053,-93.4640491,,,n_5978182598,shop=florist
"Knoxville, AR",,retail,446110,Good Neighbor Pharmacy,"121 North Commerce Avenue, Russellville, AR, 72801",,,35.2792243,-93.1351585,,,n_6951962587,"shop=chemist, brand=Good Neighbor Pharmacy"
"Knoxville, AR",,retail,453110,Sweeden Florist,"117 North Commerce Avenue, Russellville, AR, 72801",+1-479-968-6688,https://www.sweedenflorist.com/,35.2791486,-93.1351894,,,n_8070417412,"shop=florist, operator=Todd Sweeden"
"Knoxville, AR",,retail,453991,Tobacco Town,,,,35.2815342,-93.1329126,,,n_8398645546,shop=tobacco
"Knoxville, AR",,retail,446120,Natural Nails,"113 East Parkway Drive, Russellville, AR, 72801",,,35.2815342,-93.132955,,,n_8398645548,shop=beauty
"Knoxville, AR",,retail,445110,Dollar General Market,"8898 Market Street, Dover, AR, 72837",,https://www.dollargeneral.com/store-directory/ar/dover/4252,35.3908874,-93.1108596,,,n_9063077826,"shop=supermarket, brand=Dollar General Market"
"Knoxville, AR",,retail,446120,DaVi Nails,,,,35.2805772,-93.1057332,,,n_9163161375,"shop=beauty, brand=DaVi Nails"
"Knoxville, AR",,retail,446120,The Nail Room,"5395 West Ash Street, Pottsville, AR, 72858",,,35.2514259,-93.0495498,,,n_9501316635,shop=beauty
"Knoxville, AR",,retail,446120,A Perfect Image Salon and Boutique,"Russellville, AR",4799683880,https://www.aperfectimage.org/,35.2807869,-93.1277503,,,n_11277180917,shop=beauty
"Knoxville, AR",,retail,453991,Tobacco Outlet,,,,35.4657083,-93.480184,,,n_12006714051,shop=tobacco
"Knoxville, AR",,retail,446120,Beauty Zone,"613 North Arkansas Avenue, Russellville, AR, 72801",,,35.2842659,-93.1342258,,,n_12149686079,shop=beauty
"Knoxville, AR",,retail,446120,Lanea Beauty,"607 North Arkansas Avenue, Russellville, AR, 72801",,,35.2842663,-93.1337807,,,n_12149686081,shop=beauty
"Knoxville, AR",,retail,446120,En Focus Salon,"1010 South Boston Avenue, Russellville, AR, 72801",,,35.2689439,-93.1332948,,,n_12156084568,shop=beauty
"Knoxville, AR",,retail,446120,Golden Salon,"1610 South Arkansas Avenue, Russellville, AR, 72801",,,35.2633116,-93.1357223,,,n_12156167392,shop=beauty
"Knoxville, AR",,retail,445110,CV's Family Foods,,,,35.291488,-93.7202134,,,w_125090229,shop=supermarket
"Knoxville, AR",,retail,445120,Flying J,,+1-479-890-6161,,35.2832419,-93.0899963,,,w_230489756,shop=convenience
"Knoxville, AR",,retail,445110,Walmart Supercenter,"2409 East Main Street, Russellville, AR, 72802",+1 479-967-9777,https://www.walmart.com/store/58-russellville-ar,35.2805075,-93.1051594,,,w_480097944,"shop=supermarket, brand=Walmart, operator=Walmart"
"Knoxville, AR",,retail,445110,10 Box Cost Plus Grocery Store,"100 South Knoxville Avenue, Russellville, AR, 72801",+1-479-967-4345,,35.2777466,-93.1219585,,,w_500243741,shop=supermarket
"Knoxville, AR",,retail,446120,Palm Beach Tan,"1300 North Arkansas Avenue, Russellville, AR, 72801",+1-479-498-8267,https://palmbeachtan.com/locations/AR/Russellville-North-Arkansas-Avenue,35.2911528,-93.1330445,,,w_576874430,"shop=beauty, brand=Palm Beach Tan"
"Knoxville, AR",,retail,445110,Kroger,"1009 West Main Street, Russellville, AR, 72801",+1 479-890-5271,https://www.kroger.com/stores/grocery/ar/russellville/russellville/025/00624,35.2794497,-93.1433002,,,w_614960403,"shop=supermarket, brand=Kroger"
"Knoxville, AR",,retail,452319,Dollar General,"2610 West Main Street, Russellville, AR, 72801",,https://www.dollargeneral.com/store-directory/ar/russellville/6816,35.2865164,-93.1591705,,,w_625369717,"shop=variety_store, brand=Dollar General"
"Knoxville, AR",,retail,445110,Walmart Neighborhood Market,"2109 West Main Street, Russellville, AR, 72801",+1 479-498-9511,https://www.walmart.com/store/4128-russellville-ar,35.2826319,-93.1535105,,,w_718047048,"shop=supermarket, brand=Walmart Neighborhood Market, operator=Walmart"
"Knoxville, AR",,retail,445120,Valero,,,,35.2180472,-93.1642352,,,w_723236338,"shop=convenience, brand=Valero"
"Knoxville, AR",,retail,445110,Walmart Supercenter,"1172 North State Highway 7, Dardanelle, AR, 72834",+1 479-229-2502,https://www.walmart.com/store/296-dardanelle-ar,35.2178369,-93.1664253,,,w_723236342,"shop=supermarket, brand=Walmart, operator=Walmart"
"Knoxville, AR",,retail,445120,Citgo,"115 Union Street, Dardanelle, AR, 72834",+1-479-477-3902,,35.2232722,-93.1559853,,,w_723236399,"shop=convenience, brand=Citgo"
"Knoxville, AR",,retail,446110,Walgreens,"1100 East Main Street, Russellville, AR, 72801",,https://www.walgreens.com/locator/walgreens-1100+e+main+st-russellville-ar-72801/id=10199,35.2778899,-93.1196406,,,w_747104268,"shop=chemist, brand=Walgreens"
"Knoxville, AR",,retail,452319,Dollar General,"2410 East Main Street, Russellville, AR, 72801",,https://www.dollargeneral.com/store-directory/ar/russellville/4925,35.2777212,-93.1047626,,,w_751438390,"shop=variety_store, brand=Dollar General"
"Knoxville, AR",,retail,453991,Davis Smoke Shop,"1509 East Main Street, Russellville, AR, 72801",+1-479-968-6760,,35.2797216,-93.1158377,,,w_756409988,shop=tobacco
"Knoxville, AR",,retail,452319,Dollar General,"512 South Arkansas Avenue, Russellville, AR, 72801",,https://www.dollargeneral.com/store-directory/ar/russellville/1734,35.2735068,-93.1344045,,,w_756783601,"shop=variety_store, brand=Dollar General"
"Knoxville, AR",,retail,452319,Dollar Tree,"1108 West Main Street, Russellville, AR, 72801",+1-479-219-6007,https://www.dollartree.com/locations/ar/russellville/5808/,35.2814064,-93.14345,,,w_758184212,"shop=variety_store, brand=Dollar Tree"
"Knoxville, AR",,retail,446120,Chicks on Fleek Beauty and Boutique,"306 South Arkansas Avenue, Russellville, AR, 72801",,,35.2759871,-93.1340937,,,w_762384632,shop=beauty
"Knoxville, AR",,retail,452319,Dollar General,"Old Highway 124, Russellville, AR",,https://www.dollargeneral.com/store-directory/ar/russellville/14034,35.3003711,-93.1056195,,,w_762406677,"shop=variety_store, brand=Dollar General"
"Knoxville, AR",,retail,452319,Dollar Tree,"3051 East Main Street, Russellville, AR, 72801",+1-479-219-6295,https://www.dollartree.com/locations/ar/russellville/353/,35.2785532,-93.0977016,,,w_770706266,"shop=variety_store, brand=Dollar Tree"
"Knoxville, AR",,retail,452210,JCPenney,"3057 East Main Street, Russellville, AR, 72802",+1-479-968-2110,,35.2792204,-93.09751,,,w_770706267,"shop=department_store, brand=JCPenney"
"Knoxville, AR",,retail,452319,Family Dollar,,,,35.267139,-93.121269,,,w_786312672,"shop=variety_store, brand=Family Dollar"
"Knoxville, AR",,retail,445120,Valero,"801 North Arkansas Avenue, Russellville, AR, 72801",,,35.2857886,-93.1340144,,,w_786312698,"shop=convenience, brand=Valero"
"Knoxville, AR",,retail,445120,,"1100 North Arkansas Avenue, Russellville, AR, 72801",,,35.288891,-93.1330705,,,w_786312699,"shop=convenience, amenity=fuel"
"Knoxville, AR",,retail,452319,Dollar General,,,https://www.dollargeneral.com/store-directory/ar/danville/4312,35.0542845,-93.383841,,,w_792393034,"shop=variety_store, brand=Dollar General"
"Knoxville, AR",,retail,452319,Family Dollar,,,,35.4683568,-93.4795267,,,w_795398114,"shop=variety_store, brand=Family Dollar"
"Knoxville, AR",,retail,445120,Danville Food Mart,"501 Main Street, Danville, AR, 72833",+1-479-495-3835,,35.0564735,-93.393552,,,w_802285663,shop=convenience
"Knoxville, AR",,retail,445120,Quick Mart,"804 East 8th Street, Danville, AR, 72833",+1-479-495-2612,,35.0534138,-93.3861964,,,w_802285898,shop=convenience
"Knoxville, AR",,retail,445110,Walmart Supercenter,"230 Market Street, Clarksville, AR, 72830",+1 479-754-2046,https://www.walmart.com/store/66/clarksville-ar,35.4486889,-93.4603852,,,w_871936950,"shop=supermarket, brand=Walmart, operator=Walmart"
"Knoxville, AR",,retail,452210,Belk,"3093 East Main Street, Russellville, AR, 72802",+1-479-967-9082,https://www.belk.com/store/russellville-ar/?StoreID=359,35.2806391,-93.0946468,,,w_911632122,"shop=department_store, brand=Belk"
"Knoxville, AR",,retail,446120,Bath & Body Works,"3081 East Main Street, Russellville, AR, 72802",+1-479-964-0027,,35.2805522,-93.0959927,,,w_911632126,"shop=cosmetics, brand=Bath & Body Works"
"Knoxville, AR",,retail,446120,Mini Sky Nails,"3087 East Main Street, Russellville, AR, 72802",+1-479-967-9927,,35.2803675,-93.0959328,,,w_911632127,shop=beauty
"Knoxville, AR",,retail,452210,Ross,"3083 East Main Street, Russellville, AR, 72802",+1 479-498-6673,,35.280892,-93.0966302,,,w_911632132,"shop=department_store, brand=Ross"
"Knoxville, AR",,retail,452210,TJ Maxx,"3069 East Main Street, Russellville, AR, 72802",+1-479-890-7990,,35.2807816,-93.0973215,,,w_911632134,"shop=department_store, brand=TJ Maxx"
"Knoxville, AR",,retail,452319,Five Below,"3065 East Main Street, Russellville, AR, 72802",+1-479-244-2059,https://locations.fivebelow.com/ar/russellville/3065-east-main-street,35.2803767,-93.0974253,,,w_911632136,"shop=variety_store, brand=Five Below"
"Knoxville, AR",,retail,445120,London Corner Market,"10465 US 64, London, AR, 72847",+1-479-293-9849,,35.3311365,-93.2541122,,,w_911971342,"shop=convenience, brand=VP Racing Fuels"
"Knoxville, AR",,retail,452319,Dollar General,"10362 US 64, London, AR, 72847",+1-501-242-5395,https://www.dollargeneral.com/store-directory/ar/london/11620,35.3320225,-93.2524826,,,w_911971346,"shop=variety_store, brand=Dollar General"
"Knoxville, AR",,retail,452319,Dollar General,,,https://www.dollargeneral.com/store-directory/ar/hector/17124,35.4487617,-92.9744084,,,w_931089310,"shop=variety_store, brand=Dollar General"
"Knoxville, AR",,retail,445110,Harps,"712 East 8th Street, Danville, AR, 72833",+1-479-495-2313,,35.0528334,-93.3870623,,,w_944093481,"shop=supermarket, brand=Harps"
"Knoxville, AR",,retail,452319,Dollar General,,(501) 547-3508,https://www.dollargeneral.com/store-directory/ar/havana/17282,35.1095992,-93.5299696,,,w_944093484,"shop=variety_store, brand=Dollar General"
"Knoxville, AR",,retail,445310,New Blaine General Store,"21276 AR 22, New Blaine, AR, 72835",+1-479-938-7154,,35.2859152,-93.3891433,,,w_954034770,shop=alcohol
"Knoxville, AR",,retail,452319,Dollar General,"2910 North Arkansas Avenue, Russellville, AR, 72802",,https://www.dollargeneral.com/store-directory/ar/russellville/14625,35.3105348,-93.1373201,,,w_977574703,"shop=variety_store, brand=Dollar General"
"Knoxville, AR",,retail,452319,Family Dollar,"9231 Market Street, Dover, AR, 72837",+1-479-219-6214,,35.395067,-93.114682,,,w_979662476,"shop=variety_store, brand=Family Dollar"
"Knoxville, AR",,retail,445110,Harps,"8810 Market Street, Dover, AR, 72837",+1-479-331-0100,,35.3893422,-93.1104532,,,w_979834923,"shop=supermarket, brand=Harps"
"Knoxville, AR",,retail,445120,Phillips 66,"2215 East Main Street, Russellville, AR, 72802",,,35.278601,-93.1073765,,,w_981671935,"shop=convenience, brand=Phillips 66"
"Knoxville, AR",,retail,445120,Darrell's Hillside Market,"7206 US 64, Russellville, AR, 72802",+1-479-498-2073,,35.3219725,-93.1981715,,,w_1028271673,shop=convenience
"Knoxville, AR",,retail,445120,Valero,"209 Highway 27 North, Danville, AR, 72833",,,35.066,-93.3956305,,,w_1028667438,"shop=convenience, brand=Valero"
"Knoxville, AR",,retail,445120,Shell,"500 East Walnut Street, Paris, AR, 72855",,,35.2917085,-93.7254775,,,w_1035388172,"shop=convenience, brand=Shell"
"Knoxville, AR",,retail,453110,Cathy's Flowers & Gifts,"919 North Arkansas Avenue, Russellville, AR, 72801",,,35.287289,-93.133704,,,w_1037157885,shop=florist
"Knoxville, AR",,retail,445120,Shell,"20 Bradley Cove Road, Russellville, AR, 72802",,,35.283677,-93.0921579,,,w_1065744332,"shop=convenience, brand=Shell, operator=Fletcher Oil"
"Knoxville, AR",,retail,452319,Dollar General,"202 North 5th Street, Scranton, AR, 72863",,https://www.dollargeneral.com/store-directory/ar/scranton/17523,35.3624346,-93.5357967,,,w_1173766200,"shop=variety_store, brand=Dollar General"
"Knoxville, AR",,retail,445120,4-Way Quick Stop,"103 North 5th Street, Scranton, AR, 72863",,,35.3611056,-93.5349528,,,w_1173766212,shop=convenience
"Knoxville, AR",,retail,446120,Shades Salon Permanent Makeup & Esthetics,"114 South Commerce Avenue, Russellville, AR, 72801",+1-479-567-7366,,35.2779791,-93.1356671,,,w_1192977459,shop=beauty
"Knoxville, AR",,retail,452319,Dollar General,"12019 State Highway 7 North, Dover, AR, 72837",,https://www.dollargeneral.com/store-directory/ar/dover/23240,35.4239594,-93.1355186,,,w_1199068288,"shop=variety_store, brand=Dollar General"
"Knoxville, AR",,retail,453991,The Atomic Squid,"216 North Boston Place, Russellville, AR, 72801",+1-479-968-3337,,35.2799165,-93.1316614,,,w_1200964035,shop=tobacco
"Knoxville, AR",,retail,452319,Dollar General,"501 East Park Street, Altus, AR, 72821",,https://www.dollargeneral.com/store-directory/ar/altus/12302,35.4462342,-93.7572696,,,w_1203869198,"shop=variety_store, brand=Dollar General"
"Knoxville, AR",,retail,452319,Dollar General,,,https://www.dollargeneral.com/store-directory/ar/coal-hill/17958,35.4368124,-93.6555825,,,w_1203869199,"shop=variety_store, brand=Dollar General"
"Knoxville, AR",,retail,452319,Dollar General,,,https://www.dollargeneral.com/store-directory/ar/clarksville/21010,35.4697308,-93.4399057,,,w_1203889584,"shop=variety_store, brand=Dollar General"
"Knoxville, AR",,retail,445120,Conoco,"2704 North Arkansas Avenue, Russellville, AR, 72802",,,35.307773,-93.1381641,,,w_1204449077,"shop=convenience, brand=Conoco"
"Knoxville, AR",,retail,445120,Phillips 66,"2403 North Arkansas Avenue, Russellville, AR, 72802",,,35.3041901,-93.1384575,,,w_1204449082,"shop=convenience, brand=Phillips 66"
"Knoxville, AR",,retail,445120,Shell,,,,35.30339,-93.1381997,,,w_1204449085,"shop=convenience, brand=Shell"
"Knoxville, AR",,retail,452319,Dollar General,,,https://www.dollargeneral.com/store-directory/ar/russellville/16448,35.3347563,-93.0550503,,,w_1216188126,"shop=variety_store, brand=Dollar General"
"Knoxville, AR",,retail,452319,Dollar General,"Knoxville, AR, 72845",,https://www.dollargeneral.com/store-directory/ar/knoxville/18598,35.3835951,-93.3646771,,,w_1229505798,"shop=variety_store, brand=Dollar General"
"Knoxville, AR",,retail,452319,Dollar General,"Dardanelle, AR, 72834",,https://www.dollargeneral.com/store-directory/ar/dardanelle/18811,35.1155045,-93.1685915,,,w_1229505963,"shop=variety_store, brand=Dollar General"
"Knoxville, AR",,retail,445120,Pilot,"215 Sr 331, Russellville, AR, 72802",,,35.2806714,-93.0927555,,,w_1233318839,"shop=convenience, brand=Pilot"
"Knoxville, AR",,retail,446110,Walgreens,"300 East 8th Street, Danville, AR, 72833",+1-479-495-5444,https://www.walgreens.com/locator/walgreens-300+e+8th+st-danville-ar-72833/id=15703,35.0537655,-93.3906477,,,w_1249176642,"shop=chemist, brand=Walgreens"
"Knoxville, AR",,retail,445120,Casey's General Store,"101 East 8th Street, Danville, AR, 72833",+1-479-339-0857,,35.054757,-93.392722,,,w_1249176645,"shop=convenience, brand=Casey's General Store"
"Knoxville, AR",,retail,446120,Rustic Edge Salon,"607 Main Street, Danville, AR, 72833",+1-479-495-7311,,35.055517,-93.3934661,,,w_1249176646,shop=beauty
"Knoxville, AR",,retail,445120,Love's,"1025 South Crawford Street, Clarksville, AR, 72830",,,35.4600592,-93.4800886,,,w_1255415805,"shop=convenience, brand=Love's"
"Knoxville, AR",,retail,445110,Harps,,,,35.4662807,-93.4802994,,,w_1295743340,"shop=supermarket, brand=Harps"
"Knoxville, AR",,retail,445120,Superstop,"Clarksville, AR",,,35.4542504,-93.465517,,,w_1350033513,shop=convenience
"Knoxville, AR",,retail,445120,Superstop,"South Rogers Street, Clarksville, AR",,,35.4547494,-93.464225,,,w_1350297803,shop=convenience
"Knoxville, AR",,retail,445110,Dollar General Market,"South Rogers Street, Clarksville, AR",,,35.4586265,-93.4601783,,,w_1350388095,"shop=supermarket, brand=Dollar General Market"
"Knoxville, AR",,retail,445120,,,,,35.4633095,-93.5225283,,,w_1350557953,shop=convenience
"Knoxville, AR",,retail,445120,,"Interstate Drive, Clarksville, AR, 72830",,,35.4566872,-93.4837796,,,w_1350812375,shop=convenience
"Knoxville, AR",,retail,445120,,,,,35.1989338,-93.6342988,,,w_1417728616,shop=convenience
"Knoxville, AR",,retail,445120,Casey's General Store,"3633 Bernice Avenue, Russellville, AR, 72802",,,35.2499617,-93.1359881,,,r_13476110,"shop=convenience, brand=Casey's General Store"
