Location,Search Keyword,Segment,NAICS Code,Business Name,Address,Phone Number,Website,Latitude,Longitude,Rating,User Ratings,Place ID,Types
"West Memphis, AR",,wholesale,424490,Sam's Club,"2150 Covington Pike, Memphis, TN, 38128",+1 901-386-4004,https://www.samsclub.com/club/memphis-tn-sams-club/8292,35.1844378,-89.8942596,,,n_12086928534,"shop=wholesale, brand=Sam's Club"
"West Memphis, AR",,wholesale,424490,Sam's Club,"8480 Highway 64, Bartlett, TN, 38133",+1 901-384-9997,https://www.samsclub.com/club/bartlett-tn-sams-club/6260,35.2075214,-89.7806725,,,w_186231625,"shop=wholesale, brand=Sam's Club"
"West Memphis, AR",,wholesale,424490,Costco,"2431 North Germantown Parkway, Cordova, TN, 38016",+1 901-214-0003,https://www.costco.com/warehouse-locations/ne-memphis-cordova-tn-352.html,35.1919709,-89.7960241,,,w_188887848,"shop=wholesale, brand=Costco"
"West Memphis, AR",,wholesale,424490,Costco,"3775 Hacks Cross Road, Memphis, TN, 38125-2302",+1 901-214-0054,https://www.costco.com/warehouse-locations/se-memphis-memphis-tn-353.html,35.0457617,-89.797628,,,w_439376783,"shop=wholesale, brand=Costco, operator=Costco"
"West Memphis, AR",,wholesale,424490,Sam's Club,"7475 Winchester Road, Memphis, TN, 38125",+1 901-754-0324,https://www.samsclub.com/club/memphis-tn-sams-club/6256,35.0486232,-89.8134934,,,w_477589268,"shop=wholesale, brand=Sam's Club, operator=Walmart"
"West Memphis, AR",,wholesale,424490,Sam's Club,"465 Goodman Road East, Southaven, MS, 38671",+1 662-349-0723,https://www.samsclub.com/club/southaven-ms-sams-club/4740,34.9595943,-89.9819898,,,w_640821369,"shop=wholesale, brand=Sam's Club"
"West Memphis, AR",,wholesale,424490,Restaurant Depot,"5301 Summer Avenue, Memphis, TN, 38122",+1-901-761-1660,https://restaurantdepot.com/restaurant-depot,35.155627,-89.8826809,,,w_820437812,"shop=wholesale, wholesale=yes"
