Location,Search Keyword,Segment,NAICS Code,Business Name,Address,Phone Number,Website,Latitude,Longitude,Rating,User Ratings,Place ID,Types
"Pinetop-Lakeside, AZ",,retail,445120,Woody's Food Stores,,,,34.2531146,-110.0377698,,,n_5197258961,shop=convenience
"Pinetop-Lakeside, AZ",,retail,452319,Family Dollar,,,,34.2500335,-110.0406761,,,n_6217985475,"shop=variety_store, brand=Family Dollar"
"Pinetop-Lakeside, AZ",,retail,445120,Speedway,"25 North Main Street, Taylor, AZ, 85939",,https://www.speedway.com/locations/AZ/Taylor/310-N-MAIN,34.4693373,-110.0912871,,,n_9156718816,"shop=convenience, brand=Speedway"
"Pinetop-Lakeside, AZ",,retail,445120,Speedway,"1981 East Deuce Of Clubs, Show Low, AZ, 85901",,https://www.speedway.com/locations/AZ/Show-Low/1981-E-DEUCE-OF-CLUBS,34.2559032,-110.0210495,,,n_9156725893,"shop=convenience, brand=Speedway"
"Pinetop-Lakeside, AZ",,retail,445120,Speedway,"331 West Deuce of Clubs, Show Low, AZ, 85901",,https://www.speedway.com/locations/AZ/Show-Low/331-W-Deuce-of-Clubs,34.2481543,-110.0461538,,,n_9156728467,"shop=convenience, brand=Speedway"
"Pinetop-Lakeside, AZ",,retail,445120,Speedway,"1653 West White Mountain Boulevard, Lakeside, AZ, 85929",,https://www.speedway.com/locations/AZ/Lakeside/1653-W-White-Mountain-Blvd,34.1521038,-109.9736857,,,n_9157799749,"shop=convenience, brand=Speedway"
"Pinetop-Lakeside, AZ",,retail,445120,Speedway,"1790 South White Mountain Road, Show Low, AZ, 85901",,https://www.speedway.com/locations/AZ/Show-Low/1790-S-WHITE-MOUNTAIN-RD,34.2332401,-110.0271173,,,n_9157819603,"shop=convenience, brand=Speedway"
"Pinetop-Lakeside, AZ",,retail,445120,Snack Shack,,,,34.2596117,-110.08431,,,n_11051278683,shop=convenience
"Pinetop-Lakeside, AZ",,retail,452210,TJ Maxx,,,,34.2483201,-110.0497483,,,n_12883578296,"shop=department_store, brand=TJ Maxx"
"Pinetop-Lakeside, AZ",,retail,445110,Safeway,"20 West White Mountain Boulevard, Pinetop-Lakeside, AZ, 85935",+1 928-367-6677,https://local.safeway.com/safeway/az/pinetop-lakeside/20-w-white-mountain-blvd.html,34.1431031,-109.9543331,,,w_230763982,"shop=supermarket, brand=Safeway"
"Pinetop-Lakeside, AZ",,retail,445120,Carrizo Store,,,,34.0038189,-110.2547299,,,w_286829810,shop=convenience
"Pinetop-Lakeside, AZ",,retail,445120,Midway Store,,,,34.2719184,-109.6928756,,,w_354135483,shop=convenience
"Pinetop-Lakeside, AZ",,retail,445120,Stanford General Store,,,,34.2882449,-109.8286169,,,w_375311902,shop=convenience
"Pinetop-Lakeside, AZ",,retail,445110,Safeway,"900 West Deuce Of Clubs, Show Low, AZ, 85901",+1 928-532-5656,https://local.safeway.com/safeway/az/show-low/900-w-deuce-of-clubs.html,34.2468338,-110.0522845,,,w_382975196,"shop=supermarket, brand=Safeway"
"Pinetop-Lakeside, AZ",,retail,445120,Circle K,,,,34.1339489,-109.9497716,,,w_385628148,shop=convenience
"Pinetop-Lakeside, AZ",,retail,452319,Dollar General,,,https://www.dollargeneral.com/store-directory/az/pinetop/6987,34.1364582,-109.9514363,,,w_385628149,"shop=variety_store, brand=Dollar General"
"Pinetop-Lakeside, AZ",,retail,445110,Walmart Supercenter,5401 S White Mountain Rd,+1 928-537-3141,https://www.walmart.com/store/1230-show-low-az,34.2005945,-110.0157335,,,w_386694291,"shop=supermarket, brand=Walmart, operator=Walmart"
"Pinetop-Lakeside, AZ",,retail,445120,Circle K,,,,34.2413176,-110.0599425,,,w_387587249,shop=convenience
"Pinetop-Lakeside, AZ",,retail,445120,,,,,34.079469,-109.9041314,,,w_387843731,shop=convenience
"Pinetop-Lakeside, AZ",,retail,445120,McNary Food Store,"Pine Street, McNary, AZ, 85930",,,34.073203,-109.8545607,,,w_438929682,shop=convenience
"Pinetop-Lakeside, AZ",,retail,445120,,"2 North Chief Avenue, Whiteriver, AZ, 85941",,,33.8343029,-109.9644679,,,w_547988301,shop=convenience
"Pinetop-Lakeside, AZ",,retail,445120,H Market,"506 North Chief Avenue, Whiteriver, AZ, 85941",,,33.8382113,-109.9640258,,,w_547988302,shop=convenience
"Pinetop-Lakeside, AZ",,retail,445110,Bashas',"1001 South Chief Avenue, Whiteriver, AZ, 85941",,,33.8243257,-109.9793098,,,w_547993319,shop=supermarket
"Pinetop-Lakeside, AZ",,retail,445310,White Mountain Recreation Enterprise Liquor Store,,,,33.8134658,-109.9619776,,,w_547994104,shop=alcohol
"Pinetop-Lakeside, AZ",,retail,445120,Maverik,,,,34.2580679,-110.0174051,,,w_663676078,"shop=convenience, brand=Maverik, operator=Maverik"
"Pinetop-Lakeside, AZ",,retail,452319,Dollar General,"1701 East Deuce Of Clubs, Show Low, AZ, 85901",,https://www.dollargeneral.com/store-directory/az/show-low/10215,34.2552317,-110.0234656,,,w_663945986,"shop=variety_store, brand=Dollar General"
"Pinetop-Lakeside, AZ",,retail,445120,Circle K,"311 East Deuce Of Clubs, Show Low, AZ, 85901",,,34.251686,-110.0390092,,,w_664333854,"shop=convenience, brand=Circle K"
"Pinetop-Lakeside, AZ",,retail,445110,Dollar General,,,https://www.dollargeneral.com/store-directory/az/show-low/17515,34.2880174,-109.8295289,,,w_1052523091,"shop=supermarket, brand=Dollar General"
"Pinetop-Lakeside, AZ",,retail,445120,Maverik,"4555 West White Mountain Boulevard, Pinetop-Lakeside, AZ, 85929",,,34.1719175,-110.004401,,,w_1062474267,"shop=convenience, brand=Maverik"
"Pinetop-Lakeside, AZ",,retail,445110,Walmart Supercenter,"715 Show Low-Holbrook Highway, Taylor, AZ, 85938",+1 928-536-2543,https://www.walmart.com/store/4355-taylor-az,34.4736116,-110.0850288,,,w_1065409343,"shop=supermarket, brand=Walmart"
"Pinetop-Lakeside, AZ",,retail,445120,Circle K,,,,34.4732224,-110.0871659,,,w_1065409353,"shop=convenience, brand=Circle K"
"Pinetop-Lakeside, AZ",,retail,445110,Bashas',,,,34.4753333,-110.0883222,,,w_1065409356,"shop=supermarket, brand=Bashas'"
"Pinetop-Lakeside, AZ",,retail,452319,Dollar Tree,,,https://www.dollartree.com/locations/az/taylor/3878/,34.4749834,-110.0885336,,,w_1065409357,"shop=variety_store, brand=Dollar Tree"
