Location,Search Keyword,Segment,NAICS Code,Business Name,Address,Phone Number,Website,Latitude,Longitude,Rating,User Ratings,Place ID,Types
"Carefree, AZ",,retail,445110,Safeway,"520 West Osborn Road, Phoenix, AZ, 85013",+1 602-274-7422,https://local.safeway.com/safeway/az/phoenix/520-w-osborn-rd.html,33.4884996,-112.0815495,,,n_158170307,"shop=supermarket, brand=Safeway"
"Carefree, AZ",,retail,445110,Albertsons,"18411 North Cave Creek Road, Phoenix, AZ, 85032",+1 602-494-7388,https://local.albertsons.com/az/phoenix/18411-n-cave-creek-rd.html,33.6534775,-112.0295607,,,n_631702487,"shop=supermarket, brand=Albertsons"
"Carefree, AZ",,retail,452210,Target,"12602 North Paradise Village Parkway West, Phoenix, AZ, 85032",+1 602-953-2151,https://www.target.com/sl/paradise-valley/233,33.6003765,-111.989399,,,n_654574321,"shop=department_store, brand=Target"
"Carefree, AZ",,retail,445110,Sprouts Farmers Market,"12415 North Tatum Boulevard, Phoenix, AZ, 85032",+1 602-971-4177,https://www.sprouts.com/store/az/phoenix/paradise-valley/,33.5995046,-111.978748,,,n_706931745,"shop=supermarket, brand=Sprouts Farmers Market"
"Carefree, AZ",,retail,445110,Safeway,"3132 East Camelback Road, Phoenix, AZ, 85016",+1 602-955-6455,https://local.safeway.com/safeway/az/phoenix/3132-e-camelback-rd.html,33.51122,-112.0147691,,,n_903327798,"shop=supermarket, brand=Safeway"
"Carefree, AZ",,retail,446120,Ulta Beauty,"9019 East Talking Stick Way, Scottsdale, AZ, 85250",+1 480-905-1099,https://www.ulta.com/stores/scottsdale-az-33,33.5375487,-111.8876565,,,n_1070143659,"shop=cosmetics, brand=Ulta Beauty"
"Carefree, AZ",,retail,445110,Albertsons,"6965 North Hayden Road, Scottsdale, AZ, 85250",+1 480-991-9707,https://local.albertsons.com/az/scottsdale/6965-n-hayden-rd.html,33.5375138,-111.906255,,,n_1079350210,"shop=supermarket, brand=Albertsons"
"Carefree, AZ",,retail,452319,Dollar Tree,"3131 East Thunderbird Road, Phoenix, AZ, 85032",+1-602-613-2603,https://locations.dollartree.com/az/phoenix/3131-e-thunderbird-rd,33.6098352,-112.014665,,,n_1140259220,"shop=variety_store, brand=Dollar Tree"
"Carefree, AZ",,retail,452210,JCPenney,"7750 West Arrowhead Towne Center;West Arrowhead Town Ctr, Glendale, AZ, 85308",,,33.6414553,-112.2267238,,,n_1355987216,"shop=department_store, brand=JCPenney, operator=jcpenny"
"Carefree, AZ",,retail,452210,Dillard's,"7800 West Arrowhead Town Ctr, Glendale, AZ, 85308",+1 623-979-1128,https://www.dillards.com/stores/arizona/arrowhead-towne-center-glendale/0907,33.6419971,-112.2279837,,,n_1355987223,"shop=department_store, brand=Dillard's"
"Carefree, AZ",,retail,452210,Macy's,"7600 West Arrowhead Towne Center;West Arrowhead Town Ctr, Glendale, AZ, 85308",,https://www.macys.com/stores/az/glendale/arrowhead-towne-center_452.html,33.6419238,-112.222811,,,n_1355987224,"shop=department_store, brand=Macy's"
"Carefree, AZ",,retail,445110,Trader Joe's,"6202 North Scottsdale Road, Paradise Valley, AZ, 85253",+1 480-948-9886,https://www.traderjoes.com,33.5290131,-111.927455,,,n_1592989381,"shop=supermarket, brand=Trader Joe's"
"Carefree, AZ",,retail,445110,Fry's Marketplace,"3246 East Bell Road, Phoenix, AZ, 85032",+1 602-765-4633,https://www.frysfood.com/stores/grocery/az/phoenix/32nd-st-bell-rd/660/00618,33.6418104,-112.01108,,,n_1680973812,"shop=supermarket, brand=Fry's Marketplace"
"Carefree, AZ",,retail,445120,7-Eleven,,,,33.6401882,-112.0045374,,,n_1680973983,"shop=convenience, brand=7-Eleven"
"Carefree, AZ",,retail,445110,Fry's Food and Drug,"4505 East Thomas Road, Phoenix, AZ, 85018",+1 602-952-1491,https://www.frysfood.com/stores/grocery/az/phoenix/44th-st-thomas/660/00135,33.4791949,-111.984154,,,n_1686021865,"shop=supermarket, brand=Fry's Food and Drug"
"Carefree, AZ",,retail,445110,Safeway,"3655 West Anthem Way, Anthem, AZ, 85086",+1 623-745-3800,https://local.safeway.com/safeway/az/anthem/3655-w-anthem-way.html,33.865149,-112.138994,,,n_1707643304,"shop=supermarket, brand=Safeway"
"Carefree, AZ",,retail,445120,Circle K,,,,33.6245842,-112.201957,,,n_1798832871,"shop=convenience, brand=Circle K"
"Carefree, AZ",,retail,445120,Circle K,"620 East Carefree Highway, Phoenix, AZ, 85085",,,33.7998279,-112.0663068,,,n_2011584847,"shop=convenience, brand=Circle K"
"Carefree, AZ",,retail,445120,4 Son's Chevron,,,,33.5820634,-112.0134726,,,n_2130147115,"shop=convenience, operator=4 Son's Chevron"
"Carefree, AZ",,retail,445120,DJ's Convenience Store,,,,33.4969879,-112.064765,,,n_2158282323,shop=convenience
"Carefree, AZ",,retail,445110,Bashas',,,,33.5834965,-112.0117397,,,n_2181863598,"shop=supermarket, brand=Bashas'"
"Carefree, AZ",,retail,452210,American Freight,,+1-602-482-0950,,33.5956609,-112.012463,,,n_2181863608,"shop=department_store, brand=American Freight"
"Carefree, AZ",,retail,452210,TJ Maxx,"4511 East Cactus Road, Phoenix, AZ, 85032",+1-602-953-2970,,33.5985706,-111.9865212,,,n_2181863614,"shop=department_store, brand=TJ Maxx"
"Carefree, AZ",,retail,445110,Sprouts Farmers Market,"1625 East Glendale Avenue, Phoenix, AZ, 85020",+1 602-385-2150,https://www.sprouts.com/store/az/phoenix/phoenix-glendale-ave/,33.5376913,-112.046188,,,n_2182234608,"shop=supermarket, brand=Sprouts Farmers Market"
"Carefree, AZ",,retail,445120,Biltmore Chevron,,,,33.538698,-112.0471078,,,n_2182234613,shop=convenience
"Carefree, AZ",,retail,445120,Camelback Chevron,"701 East Camelback Road, Phoenix, AZ, 85014",,,33.5088395,-112.064629,,,n_2185650593,shop=convenience
"Carefree, AZ",,retail,445120,,"7949 East Thomas Road, Scottsdale, AZ, 85251",,,33.4799357,-111.909383,,,n_2206162533,shop=convenience
"Carefree, AZ",,retail,445120,Pinnacle Peak General Store,,,https://www.pinnaclepeakgeneralstore.com/,33.6979985,-111.8929573,,,n_2207550120,shop=convenience
"Carefree, AZ",,retail,445110,Bashas',"5555 North 7th Street, Phoenix, AZ, 85014",+1-602-222-1820,https://bashas.com/,33.5176383,-112.0634778,,,n_2315133795,"shop=supermarket, brand=Bashas'"
"Carefree, AZ",,retail,445120,fastmarket,"719 East Thunderbird Road, Phoenix, AZ, 85022",,,33.6070868,-112.0644349,,,n_2321311627,shop=convenience
"Carefree, AZ",,retail,445110,Ranch Market,"West Glendale Avenue, Phoenix, AZ, 85017",,,33.5375834,-112.1329704,,,n_2324983396,shop=supermarket
"Carefree, AZ",,retail,445110,Fry's Food and Drug,"4329 West Northern Avenue, Glendale, AZ, 85301",+1 623-931-3739,https://www.frysfood.com/stores/grocery/az/glendale/43rd-northern/660/00136,33.5523126,-112.1530588,,,n_2326123639,"shop=supermarket, brand=Fry's Food and Drug"
"Carefree, AZ",,retail,445120,Carniceria El Camino,,,,33.5390943,-112.1770823,,,n_2350277240,shop=convenience
"Carefree, AZ",,retail,445210,El Rancho,,,,33.5711035,-112.0805649,,,n_2458567936,shop=butcher
"Carefree, AZ",,retail,445120,Happy Market,,,,33.5308596,-112.159751,,,n_2460755581,shop=convenience
"Carefree, AZ",,retail,445120,Fast Market,"20205 North Cave Creek Road, Phoenix, AZ, 85024",,,33.6699542,-112.0302378,,,n_2488946293,shop=convenience
"Carefree, AZ",,retail,453110,Acacia Flowers,,,,33.5972603,-112.0137043,,,n_2489922042,shop=florist
"Carefree, AZ",,retail,445120,Fast Market,"5905 West Cactus Road, Glendale, AZ, 85304",,,33.5959794,-112.1865463,,,n_2491828113,shop=convenience
"Carefree, AZ",,retail,445120,,"5835 North 27th Avenue, Phoenix, AZ, 85017",,,33.5237001,-112.116419,,,n_2572020949,shop=convenience
"Carefree, AZ",,retail,445120,,,,,33.666932,-112.1684306,,,n_2605749613,shop=convenience
"Carefree, AZ",,retail,445120,,"West Bethany Home Road, Phoenix",,,33.5235634,-112.151026,,,n_2605800048,shop=convenience
"Carefree, AZ",,retail,445120,,,,,33.6389642,-112.1535066,,,n_2610747073,shop=convenience
"Carefree, AZ",,retail,445120,,"3502 West Dunlap Avenue, Phoenix, AZ, 85051",,,33.567962,-112.1347109,,,n_2613469849,shop=convenience
"Carefree, AZ",,retail,445110,Fry's Food and Drug,,,,33.6391116,-112.064301,,,n_2699343661,"shop=supermarket, brand=Fry's Food and Drug"
"Carefree, AZ",,retail,452319,Tropic Zone,"820 East Greenway Parkway, Phoenix, AZ, 85022",,,33.6380404,-112.062989,,,n_2699349687,shop=variety_store
"Carefree, AZ",,retail,453991,Herb n' Legend,"830 East Greenway Parkway, Phoenix, AZ, 85022",,,33.6380945,-112.062777,,,n_2699350480,shop=tobacco
"Carefree, AZ",,retail,445120,Express Food Mart,"6445 North 51st Avenue, Glendale, AZ, 85301",,,33.530655,-112.1682896,,,n_2747539764,shop=convenience
"Carefree, AZ",,retail,445120,,"6324 East Greenway Road, Phoenix, AZ, 85254",,,33.626452,-111.943451,,,n_2755635608,shop=convenience
"Carefree, AZ",,retail,445110,Fry's Food and Drug,"4315 West Bell Road, Phoenix, AZ, 85308",+1 602-978-2590,https://www.frysfood.com/stores/grocery/az/glendale/43rd-ave-bell-rd/660/00028,33.6379412,-112.152591,,,n_2810933508,"shop=supermarket, brand=Fry's Food and Drug"
"Carefree, AZ",,retail,445120,,"10120 West Bell Road, Sun City, AZ, 85351",,,33.638643,-112.278432,,,n_2810933526,shop=convenience
"Carefree, AZ",,retail,452319,99 Cents Only Stores,"7919 East Thomas Road, Scottsdale, AZ, 85251",,https://locations.99only.com/az/scottsdale/discount-store-164.html,33.4790184,-111.9100276,,,n_2819232270,"shop=variety_store, brand=99 Cents Only Stores"
"Carefree, AZ",,retail,445120,Fry's Fuel,"7509 West Cactus Road, Peoria, AZ, 85381",,,33.595338,-112.220756,,,n_2856707981,shop=convenience
"Carefree, AZ",,retail,446120,,"3109 East Cactus Road, Phoenix, AZ, 85028",,,33.5964538,-112.0148321,,,n_2866844222,shop=beauty
"Carefree, AZ",,retail,452319,Dollar Tree,"West Glendale Avenue, Phoenix, AZ, 85051",,https://www.dollartree.com/locations/az/phoenix/2619/,33.539199,-112.1379747,,,n_2871808910,"shop=variety_store, brand=Dollar Tree"
"Carefree, AZ",,retail,445120,Circle K,,,,33.5164777,-112.1174923,,,n_2921465178,"shop=convenience, brand=Circle K"
"Carefree, AZ",,retail,445120,Circle K,,,,33.5379078,-112.0566766,,,n_2962124533,"shop=convenience, brand=Circle K"
"Carefree, AZ",,retail,445120,7-Eleven,"4511 North 24th Street, Phoenix, AZ, 85016-5201",+1 602-954-8997,https://www.7-eleven.com/locations/az/phoenix/4511-north-24th-st-13026,33.5026637,-112.0297283,,,n_3009696470,"shop=convenience, brand=7-Eleven"
"Carefree, AZ",,retail,445110,Fry's Food and Drug,"1815 West Glendale Avenue, Phoenix, AZ, 85021",+1 602-335-2273,https://www.frysfood.com/stores/grocery/az/phoenix/19th-ave-glendale/660/00623,33.5372756,-112.098317,,,n_3009696977,"shop=supermarket, brand=Fry's Food and Drug"
"Carefree, AZ",,retail,445310,Walkers Liquor,"1816 West Glendale Avenue, Phoenix, AZ, 85021",,,33.5388519,-112.098137,,,n_3040314934,shop=alcohol
"Carefree, AZ",,retail,445120,4 Son's,,,,33.8718519,-112.1515875,,,n_3055556192,shop=convenience
"Carefree, AZ",,retail,446120,Perfect Nails And Spa,"5707 West Northern Avenue, Glendale, AZ, 85301",+623-915-6989,,33.5513919,-112.1831179,,,n_3060670307,shop=beauty
"Carefree, AZ",,retail,445110,Lee Lee Oriental Supermarket,"7575 West Cactus Road, Peoria, AZ, 85381",,,33.5947986,-112.222189,,,n_3085412780,shop=supermarket
"Carefree, AZ",,retail,445110,Safeway,"3450 West Bell Road, Phoenix, AZ, 85053",+1 602-863-1431,https://local.safeway.com/safeway/az/phoenix/3450-w-bell-rd.html,33.6406864,-112.1333598,,,n_3093928259,"shop=supermarket, brand=Safeway"
"Carefree, AZ",,retail,445120,Shell,"5904 West Greenway Road, Glendale, AZ, 85306",,,33.6255303,-112.186226,,,n_3095003391,"shop=convenience, brand=Shell"
"Carefree, AZ",,retail,452319,Dollar Tree,"8913 North 19th Avenue, Phoenix, AZ, 85021",,,33.5665505,-112.0980229,,,n_3211873358,"shop=variety_store, brand=Dollar Tree"
"Carefree, AZ",,retail,446120,Shiny Nails,"8919 North 19th Avenue, Phoenix, AZ, 85021",+1-602-331-0935,,33.5667846,-112.0979998,,,n_3211892261,shop=beauty
"Carefree, AZ",,retail,445120,,,,,33.5244857,-112.1089676,,,n_3221565470,shop=convenience
"Carefree, AZ",,retail,445110,Latino Market,,,,33.4947437,-112.0909829,,,n_3233832458,shop=supermarket
"Carefree, AZ",,retail,445120,7-Eleven,"1950 East Indian School Road, Phoenix, AZ, 85016-6017",+1 602-274-1066,https://www.7-eleven.com/locations/az/phoenix/1950-e-indian-school-rd-20212,33.4951604,-112.0392615,,,n_3262896512,"shop=convenience, brand=7-Eleven"
"Carefree, AZ",,retail,446120,,,,,33.537179,-112.1691657,,,n_3269679016,shop=beauty
"Carefree, AZ",,retail,445120,Circle K,"13801 North Tatum Boulevard, Phoenix, AZ, 85032",,,33.6118426,-111.977424,,,n_3399307607,"shop=convenience, brand=Circle K"
"Carefree, AZ",,retail,452210,JCPenney,"4510 East Cactus Road, Phoenix, AZ, 85032",,,33.6018923,-111.986445,,,n_3399307613,"shop=department_store, brand=JCPenney"
"Carefree, AZ",,retail,445120,Safeway,,,,33.625655,-111.9773132,,,n_3399307618,shop=convenience
"Carefree, AZ",,retail,445120,,"1702 East Camelback Road, Phoenix, AZ, 85016",,,33.5095681,-112.045086,,,n_3656510736,shop=convenience
"Carefree, AZ",,retail,445110,Sprouts Farmers Market,"8375 West Thunderbird Road, Peoria, AZ, 85381",+1 623-334-1111,https://www.sprouts.com/store/az/peoria/peoria-thunderbird-ave/,33.6087014,-112.23921,,,n_3940870380,"shop=supermarket, brand=Sprouts Farmers Market"
"Carefree, AZ",,retail,452319,99 Cents Only Stores,"8375 West Thunderbird Road, Peoria, AZ, 85381",,https://locations.99only.com/az/peoria/discount-store-220.html,33.6086955,-112.239518,,,n_3942081463,"shop=variety_store, brand=99 Cents Only Stores"
"Carefree, AZ",,retail,446120,Nails By Andy,"10630 North 59th Avenue, Glendale, AZ, 85304",,,33.5841758,-112.1867079,,,n_3956169028,shop=beauty
"Carefree, AZ",,retail,445110,AJ's,"Phoenix, AZ, 85012",,,33.510064,-112.071899,,,n_4015696484,shop=supermarket
"Carefree, AZ",,retail,446120,Triny Beauty Spa,"6750 West Peoria Avenue, Peoria, AZ, 85345",,,33.5822948,-112.204824,,,n_4029277613,shop=beauty
"Carefree, AZ",,retail,446120,AZ Tangible Tanning,"6750 West Peoria Avenue, Peoria, AZ, 85345",+623-773-0208,,33.5824564,-112.205982,,,n_4029277616,shop=beauty
"Carefree, AZ",,retail,446120,JJ NailS,"6811 West Peoria Avenue, Peoria, AZ, 85345",+623-979-5136,,33.5805489,-112.2043798,,,n_4029278002,shop=beauty
"Carefree, AZ",,retail,446120,Celebrity Tanning,"6811 North 67th Avenue, Peoria, AZ, 85345",,,33.5802598,-112.2041106,,,n_4029278004,shop=beauty
"Carefree, AZ",,retail,452319,Dollar Tree,"6750 North 67th Avenue, Peoria, AZ, 85345",,https://www.dollartree.com/locations/az/peoria/3467/,33.5827289,-112.2038829,,,n_4029278013,"shop=variety_store, brand=Dollar Tree"
"Carefree, AZ",,retail,446120,Model Nails,"6750 North 67th Avenue;West Peoria Avenue, Peoria, AZ, 85345",,,33.5836394,-112.203771,,,n_4029278016,shop=beauty
"Carefree, AZ",,retail,453991,K Smoke Shop,"6750 West Peoria Avenue, Peoria, AZ, 85345",,,33.5824547,-112.206035,,,n_4029278023,shop=tobacco
"Carefree, AZ",,retail,452210,Ross,"10625 North 43rd Avenue, Phoenix, AZ, 85029",+1 602-843-1668,,33.5830453,-112.1502636,,,n_4111167943,"shop=department_store, brand=Ross"
"Carefree, AZ",,retail,446120,Salon Encore,"5870 West Thunderbird Road, Glendale, AZ, 85306",,,33.6129525,-112.1849478,,,n_4115546343,shop=beauty
"Carefree, AZ",,retail,446120,Splendid Nails,"5830 West Thunderbird Road, Glendale, AZ, 85306",,,33.6123897,-112.1835598,,,n_4115550989,shop=beauty
"Carefree, AZ",,retail,452319,Dollar General,"West Camelback Road, Phoenix, AZ, 85015",,https://www.dollargeneral.com/store-directory/az/phoenix/11976,33.5090415,-112.100367,,,n_4131708788,"shop=variety_store, brand=Dollar General"
"Carefree, AZ",,retail,445120,7-Eleven,"5925 North 59th Avenue, Glendale, AZ, 85302-3031",+1 623-931-0781,https://www.7-eleven.com/locations/az/glendale/5925-west-olive-ave-16623,33.5666064,-112.1866807,,,n_4192775885,"shop=convenience, brand=7-Eleven"
"Carefree, AZ",,retail,445110,Yasha From Russia,"10240 North 32nd Street, Phoenix, AZ, 85028",+1-602-347-6055,http://yashafromrussia.biz/,33.580415,-112.013317,,,n_4194666182,shop=supermarket
"Carefree, AZ",,retail,445110,Yusef's Middle Eastern Grocery and Deli,,,,33.6257146,-112.0312727,,,n_4196486501,shop=supermarket
"Carefree, AZ",,retail,446120,DaVi Nails,"6145 North 35th Avenue, Phoenix, AZ, 85017",,,33.5264271,-112.132506,,,n_4272615204,"shop=beauty, brand=DaVi Nails"
"Carefree, AZ",,retail,452319,Family Dollar,"Glendale, AZ, 85301",,,33.5232001,-112.153984,,,n_4289495866,"shop=variety_store, brand=Family Dollar"
"Carefree, AZ",,retail,445310,Cellars Fine Wine & Spirits,"10660 North 32nd Street, Phoenix, AZ, 85028",,,33.5838369,-112.0137949,,,n_4341626928,shop=alcohol
"Carefree, AZ",,retail,445310,The Soda Shop,,,,33.5958959,-112.1346351,,,n_4351237986,shop=beverages
"Carefree, AZ",,retail,445120,Circle K,"9618 North Saguaro Boulevard, Fountain Hills, AZ, 85268",+14808378348,,33.5739393,-111.714125,,,n_4438369517,"shop=convenience, brand=Circle K"
"Carefree, AZ",,retail,445110,EL Super,,,,33.4815664,-112.0150678,,,n_4452509037,shop=supermarket
"Carefree, AZ",,retail,445120,,"6930 East Thomas Road, Scottsdale, AZ, 85251",,,33.4807842,-111.930929,,,n_4455885507,shop=convenience
"Carefree, AZ",,retail,446120,Kelly D Nails & Spa,"6135 West Bethany Home Road, Phoenix, AZ, 85017",,,33.5256098,-112.130429,,,n_4507505196,shop=beauty
"Carefree, AZ",,retail,452210,Stagecoach Village,East Cave Creek Road,,,33.8301357,-111.9287275,,,n_4517227091,shop=department_store
"Carefree, AZ",,retail,446120,Luxury Nail Bar,"8278 West Lake Pleasant Parkway, Peoria, AZ, 85382",+1-623-566-4882,http://luxurynailbar.net,33.670385,-112.2383581,,,n_4539487973,"shop=beauty, operator=Ty Le"
"Carefree, AZ",,retail,445110,Fry's Food and Drug,"4724 North 20th Street, Phoenix, AZ, 85016",+1 602-263–0766,https://www.frysfood.com/stores/grocery/az/phoenix/20th-st-highland/660/00129,33.5069046,-112.041189,,,n_4581672289,"shop=supermarket, brand=Fry's Food and Drug"
"Carefree, AZ",,retail,446120,The Art of Shaving,,,,33.5034265,-111.9269632,,,n_4586165589,shop=beauty
"Carefree, AZ",,retail,452210,Ross,"1751 West Bethany Home Road, Phoenix, AZ, 85015",+1 602-544-0338,,33.5225927,-112.0978017,,,n_4784983212,"shop=department_store, brand=Ross"
"Carefree, AZ",,retail,452319,Dollar Tree,,,https://www.dollartree.com/locations/az/phoenix/3952/,33.5222662,-112.097909,,,n_4784983214,"shop=variety_store, brand=Dollar Tree"
"Carefree, AZ",,retail,445310,Winery,,,,33.4993226,-111.9277995,,,n_4840570389,shop=wine
"Carefree, AZ",,retail,446120,The Perfume Shoppe,,,,33.4996011,-111.9275586,,,n_4840570411,shop=perfumery
"Carefree, AZ",,retail,446120,Queens Nails,,,,33.50029,-111.9264021,,,n_4840570438,shop=beauty
"Carefree, AZ",,retail,446120,Ramon Bacaui,,,,33.4972085,-111.9278921,,,n_4860843142,shop=beauty
"Carefree, AZ",,retail,446120,Steven Paul,,,,33.496117,-111.9292173,,,n_4860843164,shop=beauty
"Carefree, AZ",,retail,446120,The Sparkle Bar,,,,33.4967372,-111.9290876,,,n_4860843177,shop=beauty
"Carefree, AZ",,retail,445120,Party Supplies,"16876 North Cave Creek Road, Phoenix, AZ, 85032",,,33.6392079,-112.0313119,,,n_5060450095,shop=convenience
"Carefree, AZ",,retail,452319,99 Cents Only Stores,"16880 North Cave Creek Road, Phoenix, AZ, 85022",,https://locations.99only.com/az/phoenix/discount-store-166.html,33.6391132,-112.032353,,,n_5060450096,"shop=variety_store, brand=99 Cents Only Stores"
"Carefree, AZ",,retail,452210,Target,"1625 East Camelback Road, Phoenix, AZ, 85016-3901",+1 602-603-7581,https://www.target.com/sl/phoenix-uptown-camelback/3261,33.5075955,-112.046474,,,n_5147916676,"shop=department_store, brand=Target"
"Carefree, AZ",,retail,446120,OG Beauty,,,,33.4929433,-111.9287778,,,n_5173661295,shop=beauty
"Carefree, AZ",,retail,446120,Applause!,,,,33.4923663,-111.9248282,,,n_5173662855,shop=beauty
"Carefree, AZ",,retail,446120,Brandy’s Wig Outlet,,,,33.4941551,-111.9241042,,,n_5173662894,shop=beauty
"Carefree, AZ",,retail,445310,Aridus Wine Company,"7173 East Main Street, Scottsdale, AZ, 85251",,,33.4929287,-111.9267689,,,n_5173662899,shop=wine
"Carefree, AZ",,retail,452210,JCPenney,"West Bethany Home Road, Phoenix, AZ, 85015",,,33.5224885,-112.09649,,,n_5269224921,"shop=department_store, brand=JCPenney"
"Carefree, AZ",,retail,445110,Walmart Neighborhood Market,"6550 West Happy Valley Road, Phoenix, AZ, 85310",+1 623-566-9754,https://www.walmart.com/store/4233-phoenix-az,33.713791,-112.201314,,,n_5315598089,"shop=supermarket, brand=Walmart, operator=Walmart"
"Carefree, AZ",,retail,446120,Drips Nail Bar,"7480 West Bell Road, Glendale, AZ, 85308",,,33.6398911,-112.2198206,,,n_5381781906,"shop=beauty, operator=SteveMinh LLC"
"Carefree, AZ",,retail,445120,Fry's Food Stores,,,,33.6540332,-112.0887925,,,n_5423234078,shop=convenience
"Carefree, AZ",,retail,446120,Facials by Ann,,,,33.6260869,-111.9199341,,,n_5476945171,shop=beauty
"Carefree, AZ",,retail,446120,Organic Findings,,,,33.6260489,-111.9184454,,,n_5476945176,shop=beauty
"Carefree, AZ",,retail,446191,Foods 2000 Real Investment,,,,33.6264353,-111.9195156,,,n_5476945192,shop=health_food
"Carefree, AZ",,retail,446120,Diva Nails,,,,33.5810328,-112.2006258,,,n_5517735912,shop=beauty
"Carefree, AZ",,retail,445292,Aunt Abby's Confections,,+1-480-607-6827,http://www.auntabbys.com,33.5855412,-111.927631,,,n_5595673589,shop=confectionery
"Carefree, AZ",,retail,445120,,,,,33.6116112,-111.8642845,,,n_5766938838,shop=convenience
"Carefree, AZ",,retail,452319,Dollar Tree,"2772 West Peoria Avenue, Phoenix, AZ, 85029-5129",,https://www.dollartree.com/locations/az/phoenix/3684/,33.5832213,-112.1207035,,,n_5828931852,"shop=variety_store, brand=Dollar Tree"
"Carefree, AZ",,retail,446120,Pro Nails,"3039 West Peoria Avenue, Phoenix, AZ, 85051",,,33.5812778,-112.125144,,,n_5831946126,"shop=beauty, brand=Pro Nails"
"Carefree, AZ",,retail,446120,Biagio Nail & Spa 2,"6825 North 16th Street, Phoenix, AZ, 85016",+1-602-274-6627,https://www.biagonailspa2.com/,33.5369528,-112.0471034,,,n_5850939582,shop=beauty
"Carefree, AZ",,retail,445120,,"10180 North Fort Mcdowell Road, Fort Mcdowell, AZ, 85264",,,33.5788295,-111.6778549,,,n_5855898018,shop=convenience
"Carefree, AZ",,retail,446120,Blooming Nails & Spa,"7260 West Bell Road, Glendale, AZ, 85308",623-878-5364,https://www.bloomingnailsandspa.net/,33.639448,-112.2146618,,,n_5910893876,shop=beauty
"Carefree, AZ",,retail,445110,Trader Joe's,"4821 North 20th Street, Phoenix, AZ, 85016",+1 602-912-9022,https://locations.traderjoes.com/az/phoenix/90/,33.5070981,-112.0377882,,,n_5917155515,"shop=supermarket, brand=Trader Joe's"
"Carefree, AZ",,retail,453991,Embargo Cigar Lounge,,+1-602-831-2404,http://www.EmbargoCigarLounge.com,33.5596371,-112.0649353,,,n_5996712208,shop=tobacco
"Carefree, AZ",,retail,446120,R & R Nails,"16605 East Palisades Boulevard, Fountain Hills, AZ, 85268",+14808161235,,33.6067648,-111.7217537,,,n_6010725304,shop=beauty
"Carefree, AZ",,retail,446120,Deluxe Nail & Spa,"16650 East Palisades Boulevard, Fountain Hills, AZ, 85268",+14808164036,,33.6094054,-111.7206941,,,n_6012635637,shop=beauty
"Carefree, AZ",,retail,446120,You Need Nails,"16225 East Palisades Boulevard, Fountain Hills, AZ, 85268",,,33.6104536,-111.727573,,,n_6019970896,shop=beauty
"Carefree, AZ",,retail,446191,Hi-Health,"16815 East Shea Boulevard, Fountain Hills, AZ, 85268",+14808373010,,33.5746328,-111.7194869,,,n_6034969906,shop=health_food
"Carefree, AZ",,retail,446120,European Nails & Spa,"16815 East Shea Boulevard, Fountain Hills, AZ, 85268",+14808367644,,33.5748764,-111.7197081,,,n_6034969909,shop=beauty
"Carefree, AZ",,retail,446120,Cut Throat,"7310 East Stetson Drive, Scottsdale, AZ, 85251",,,33.499699,-111.9238576,,,n_6135741486,shop=cosmetics
"Carefree, AZ",,retail,446120,Diva Nails & Lash,"6204 North Scottsdale Road, Paradise Valley, AZ, 85253",+1-480-922-5512,https://www.divanailsandlashaz.com/,33.5295821,-111.9275538,,,n_6150911985,shop=beauty
"Carefree, AZ",,retail,445110,Whole Foods Market,"4701 North 20th Street, Phoenix, AZ, 85016",+1 602-761-4750,https://www.wholefoodsmarket.com/stores/camelback,33.5063375,-112.0376785,,,n_6169469090,"shop=supermarket, brand=Whole Foods Market"
"Carefree, AZ",,retail,452210,dd's Discounts,,,,33.580046,-112.12491,,,n_6222530422,"shop=department_store, brand=dd's Discounts"
"Carefree, AZ",,retail,445110,Smart & Final Extra!,,,,33.612494,-111.976431,,,n_6249811682,"shop=supermarket, brand=Smart & Final"
"Carefree, AZ",,retail,453110,Tatum Flowers,,,,33.6113266,-111.9771578,,,n_6249811688,shop=florist
"Carefree, AZ",,retail,446120,Sunchain Tanning Paradise Valley,,,,33.6112181,-111.977074,,,n_6249811689,shop=beauty
"Carefree, AZ",,retail,446120,Lotions & Potions,"Phoenix, AZ, 85051",,,33.5792147,-112.1213008,,,n_6292724351,shop=perfumery
"Carefree, AZ",,retail,446120,The Spot Beauty,"2313 North 24th Street, Phoenix, AZ, 85008",,,33.4735116,-112.0298669,,,n_6316936351,shop=beauty
"Carefree, AZ",,retail,446120,Flash Nails,"7435 West Cactus Road, Peoria, AZ, 85381",,,33.5949102,-112.217922,,,n_6328278366,shop=beauty
"Carefree, AZ",,retail,453991,Tobacco & Gifts,"7445 West Cactus Road, Peoria, AZ, 85381",,,33.5946859,-112.218099,,,n_6328278368,shop=tobacco
"Carefree, AZ",,retail,446120,Steven Crazy Nails,"7549 West Cactus Road, Peoria, AZ, 85381",,,33.5945436,-112.221759,,,n_6328278374,shop=beauty
"Carefree, AZ",,retail,446120,Nail Supply,"7549 West Cactus Road, Peoria, AZ, 85381",,,33.5943579,-112.221484,,,n_6328278375,shop=beauty
"Carefree, AZ",,retail,446120,Beauty Bar,"7549 West Cactus Road, Peoria, AZ, 85381",,,33.5944206,-112.221611,,,n_6328278376,shop=beauty
"Carefree, AZ",,retail,453991,Smoke N Vape,"2510 West Thunderbird Road, Phoenix, AZ, 85023",+16023544995,,33.6117255,-112.1102469,,,n_6328373184,shop=tobacco
"Carefree, AZ",,retail,446120,Sophia's Nails & Spa,"2510 West Thunderbird Road, Phoenix, AZ, 85023",,,33.6112821,-112.1101483,,,n_6328373185,shop=beauty
"Carefree, AZ",,retail,446120,Pro Nails,"13875 North 83rd Avenue, Peoria, AZ, 85381",,,33.6106546,-112.2370858,,,n_6355776996,"shop=beauty, brand=Pro Nails"
"Carefree, AZ",,retail,446120,Millennium Day Spa & Salon,"7609 East Pinnacle Peak Road, Scottsdale, AZ, 85255",(480) 513-9733,http://mdssalon.com/,33.6975628,-111.9156632,,,n_6399803524,shop=beauty
"Carefree, AZ",,retail,445310,Nectar,"24870 North Lake Pleasant Parkway, Peoria, AZ, 85383",,,33.7096103,-112.272929,,,n_6484024054,shop=beverages
"Carefree, AZ",,retail,445120,,,,,33.6112003,-112.0128522,,,n_6496108690,shop=convenience
"Carefree, AZ",,retail,445120,Circle K,"4304 East Cactus Road, Phoenix, AZ, 85032",,,33.5991548,-111.98981,,,n_6501194993,"shop=convenience, brand=Circle K"
"Carefree, AZ",,retail,446120,Phoenix Nails Salon,,,,33.5808331,-112.1346408,,,n_6550658828,shop=beauty
"Carefree, AZ",,retail,446120,Jeniza Nails 2,,,,33.6186583,-111.8962167,,,n_6765225504,shop=beauty
"Carefree, AZ",,retail,446120,Palm Beach Tan,,,https://palmbeachtan.com/locations/AZ/Scottsdale-North-Northsight-Boulevard,33.6186858,-111.89644,,,n_6765225505,"shop=beauty, brand=Palm Beach Tan"
"Carefree, AZ",,retail,446120,Classy Nails Salon Spa,,,,33.579476,-111.8872256,,,n_6765227904,shop=beauty
"Carefree, AZ",,retail,445310,Liquor Vault,,,,33.5817495,-111.8806547,,,n_6765227908,shop=alcohol
"Carefree, AZ",,retail,445110,Fry's Food and Drug,"29455 North Cave Creek Road, Phoenix, AZ, 85331",+1 480-538-7130,https://www.frysfood.com/stores/grocery/az/cave-creek/tatum-cave-creek/660/00474,33.7524897,-111.990638,,,n_6791889237,"shop=supermarket, brand=Fry's Food and Drug"
"Carefree, AZ",,retail,445110,Fry's Marketplace,"2800 West Dove Valley Road, Phoenix, AZ, 85085",+1 480-994-6230,https://www.frysfood.com/stores/details/660/00694,33.7861139,-112.119492,,,n_6852526321,"shop=supermarket, brand=Fry's Food and Drug"
"Carefree, AZ",,retail,452319,Dollar Tree,,,https://www.dollartree.com/locations/az/glendale/3805/,33.6406338,-112.1356025,,,n_6917490478,"shop=variety_store, brand=Dollar Tree"
"Carefree, AZ",,retail,445310,Crown Drive Thru Beer and Wine,,,,33.5301688,-112.0566642,,,n_6950025985,shop=alcohol
"Carefree, AZ",,retail,446120,,,,,33.5806312,-112.1331278,,,n_7160194491,shop=beauty
"Carefree, AZ",,retail,445310,,"North 19th Avenue, Phoenix, AZ, 85021",,,33.5656151,-112.0991888,,,n_7174573969,shop=alcohol
"Carefree, AZ",,retail,446120,3-D Nails & Spa,,+1-602-589-7599,,33.5740312,-112.1257255,,,n_7174824929,shop=beauty
"Carefree, AZ",,retail,446120,Paradise Nails Spa 1,"10855 North Tatum Boulevard, Phoenix, AZ, 85028",,,33.5858824,-111.9768664,,,n_7257118387,shop=beauty
"Carefree, AZ",,retail,452210,Ross,"10835 North Tatum Boulevard, Phoenix, AZ, 85028",+1 480-922-7785,,33.5851763,-111.9758042,,,n_7257118390,"shop=department_store, brand=Ross"
"Carefree, AZ",,retail,453110,Desert Poppy Floral Studio,"8880 East Via Linda, Scottsdale, AZ, 85258",,,33.5697034,-111.8901875,,,n_7636234010,shop=florist
"Carefree, AZ",,retail,445120,Red Rock Springs Farmer's Market,,,,34.0482808,-112.1491126,,,n_7689295909,shop=convenience
"Carefree, AZ",,retail,445110,Safeway,"28455 North Vistancia Boulevard, Peoria, AZ, 85383",+1 623-243-9204,https://local.safeway.com/safeway/az/peoria/28455-n-vistancia-blvd.html,33.7407892,-112.3205674,,,n_7857289381,"shop=supermarket, brand=Safeway"
"Carefree, AZ",,retail,445310,BevMo!,"24650 North Lake Pleasant Parkway, Peoria, AZ, 85383",,,33.7075759,-112.274352,,,n_7857407992,"shop=alcohol, brand=BevMo!"
"Carefree, AZ",,retail,446120,Nail Boutique,"23415 North Scottsdale Road, Scottsdale, AZ, 85255",,,33.6991318,-111.923842,,,n_7990332741,shop=beauty
"Carefree, AZ",,retail,453991,Stag Tobacconist,"23535 North Scottsdale Road, Scottsdale, AZ, 85255",,,33.6998263,-111.924912,,,n_7990332769,shop=tobacco
"Carefree, AZ",,retail,446120,LunchboxWax,"23271 North Scottsdale Road, Scottsdale, AZ, 85255",,,33.6981732,-111.923135,,,n_7993516660,shop=beauty
"Carefree, AZ",,retail,446120,Ovation Nails & Spa,"23271 North Scottsdale Road, Scottsdale, AZ, 85255",,,33.6979059,-111.9234279,,,n_7993516663,shop=beauty
"Carefree, AZ",,retail,446120,Scottsdale Skin & Holistic Health,"7500 East Pinnacle Peak Road, Scottsdale, AZ, 85255",,,33.6992805,-111.91759,,,n_7993516830,shop=beauty
"Carefree, AZ",,retail,446120,Lavish Nails,"21811 North Scottsdale Road, Scottsdale, AZ, 85255",,,33.6853552,-111.924469,,,n_7996404718,shop=beauty
"Carefree, AZ",,retail,453110,Stems A Florist,"7291 East Adobe Drive, Scottsdale, AZ, 85255",,,33.6869934,-111.92365,,,n_7996404888,shop=florist
"Carefree, AZ",,retail,446120,Desert Bronze,"20831 North Scottsdale Road, Scottsdale, AZ, 85255",,,33.6762667,-111.923329,,,n_7998235498,shop=beauty
"Carefree, AZ",,retail,446120,Prestige Nails & Spa,"20731 North Scottsdale Road, Scottsdale, AZ, 85255",,,33.6749416,-111.923606,,,n_7998235558,shop=beauty
"Carefree, AZ",,retail,446120,Modern Nails & Lash,"18529 North Scottsdale Road, Scottsdale, AZ, 85255",,,33.652977,-111.92468,,,n_8000958452,shop=beauty
"Carefree, AZ",,retail,446120,Natural Nails & Lashes,,,,33.6580084,-111.932859,,,n_8001157297,shop=beauty
"Carefree, AZ",,retail,446120,Merle Norman,,,,33.6570114,-111.926048,,,n_8001157482,"shop=cosmetics, brand=Merle Norman Cosmetics"
"Carefree, AZ",,retail,446120,North Scottsdale Med Spa,,,,33.6557559,-111.9292106,,,n_8001157486,shop=beauty
"Carefree, AZ",,retail,446120,Beautif-EYE,,,,33.6559867,-111.9294247,,,n_8001157489,shop=beauty
"Carefree, AZ",,retail,446120,Grand Nails Lounge,,,,33.6538519,-111.9292631,,,n_8004518252,shop=beauty
"Carefree, AZ",,retail,445110,Caspian Food Market,"17040 North Scottsdale Road, Phoenix, AZ, 85255",,,33.6409814,-111.925813,,,n_8004736410,shop=supermarket
"Carefree, AZ",,retail,446120,Plush Nail Bar,"17025 North Scottsdale Road, Scottsdale, AZ, 85255",,,33.6404306,-111.924517,,,n_8004736413,shop=beauty
"Carefree, AZ",,retail,445110,Pure Life Veganix,"16215 North Scottsdale Road, Scottsdale, AZ, 85254",,,33.6342717,-111.923814,,,n_8005379608,shop=supermarket
"Carefree, AZ",,retail,452210,Saks Off 5th,"16219 North Scottsdale Road, Scottsdale, AZ, 85254",,,33.6338536,-111.923758,,,n_8005379611,"shop=department_store, brand=Saks Off 5th"
"Carefree, AZ",,retail,446120,Scottsdale Tanning,"16255 North Scottsdale Road, Scottsdale, AZ, 85254",,,33.6346803,-111.921043,,,n_8005379847,shop=beauty
"Carefree, AZ",,retail,446120,Allure Nails & Wax,"16255 North Scottsdale Road, Scottsdale, AZ, 85254",,,33.634861,-111.921021,,,n_8005379849,shop=beauty
"Carefree, AZ",,retail,446120,Sugar Sugar,"16255 North Scottsdale Road, Scottsdale, AZ, 85254",,,33.6351075,-111.921207,,,n_8005379852,shop=beauty
"Carefree, AZ",,retail,446120,Stellar Lash,"7077 East Bell Road, Phoenix, AZ, 85254",,,33.6380678,-111.928406,,,n_8007582915,shop=beauty
"Carefree, AZ",,retail,445110,Amerifresh,"16100 North 71st Street, Phoenix, AZ, 85254",,,33.6322757,-111.928484,,,n_8007592061,shop=supermarket
"Carefree, AZ",,retail,452210,Marshalls,,,,33.5076323,-112.0429479,,,n_8320399829,"shop=department_store, brand=Marshalls"
"Carefree, AZ",,retail,453991,,,,,33.5087588,-112.0909425,,,n_8456394135,shop=tobacco
"Carefree, AZ",,retail,445210,101 Kosher and Deli,,,,33.5598871,-112.0649608,,,n_8481406686,shop=butcher
"Carefree, AZ",,retail,445110,Imperial Market and Deli,,+1-602-285-6999,,33.5379999,-112.0635248,,,n_8487600594,shop=supermarket
"Carefree, AZ",,retail,445110,Sababa Kosher Grocery,,,,33.6395682,-112.0472639,,,n_8508721954,shop=supermarket
"Carefree, AZ",,retail,445120,,,,,33.7986984,-112.0675914,,,n_8595363570,shop=convenience
"Carefree, AZ",,retail,446120,Classic Nails and Spa,,,,33.7135584,-112.2679943,,,n_8625583704,shop=beauty
"Carefree, AZ",,retail,453991,Hecho A Mano Cigar Lounge,,,,33.7982413,-111.9308662,,,n_8893289675,shop=tobacco
"Carefree, AZ",,retail,446120,Arizona Fashion Nails,"34522 North Scottsdale Road, Scottsdale, AZ, 85266",,,33.7988188,-111.9308752,,,n_8893289702,shop=beauty
"Carefree, AZ",,retail,445210,The Meat Market,"37636 North Tom Darlington Drive, Carefree, AZ, 85377",,,33.827481,-111.9241079,,,n_8896195429,shop=butcher
"Carefree, AZ",,retail,446120,Ulta Beauty,"7665;7530 West Bell Road, Peoria;Glendale, AZ, 85382;85308",+1 623-486-5055,https://www.ulta.com/stores/peoria-az-47,33.6370688,-112.2235535,,,n_8910127087,"shop=beauty, brand=Ulta Beauty"
"Carefree, AZ",,retail,453991,Ambassador Fine Cigars,"7545 West Bell Road, Peoria, AZ, 85382",,,33.6358931,-112.221066,,,n_8910127160,shop=tobacco
"Carefree, AZ",,retail,452319,Desert Donkey,,,,33.8259833,-111.9241057,,,n_8910602177,shop=general
"Carefree, AZ",,retail,446120,Studio23 Salon Suites,"7260 West Bell Road, Glendale, AZ, 85308",,,33.6392358,-112.2146642,,,n_8910610583,shop=beauty
"Carefree, AZ",,retail,453991,Sticks Golf & Cigar Lounge,,,,33.8259369,-111.9223372,,,n_8910662799,shop=tobacco
"Carefree, AZ",,retail,452319,Dollar Tree,"8216 West Bell Road, Glendale, AZ, 85308",+15204283485,https://locations.dollartree.com/az/glendale/8216-w-bell-rd,33.6403484,-112.2320283,,,n_8910691560,"shop=variety_store, brand=Dollar Tree"
"Carefree, AZ",,retail,446120,Planet Beach,"6070 West Behrend Drive, Glendale, AZ, 85308",,,33.6666612,-112.1886664,,,n_8910738533,shop=beauty
"Carefree, AZ",,retail,453110,Cactus Flower Florist,"36889 North Tom Darlington Drive, Carefree, AZ, 85377",,,33.8206307,-111.9238394,,,n_8910849020,shop=florist
"Carefree, AZ",,retail,446120,Beauty & Bliss,"36889 North Tom Darlington Drive, Carefree, AZ, 85377",,,33.8206585,-111.9237389,,,n_8910849024,shop=beauty
"Carefree, AZ",,retail,446120,Kelly Nail & Spa,"32607 North Scottsdale Road, Scottsdale, AZ, 85266",,,33.781578,-111.9223829,,,n_8912461495,shop=beauty
"Carefree, AZ",,retail,446120,Merle Norman,"32531 North Scottsdale Road, Scottsdale, AZ, 85266",,,33.7804596,-111.9236782,,,n_8912461536,"shop=cosmetics, brand=Merle Norman Cosmetics"
"Carefree, AZ",,retail,446120,Summit Aesthetics,"32421 North Scottsdale Road, Scottsdale, AZ, 85266",,,33.7799485,-111.924738,,,n_8912461637,shop=beauty
"Carefree, AZ",,retail,446120,Bath & Body Works,"32409 North Scottsdale Road, Scottsdale, AZ, 85266",,,33.779937,-111.9235296,,,n_8912461713,"shop=cosmetics, brand=Bath & Body Works"
"Carefree, AZ",,retail,446120,Happy Feet Nails & Spa 2,,,,33.7689563,-111.9237657,,,n_8912536008,shop=beauty
"Carefree, AZ",,retail,446120,Loma Skin & Laser,,+14807474748,https://www.LomaLaser.com,33.5683725,-111.8881057,,,n_8917127866,shop=beauty
"Carefree, AZ",,retail,446120,Pure Tan,"6070 West Bell Road, Glendale, AZ, 85308",,,33.6391054,-112.189976,,,n_9008926206,shop=beauty
"Carefree, AZ",,retail,445210,Hobe Meats,,,,33.524767,-112.0479039,,,n_9012762140,shop=butcher
"Carefree, AZ",,retail,445120,The Grid,,,,33.5125912,-112.127535,,,n_9068792299,shop=convenience
"Carefree, AZ",,retail,445120,Lopes Mart,,,,33.514766,-112.1264873,,,n_9068792300,shop=convenience
"Carefree, AZ",,retail,445120,Lopes Mart,,,,33.5154643,-112.1303221,,,n_9068792301,shop=convenience
"Carefree, AZ",,retail,445120,Herd Stop,,,,33.5119897,-112.122591,,,n_9068792302,shop=convenience
"Carefree, AZ",,retail,446120,European Wax Center,,,https://locations.waxcenter.com/az/phoenix/phoenix-camelback-0016.html,33.5103546,-112.0465617,,,n_9089915147,"shop=beauty, brand=European Wax Center"
"Carefree, AZ",,retail,446110,Camelback Compounding Pharmacy,,,,33.5104952,-111.9857684,,,n_9122773856,shop=chemist
"Carefree, AZ",,retail,446120,Chic Nails,,,,33.4957618,-111.9891251,,,n_9147167859,shop=beauty
"Carefree, AZ",,retail,453991,On-Auk-Mor,,,,33.4655046,-111.8651191,,,n_9168506128,shop=tobacco
"Carefree, AZ",,retail,446120,Hayden Nails & Spa,,,,33.4815342,-111.9099004,,,n_9211386027,shop=beauty
"Carefree, AZ",,retail,446120,Celebrity Tanning,,,,33.4809885,-111.9100988,,,n_9211386031,shop=beauty
"Carefree, AZ",,retail,446120,Ken’s Nails & Spa,,,,33.4949379,-111.9797652,,,n_9273521227,shop=beauty
"Carefree, AZ",,retail,446120,Palace Nails and Spa,"8385 West Deer Valley Road, Peoria, AZ, 85382",,,33.6811421,-112.239912,,,n_9315118239,shop=beauty
"Carefree, AZ",,retail,453991,Ma Smoke Shop,"5008 West Northern Avenue, Glendale, AZ, 85301",,,33.5535319,-112.1668517,,,n_9327303863,shop=tobacco
"Carefree, AZ",,retail,445110,Bashas',"731 East Union Hills Drive, Phoenix, AZ, 85024",6026529520,https://www.bashas.com/stores/bashas-supermarket-7th-st-e-union-hills/,33.653572,-112.064102,,,n_9545208903,"shop=supermarket, brand=Bashas'"
"Carefree, AZ",,retail,445110,W Mart,,,,33.4790077,-111.9102288,,,n_9560542697,shop=supermarket
"Carefree, AZ",,retail,445120,Agave Lopes Mart,,,,33.5154105,-112.1250655,,,n_9688403732,shop=convenience
"Carefree, AZ",,retail,446120,For Nails Only,,,,33.4797232,-111.9838918,,,n_9700983431,shop=beauty
"Carefree, AZ",,retail,445110,Lams Market,"3446 West Camelback Road, Phoenix, AZ, 85017",+1-602-249-4188,http://www.lamsmarket.com/,33.510463,-112.1326416,,,n_9735996736,shop=supermarket
"Carefree, AZ",,retail,446120,Grand Mart - Hair Store,"3446 West Camelback Road, Phoenix, AZ, 85017",+1-602-544-3302,https://www.grandmarthair.com/,33.5099574,-112.1326309,,,n_9735996737,shop=beauty
"Carefree, AZ",,retail,445120,,"17027 North Cave Creek Road, Phoenix, AZ, 85032",,,33.6415588,-112.0305188,,,n_9861862513,shop=convenience
"Carefree, AZ",,retail,446120,Top Notch Nails & Spa,,,,33.6090937,-112.255789,,,n_9898769145,shop=beauty
"Carefree, AZ",,retail,445120,QuikTrip,"5850 West Greenway Road, Glendale, AZ, 85306",,,33.6254832,-112.1850818,,,n_9898769189,"shop=convenience, brand=QuikTrip"
"Carefree, AZ",,retail,446120,,"5929 West Peoria Avenue, Glendale, AZ, 85302",,,33.5814267,-112.1871593,,,n_9898771797,shop=beauty
"Carefree, AZ",,retail,446120,,"6690 West Cactus Road, Glendale, AZ, 85304",,,33.5966558,-112.2022867,,,n_9898781124,shop=beauty
"Carefree, AZ",,retail,452210,Target,"3880 North 92nd Street, Scottsdale, AZ, 85251",,,33.4932948,-111.880702,,,n_9946130721,"shop=department_store, brand=Target"
"Carefree, AZ",,retail,445120,QuikTrip,"3882 North 92nd Street, Scottsdale, AZ, 85251",,,33.494065,-111.881246,,,n_9946136597,"shop=convenience, brand=QuikTrip"
"Carefree, AZ",,retail,446120,J Anthony Salon & Spa,"20811 North Cave Creek Road, Phoenix, AZ, 85024",+1-623-434-5400,,33.6752177,-112.030479,,,n_9964997349,shop=beauty
"Carefree, AZ",,retail,445292,Lula’s Arts Sweets and More,,,,33.4951682,-112.0318643,,,n_10080945610,shop=confectionery
"Carefree, AZ",,retail,453991,Sunny Side Smoke Shop,,,,33.4951471,-112.0317447,,,n_10080945612,shop=tobacco
"Carefree, AZ",,retail,446120,Nail Expo,,,,33.4951011,-112.0316793,,,n_10080945613,shop=beauty
"Carefree, AZ",,retail,446120,Le Le Nails,,,,33.4957436,-112.0004534,,,n_10121602163,shop=beauty
"Carefree, AZ",,retail,446120,Effortless Beauty,"5820 West Peoria Avenue, Glendale, AZ, 85304",,,33.5831264,-112.1854114,,,n_10179080449,shop=beauty
"Carefree, AZ",,retail,452210,Macy's,,,https://www.macys.com/stores/az/phoenix/biltmore-fashion-park_451.html,33.5110753,-112.0293828,,,n_10210407787,"shop=department_store, brand=Macy's"
"Carefree, AZ",,retail,446120,MAC Cosmetics,,,,33.5107627,-112.0286759,,,n_10210407788,"shop=cosmetics, brand=MAC Cosmetics"
"Carefree, AZ",,retail,446120,Sephora,,,,33.623534,-111.9249617,,,n_10222555155,"shop=cosmetics, brand=Sephora"
"Carefree, AZ",,retail,446120,Bath & Body Works,,,,33.6249679,-111.9250214,,,n_10222555170,"shop=cosmetics, brand=Bath & Body Works"
"Carefree, AZ",,retail,452319,99 Cents Only Stores,,,https://locations.99only.com/az/glendale/discount-store-322.html,33.6405523,-112.1503031,,,n_10227717517,"shop=variety_store, brand=99 Cents Only Stores"
"Carefree, AZ",,retail,446120,bluemercury,,,,33.5080641,-112.0375858,,,n_10298931496,"shop=cosmetics, brand=bluemercury"
"Carefree, AZ",,retail,446120,Nail Bar,,,,33.5084719,-112.0356515,,,n_10299257817,shop=beauty
"Carefree, AZ",,retail,452210,Saks Fifth Avenue,,,,33.5112655,-112.0281716,,,n_10301571741,"shop=department_store, brand=Saks Fifth Avenue"
"Carefree, AZ",,retail,446120,Lynn's Nails & Spa,"11108 North Frank Lloyd Wright Boulevard, Scottsdale, AZ, 85259",480-661-0601,https://lynnsnails.org/,33.5865566,-111.8364765,,,n_10311813531,shop=beauty
"Carefree, AZ",,retail,445110,Fry's Food and Drug,"7628 East Indian School Road, Scottsdale, AZ, 85251",+1 480-994-0212,https://www.frysfood.com/stores/grocery/az/scottsdale/indian-school-rd-miller/660/00025,33.4957232,-111.9159622,,,n_10400932705,"shop=supermarket, brand=Fry's Food and Drug"
"Carefree, AZ",,retail,453110,Fresh Cut Romance,,,https://www.freshcutromance.com/,33.4953534,-111.986603,,,n_10550801816,shop=florist
"Carefree, AZ",,retail,446191,Lady+Wolf Market,"Scottsdale, AZ",(480) 269-5814,https://ladyandwolf.com,33.4951185,-111.9287782,,,n_10560485084,shop=health_food
"Carefree, AZ",,retail,446120,Varia Nail Bar,,,,33.49919,-111.9185054,,,n_10607032195,shop=beauty
"Carefree, AZ",,retail,446120,Sephora,,,,33.5105021,-112.0262845,,,n_10660033503,"shop=cosmetics, brand=Sephora"
"Carefree, AZ",,retail,453991,Owl Ear Cigars,,,,33.5393729,-111.8898652,,,n_10728574804,shop=tobacco
"Carefree, AZ",,retail,446120,Young Skin Arizona,,,,33.5395607,-111.8899632,,,n_10728628005,shop=beauty
"Carefree, AZ",,retail,446120,Bath & Body Works,,,,33.5401485,-111.889655,,,n_10728628008,"shop=cosmetics, brand=Bath & Body Works"
"Carefree, AZ",,retail,446120,Lavish Nail Pavillion,,,,33.5404126,-111.8883992,,,n_10728628027,shop=beauty
"Carefree, AZ",,retail,446120,Nail-ed it Salon,,,,33.5367327,-111.8893353,,,n_10728754920,shop=beauty
"Carefree, AZ",,retail,446120,Bath & Body Works,,,,33.5360676,-111.8882874,,,n_10728754929,"shop=cosmetics, brand=Bath & Body Works"
"Carefree, AZ",,retail,446120,Salon Zoya,,,,33.5529366,-111.8811364,,,n_10728802511,shop=beauty
"Carefree, AZ",,retail,445292,Sugar Drop Candy Shop,,,,33.5552616,-111.8763385,,,n_10728802632,shop=confectionery
"Carefree, AZ",,retail,446120,Lush,,,,33.5665711,-111.8876753,,,n_10731413198,"shop=cosmetics, brand=Lush"
"Carefree, AZ",,retail,446120,Beauty Gold Esthetics,,,,33.568283,-111.8882199,,,n_10731489847,shop=beauty
"Carefree, AZ",,retail,446191,nohoshot,,,,33.5683951,-111.8750179,,,n_10731797442,shop=health_food
"Carefree, AZ",,retail,446120,Bon Temps Beauty,,,,33.5701289,-111.8867742,,,n_10731797487,shop=beauty
"Carefree, AZ",,retail,453991,Smoke Central,,,,33.5699814,-111.8867226,,,n_10731797488,shop=tobacco
"Carefree, AZ",,retail,453110,Le Bouquet Florist,,,,33.5705594,-111.8865639,,,n_10731797501,shop=florist
"Carefree, AZ",,retail,446120,Trish Nail,,,,33.5706715,-111.8864109,,,n_10731797502,shop=beauty
"Carefree, AZ",,retail,446120,See The Queen,,,,33.5694065,-111.8901837,,,n_10731811566,shop=beauty
"Carefree, AZ",,retail,453991,Trend Smoke Vape & Cigars,,,,33.5697355,-111.8893627,,,n_10731811572,shop=tobacco
"Carefree, AZ",,retail,446120,First Nails & Spa,,,,33.5698629,-111.889309,,,n_10731811574,shop=beauty
"Carefree, AZ",,retail,446120,Serenity Skin Spa,,,,33.5755923,-111.8751326,,,n_10744352429,shop=beauty
"Carefree, AZ",,retail,453991,21 Degrees Cigar Lounge,,,,33.581556,-111.8790548,,,n_10744352574,shop=tobacco
"Carefree, AZ",,retail,446120,Scottsdale Hand Foot Nail Salon,,,,33.5814647,-111.8784738,,,n_10744394911,shop=beauty
"Carefree, AZ",,retail,446120,sugar sugar,,,,33.496235,-112.0208742,,,n_10744397494,shop=beauty
"Carefree, AZ",,retail,446120,Scottsdale Nail Lounge,,,,33.5804453,-111.8807087,,,n_10744406560,shop=beauty
"Carefree, AZ",,retail,446120,Skinovation,,,,33.5857301,-111.8834926,,,n_10746690570,shop=beauty
"Carefree, AZ",,retail,446120,Desert Bloom Skin Care,,,,33.584221,-111.8885804,,,n_10747445403,shop=beauty
"Carefree, AZ",,retail,445310,Phoenix Wine,,,,33.584262,-111.894431,,,n_10747476460,shop=wine
"Carefree, AZ",,retail,446120,Lacquer Nails & Spa Scottsdale,,,,33.585157,-111.8936803,,,n_10747476496,shop=beauty
"Carefree, AZ",,retail,445110,Brighton Jones,"4211 North Marshall Way, Scottsdale, AZ, 85251",480-353-2456,https://www.brightonjones.com/locations/scottsdale/,33.4971951,-111.9286468,,,n_10748007897,shop=supermarket
"Carefree, AZ",,retail,446120,Pinky Nails,"2750 West Dove Valley Road, Phoenix, AZ, 85085",,,33.7858018,-112.1186124,,,n_10748442155,shop=beauty
"Carefree, AZ",,retail,446120,RBF Skincare,,,,33.6154862,-111.9059153,,,n_10762341469,shop=beauty
"Carefree, AZ",,retail,446120,Adorn Nail Spa,,,,33.6199414,-111.8923144,,,n_10767521809,shop=beauty
"Carefree, AZ",,retail,446120,Sephora,,,,33.6194186,-111.8954933,,,n_10778951993,"shop=cosmetics, brand=Sephora"
"Carefree, AZ",,retail,453991,Scottsdale Cigars,,,,33.6239695,-111.8918115,,,n_10778967302,shop=tobacco
"Carefree, AZ",,retail,453991,Havana Leaf Smoke Vape & Cigar,,,,33.6271908,-111.8933262,,,n_10780768259,shop=tobacco
"Carefree, AZ",,retail,445110,Saffron Indian Grocery N Kitchen,,,,33.6229373,-111.8972244,,,n_10780808503,shop=supermarket
"Carefree, AZ",,retail,446120,T-Kay Nails & Spa,,,,33.6276634,-111.8916009,,,n_10780810808,shop=beauty
"Carefree, AZ",,retail,453991,Bing Bong Smoke Shop,,,,33.6216924,-111.8982075,,,n_10783507350,shop=tobacco
"Carefree, AZ",,retail,446120,Sachi Nails & Lash,,,,33.6214324,-111.8992524,,,n_10783507387,shop=beauty
"Carefree, AZ",,retail,446120,Trendy Nail Spa,,,,33.6277851,-111.8969541,,,n_10796212888,shop=beauty
"Carefree, AZ",,retail,446120,Enhanced Esthetics,,,,33.6143129,-111.9096715,,,n_10797744008,shop=beauty
"Carefree, AZ",,retail,446120,Lash Anarchist,,,,33.6156716,-111.9129892,,,n_10797753575,shop=beauty
"Carefree, AZ",,retail,453991,Cigar King,,,,33.6155738,-111.9118692,,,n_10797753580,shop=tobacco
"Carefree, AZ",,retail,446120,Omni Bioceutical Innovations,,,,33.6161294,-111.9107464,,,n_10797753584,shop=beauty
"Carefree, AZ",,retail,453110,Dei-Zinz',,,,33.6144346,-111.9111896,,,n_10798574302,shop=florist
"Carefree, AZ",,retail,446120,KC Skin Care & Airbrush Tanning,,,,33.6142499,-111.9117787,,,n_10798609816,shop=beauty
"Carefree, AZ",,retail,453110,Your Event Florist LLC,,,,33.6118307,-111.9133452,,,n_10798644672,shop=florist
"Carefree, AZ",,retail,445120,Dash Mart,,,,33.5249592,-112.109854,,,n_10817038650,shop=convenience
"Carefree, AZ",,retail,452210,Bealls,"6621 West Peoria Avenue, Glendale, AZ, 85302",+1-623-412-7658,https://stores.beallsoutlet.com/az/glendale/outlet-store-406.html,33.5803505,-112.2009154,,,n_10820825542,"shop=department_store, brand=Bealls"
"Carefree, AZ",,retail,446120,Sola Salons,,,,33.6268863,-111.8878578,,,n_10857204290,"shop=beauty, brand=Sola Salons"
"Carefree, AZ",,retail,446120,Villagio Nail Spa,,,,33.628198,-111.8890134,,,n_10857350914,shop=beauty
"Carefree, AZ",,retail,446120,Dip Nail Bar,,,,33.6198401,-111.8749639,,,n_10857351035,shop=beauty
"Carefree, AZ",,retail,446120,Luxury Paulene's Nails,,,,33.6192631,-111.8758951,,,n_10857385436,shop=beauty
"Carefree, AZ",,retail,446120,Amazing Lash Studio,,,,33.6191472,-111.8760689,,,n_10857385438,"shop=beauty, brand=Amazing Lash Studio"
"Carefree, AZ",,retail,445310,Paseo Water & Ice,,,,33.6190564,-111.876573,,,n_10857385485,shop=beverages
"Carefree, AZ",,retail,446120,Waxing The City,,,,33.6190917,-111.8770167,,,n_10857385488,shop=beauty
"Carefree, AZ",,retail,446120,Scottsdale Nails,,,,33.6215401,-111.873394,,,n_10857397698,shop=beauty
"Carefree, AZ",,retail,446120,European Wax Center,,,https://locations.waxcenter.com/az/scottsdale/scottsdale-mcdowell-mountain-0008.html,33.6212951,-111.8734709,,,n_10857397701,"shop=beauty, brand=European Wax Center"
"Carefree, AZ",,retail,446120,Bronzmopolitan Spray Tan Bar,,,,33.6300806,-111.8890697,,,n_10857400166,shop=beauty
"Carefree, AZ",,retail,446120,APUS Nails & Lashes,,,,33.6301332,-111.8879105,,,n_10857400198,shop=beauty
"Carefree, AZ",,retail,446120,Element Nail Bar,,,,33.5245188,-112.0478483,,,n_10916617258,shop=beauty
"Carefree, AZ",,retail,445210,German Sausage Company,,+1-602-840-6032,https://germansausageaz.com/,33.4949334,-111.9760466,,,n_10925362341,shop=butcher
"Carefree, AZ",,retail,446120,JFR International,,,,33.6376558,-111.8856486,,,n_10938618011,shop=beauty
"Carefree, AZ",,retail,446120,Organic Rae's Spray Tanning,,,,33.6393385,-111.8890082,,,n_10938618070,shop=beauty
"Carefree, AZ",,retail,446120,Gameela Skin,,,,33.6390168,-111.8882718,,,n_10938618074,shop=beauty
"Carefree, AZ",,retail,446120,Michele Q Permanent Makeup,,,,33.6371777,-111.882389,,,n_10948375698,shop=beauty
"Carefree, AZ",,retail,446120,BIOVEA,,,,33.6376426,-111.8839957,,,n_10948375701,shop=beauty
"Carefree, AZ",,retail,446120,Quantum Red,,,,33.6394214,-111.8833864,,,n_10948390050,shop=beauty
"Carefree, AZ",,retail,452319,Dollar Tree,"3360 North Hayden Road, Scottsdale, AZ, 85251",,,33.48668,-111.9103,,,n_10989870101,"shop=variety_store, brand=Dollar Tree"
"Carefree, AZ",,retail,445310,Craft Beer Hop Stop,"717 West Union Hills Drive, Phoenix, AZ, 85027",+1-602-993-5090,,33.6541012,-112.0837022,,,n_11005890186,"shop=alcohol, operator=Allen"
"Carefree, AZ",,retail,445310,Arcadia Premium,,,,33.4802979,-111.9604064,,,n_11026261941,shop=alcohol
"Carefree, AZ",,retail,446120,Fashion Nails & Spa,,,,33.6792212,-111.9745716,,,n_11048887411,shop=beauty
"Carefree, AZ",,retail,446120,Soap Des Jour,,,,33.6758749,-111.9723496,,,n_11048915067,shop=cosmetics
"Carefree, AZ",,retail,445292,It's Sugar,,,,33.6756609,-111.9718994,,,n_11048915073,shop=confectionery
"Carefree, AZ",,retail,446120,Sephora,,,,33.6761762,-111.973331,,,n_11048915078,"shop=cosmetics, brand=Sephora"
"Carefree, AZ",,retail,445210,Omaha Steaks,,,,33.6763391,-111.9757647,,,n_11048925150,"shop=butcher, brand=Omaha Steaks"
"Carefree, AZ",,retail,446120,European Wax Center,,,https://locations.waxcenter.com/az/phoenix/phoenix-desert-ridge-0066.html,33.6741862,-111.9757609,,,n_11048925158,"shop=beauty, brand=European Wax Center"
"Carefree, AZ",,retail,446120,The Beauty District,,,,33.6740813,-111.9753639,,,n_11048925161,shop=beauty
"Carefree, AZ",,retail,446120,Amazing Lash Studio,,,,33.6745632,-111.975225,,,n_11048925164,"shop=beauty, brand=Amazing Lash Studio"
"Carefree, AZ",,retail,446120,Sephora,,,,33.6735313,-111.9706932,,,n_11048925183,"shop=cosmetics, brand=Sephora"
"Carefree, AZ",,retail,446120,Palm Beach Tan,,,https://palmbeachtan.com/locations/AZ/Phoenix-North-Tatum-Boulevard,33.677843,-111.9789906,,,n_11050189066,"shop=beauty, brand=Palm Beach Tan"
"Carefree, AZ",,retail,446120,Debon Nails & Spa,,,,33.6777558,-111.9788035,,,n_11050189067,shop=beauty
"Carefree, AZ",,retail,446120,All About Nails & Spa,,,,33.6752647,-111.9798241,,,n_11050189085,shop=beauty
"Carefree, AZ",,retail,453110,Flowers By Jodi,,,,33.6747311,-112.021114,,,n_11050189097,shop=florist
"Carefree, AZ",,retail,445210,Block & Apron,,,,33.6758291,-112.0283566,,,n_11050257172,shop=butcher
"Carefree, AZ",,retail,446120,CBD Ophthalmic Tomey,,,,33.674244,-112.0264508,,,n_11050257192,shop=beauty
"Carefree, AZ",,retail,445110,Beirut Market,,,,33.67848,-112.0293511,,,n_11050269525,shop=supermarket
"Carefree, AZ",,retail,446120,Five Star Nails & Spa,,,,33.6758261,-112.0302758,,,n_11064072246,shop=beauty
"Carefree, AZ",,retail,453991,American Vape Cigar Smoke,,,,33.6756114,-112.030477,,,n_11064072247,shop=tobacco
"Carefree, AZ",,retail,445120,Minute Mart,,,,33.6699269,-112.0316169,,,n_11064072265,shop=convenience
"Carefree, AZ",,retail,446120,Ocean Luxury Nails & Spa,,,,33.671586,-112.0301036,,,n_11064072273,shop=beauty
"Carefree, AZ",,retail,453110,Artistic Surroundings,,,,33.676078,-112.0973108,,,n_11076241399,shop=florist
"Carefree, AZ",,retail,446120,Preety Eyebrow Threading,,,,33.4962521,-112.0206127,,,n_11077640107,shop=beauty
"Carefree, AZ",,retail,446120,Phoenix Tattoo Removal,,,,33.4649394,-111.9783201,,,n_11081152662,shop=beauty
"Carefree, AZ",,retail,445110,ALDI,"16880 North 59th Avenue, Glendale, AZ, 85306",+1 855-479-1154,https://stores.aldi.us/az/glendale/16880-n-59th-ave,33.6380125,-112.1885387,,,n_11110814305,"shop=supermarket, brand=ALDI"
"Carefree, AZ",,retail,446120,Vien Nail,"3045 West Agua Fria Freeway, Phoenix, AZ, 85027",+16238690216,https://vien-nail.edan.io,33.667678,-112.1243395,,,n_11112978441,shop=beauty
"Carefree, AZ",,retail,446120,Classy Nails & Spa,"3009 West Agua Fria Freeway, Phoenix, AZ, 85027",+16232152212,https://classynailsandspaphoenix.com,33.6666786,-112.1233096,,,n_11112978458,shop=beauty
"Carefree, AZ",,retail,452319,Dollar Tree,"2919 West Agua Fria Freeway, Phoenix, AZ, 85027",+14808082892,https://www.dollartree.com/locations/az/phoenix/7974/,33.666264,-112.1215373,,,n_11112978460,"shop=variety_store, brand=Dollar Tree"
"Carefree, AZ",,retail,446120,16th St Nails & Spa,,,,33.4937702,-112.0463053,,,n_11115409081,shop=beauty
"Carefree, AZ",,retail,445110,Sprouts Farmers Market,"4201 West Thunderbird Road, Phoenix, AZ, 85053",+1 602-960-4587,https://www.sprouts.com/store/az/phoenix/phoenix-thunderbird-rd-43rd-ave/,33.6092425,-112.1485649,,,n_11115551991,"shop=supermarket, brand=Sprouts Farmers Market"
"Carefree, AZ",,retail,445292,Great Wolf Candy Compan,,,,33.5438428,-111.8901954,,,n_11126317804,shop=confectionery
"Carefree, AZ",,retail,446191,Healthy Habit,,,,33.5250676,-112.0645738,,,n_11128848453,shop=health_food
"Carefree, AZ",,retail,446120,T&K Nails,,,,33.6696064,-112.1848128,,,n_11149070901,shop=beauty
"Carefree, AZ",,retail,445310,Arrowhead Ranch Water & Ice,,,,33.6704759,-112.1884074,,,n_11149088961,shop=beverages
"Carefree, AZ",,retail,446120,Shiny Nails & Spa,,,,33.6703592,-112.1879968,,,n_11149088963,shop=beauty
"Carefree, AZ",,retail,453991,Arizona Smokers,,,,33.6704793,-112.1878799,,,n_11149088964,shop=tobacco
"Carefree, AZ",,retail,453110,Elite Flowers & Gifts,,,,33.6704751,-112.1881066,,,n_11149088971,shop=florist
"Carefree, AZ",,retail,446120,Renewed Med Spa & Tanning,,,,33.6668444,-112.1887628,,,n_11149118618,shop=beauty
"Carefree, AZ",,retail,446120,Nail Depot & Spa,,,,33.6666816,-112.1880106,,,n_11149118626,shop=beauty
"Carefree, AZ",,retail,446120,Simplicity Laser,,,,33.6624288,-112.1877929,,,n_11149154337,shop=beauty
"Carefree, AZ",,retail,446120,Siren & Sailor Lash & Tattoo Studio,,,,33.6623117,-112.1885068,,,n_11149154358,shop=beauty
"Carefree, AZ",,retail,446120,Beauty Pigmentation,,,,33.662458,-112.1885149,,,n_11149154361,shop=beauty
"Carefree, AZ",,retail,446120,Indulge Med Spa,,,,33.6627681,-112.188234,,,n_11149154396,shop=beauty
"Carefree, AZ",,retail,446120,Glam by Ree,,,,33.6627815,-112.1875158,,,n_11149154448,shop=beauty
"Carefree, AZ",,retail,453991,Churchill's Fine Cigars,,,,33.6626484,-112.1872426,,,n_11149154451,shop=tobacco
"Carefree, AZ",,retail,446120,Aftershave Barbershop,"5126 West Peoria Avenue, Glendale, AZ, 85302",+1-623-412-0566,https://aftershavebarbershopaz.com,33.5832562,-112.1702078,,,n_11149620219,"shop=beauty, operator=owner"
"Carefree, AZ",,retail,446120,Advanced Laser Clinics,,,,33.6706997,-112.2013798,,,n_11162300034,shop=beauty
"Carefree, AZ",,retail,446120,Grand Nails Lounge,,,,33.6707534,-112.201793,,,n_11162300036,shop=beauty
"Carefree, AZ",,retail,453110,Cactus Flower Florists,,,,33.6699803,-112.2005727,,,n_11162300042,shop=florist
"Carefree, AZ",,retail,446120,European Wax Center,,,https://locations.waxcenter.com/az/glendale/glendale-arrowhead-0064.html,33.6670017,-112.2055956,,,n_11162300059,"shop=beauty, brand=European Wax Center"
"Carefree, AZ",,retail,446120,Avalon Nails,,,,33.6669358,-112.2055963,,,n_11162300060,shop=beauty
"Carefree, AZ",,retail,446120,Amazing Lash Studio,,,,33.6659905,-112.2051532,,,n_11162300087,"shop=beauty, brand=Amazing Lash Studio"
"Carefree, AZ",,retail,446120,Chloe Nails & Spa,,,,33.6657389,-112.201947,,,n_11162302295,shop=beauty
"Carefree, AZ",,retail,446120,Pinky Nails & Spa,"7507 West Rose Garden Lane, Glendale, AZ, 85308",,,33.6739617,-112.2209176,,,n_11162323092,shop=beauty
"Carefree, AZ",,retail,446120,Herbal Nails & Spa,"7510 West Aspera Boulevard, Glendale, AZ, 85308",,,33.6712565,-112.2208904,,,n_11162323147,shop=beauty
"Carefree, AZ",,retail,446120,My iNails,,,,33.6539127,-112.2336096,,,n_11180321808,shop=beauty
"Carefree, AZ",,retail,446120,Celebrity Tanning,,,,33.654281,-112.2338044,,,n_11180321834,shop=beauty
"Carefree, AZ",,retail,445110,Turmeric Express Glendale,,,,33.6542465,-112.235005,,,n_11180329038,shop=supermarket
"Carefree, AZ",,retail,445210,Lee Bone's Fine Meats,,,,33.6542195,-112.2353334,,,n_11180329040,shop=butcher
"Carefree, AZ",,retail,446120,Nail Haven,,,,33.6561137,-112.2371053,,,n_11180329117,shop=beauty
"Carefree, AZ",,retail,446120,Nail Club,,,,33.6519423,-112.2349871,,,n_11180401773,shop=beauty
"Carefree, AZ",,retail,446120,Perfect Nails & Spa,,,,33.6519696,-112.2335708,,,n_11180401775,shop=beauty
"Carefree, AZ",,retail,446120,Lavie Nails & Spa,"18255 North 83rd Avenue, Glendale, AZ, 85308",,,33.6467199,-112.2362543,,,n_11180401789,shop=beauty
"Carefree, AZ",,retail,446120,Waxing the City,"18185 North 83rd Avenue, Glendale, AZ, 85308",,,33.6458166,-112.2362578,,,n_11180401793,"shop=beauty, brand=Waxing the City"
"Carefree, AZ",,retail,446120,Bath & Body Works,"7650 West Arrowhead Town Ctr, Glendale, AZ, 85308",,,33.6414927,-112.2239547,,,n_11182195672,"shop=cosmetics, brand=Bath & Body Works"
"Carefree, AZ",,retail,446120,Sephora,"7700 West Arrowhead Town Ctr, Glendale, AZ, 85308",,,33.642022,-112.2244831,,,n_11182195673,"shop=cosmetics, brand=Sephora"
"Carefree, AZ",,retail,446120,Arrowhead Nail Mall & Spa,,,,33.6404273,-112.2297784,,,n_11182225384,shop=beauty
"Carefree, AZ",,retail,445110,Trader Joe's,"7720 West Bell Road, Glendale, AZ, 85308",+1 623-776-7414,https://locations.traderjoes.com/az/glendale/85/,33.6391331,-112.2262487,,,n_11182225401,"shop=supermarket, brand=Trader Joe's"
"Carefree, AZ",,retail,446120,Polka Dot Bikini Wax,"17235 North 75th Avenue, Glendale, AZ, 85308",,,33.6406695,-112.2182138,,,n_11182364501,shop=beauty
"Carefree, AZ",,retail,446120,Modern Beauty Lab,,,,33.6409056,-112.2140001,,,n_11182364519,shop=beauty
"Carefree, AZ",,retail,446120,Bladed Beauty,,,,33.6418964,-112.2137212,,,n_11182364530,shop=beauty
"Carefree, AZ",,retail,446120,Hello Sugar | Arrowhead,"17560 North 75th Avenue, Glendale, AZ, 85308",,,33.6444716,-112.2208736,,,n_11182367422,shop=beauty
"Carefree, AZ",,retail,446120,Fresh Squeezed Skin Care,"17570 North 75th Avenue, Glendale, AZ, 85308",,,33.6443549,-112.2216331,,,n_11182367425,shop=beauty
"Carefree, AZ",,retail,446120,Perfect Skin & Lash,"17570 North 75th Avenue, Glendale, AZ, 85308",,,33.6443548,-112.2217647,,,n_11182367426,shop=beauty
"Carefree, AZ",,retail,446120,Lish Nail Salon,"7530 West Bell Road, Glendale, AZ, 85308",,,33.6368872,-112.2241077,,,n_11182405030,shop=beauty
"Carefree, AZ",,retail,446120,Sei Bella Beauty Lounge,,,,33.639317,-112.2129886,,,n_11182417346,shop=beauty
"Carefree, AZ",,retail,446120,Beauty Mark by Yolanda,,,,33.639282,-112.2127632,,,n_11182417347,shop=beauty
"Carefree, AZ",,retail,446120,Love Kim Nails & Spa,"7369 West Bell Road, Peoria, AZ, 85382",,,33.6375447,-112.2175128,,,n_11182417402,shop=beauty
"Carefree, AZ",,retail,452319,Five Below,"2780 West Peoria Avenue, Phoenix, AZ, 85029",+1 602-375-1725,https://locations.fivebelow.com/az/phoenix/2782-a-w-peoria-ave,33.5832015,-112.1210387,,,n_11209362835,"shop=variety_store, brand=Five Below"
"Carefree, AZ",,retail,446120,Nails Spa 101,,,,33.6360672,-112.2293685,,,n_11214923869,shop=beauty
"Carefree, AZ",,retail,446120,Tuscany Suites Spa,,,,33.6087857,-112.2551736,,,n_11218871591,shop=beauty
"Carefree, AZ",,retail,445120,Circle K,"5141 North Central Avenue, Phoenix, AZ, 85012",,https://www.circlek.com/,33.5125875,-112.0733114,,,n_11392069821,"shop=convenience, brand=Circle K"
"Carefree, AZ",,retail,446120,Spa-Tastic Blue Nails,"2737 West Thunderbird Road, Phoenix, AZ, 85053",+1-623-759-9878,https://spatasticbluenails.com/,33.6096804,-112.119175,,,n_11396176872,shop=beauty
"Carefree, AZ",,retail,445110,Misha's Kosher Food Market,"814 Eash Union Hills Road, Phoenix, AZ",+1 623-580-0909,https://m.facebook.com/Russianmishamedvedz,33.6553018,-112.0622192,,,n_11411186670,shop=supermarket
"Carefree, AZ",,retail,445120,Circle K,"4303 West Glendale Avenue, Glendale, AZ, 85301",,,33.5377981,-112.15216,,,n_11436055956,"shop=convenience, brand=Circle K"
"Carefree, AZ",,retail,445292,My Fav Candy Store,"7700 West Arrowhead Town Ctr, Glendale, AZ, 85308",,,33.6424528,-112.2253912,,,n_11444827409,shop=confectionery
"Carefree, AZ",,retail,445120,Superpumper,"8990 East Shea Boulevard, Scottsdale, AZ, 85260",,,33.5830341,-111.8867389,,,n_11446336787,shop=convenience
"Carefree, AZ",,retail,452210,Dillard's,,+1 480-949-5869,https://www.dillards.com/stores/arizona/scottsdale-fashion-square-scottsdale/0902,33.504053,-111.932481,,,n_11523794466,"shop=department_store, brand=Dillard's"
"Carefree, AZ",,retail,446120,Vina Nails & Spa,"4757 E Greenway Rd, Phoenix, AZ, 85032",+1 -602-603-2420,https://vinanailsspa.com,33.6232859,-111.9763221,,,n_11549466049,"shop=beauty, operator=Helen Pham"
"Carefree, AZ",,retail,445110,Fry's Food and Drug,,,https://www.frysfood.com/stores/grocery/az/phoenix/19th-ave-union-hills/660/00012,33.6540418,-112.1012088,,,n_11554663469,"shop=supermarket, brand=Fry's Food and Drug"
"Carefree, AZ",,retail,445110,Aldi,"4555 East Cactus Road, Phoenix, AZ, 85032",+1 855-955-2534,https://stores.aldi.us/az/phoenix/4555-e-cactus-road,33.5986364,-111.9859956,,,n_11582507293,"shop=supermarket, brand=Aldi"
"Carefree, AZ",,retail,446120,Nail Couture,,,,33.7973963,-111.9775326,,,n_11647241575,shop=beauty
"Carefree, AZ",,retail,453991,Galaxy Cigars & Vapes,,,,33.466435,-111.9019329,,,n_11715035094,shop=tobacco
"Carefree, AZ",,retail,446120,Gel-Q Nail & Spa,,,,33.4663673,-111.9120112,,,n_11715520414,shop=beauty
"Carefree, AZ",,retail,446120,The Spa Pro Clinic & Academy,,,,33.4678458,-111.9134505,,,n_11715520430,shop=beauty
"Carefree, AZ",,retail,446120,KTs Nails & Spa,,,,33.4651696,-111.9167207,,,n_11715529791,shop=beauty
"Carefree, AZ",,retail,445210,Carniceria El Rancho,,,,33.4644696,-111.9173246,,,n_11715529838,shop=butcher
"Carefree, AZ",,retail,453991,Blue Spot Smoke Shop,,,,33.4644237,-111.9167047,,,n_11715529841,shop=tobacco
"Carefree, AZ",,retail,446120,Allure Lash Lab,,,,33.4662502,-111.9354187,,,n_11715599460,shop=beauty
"Carefree, AZ",,retail,446120,Eyelashed Arizona,,,,33.4660969,-111.9355703,,,n_11715599463,shop=beauty
"Carefree, AZ",,retail,446120,Sassy Wink,,,,33.4658359,-111.9354752,,,n_11715599467,shop=beauty
"Carefree, AZ",,retail,445120,International Food Market,,,,33.4659722,-111.9721761,,,n_11715606349,shop=convenience
"Carefree, AZ",,retail,445210,Mini Market Halal Meat,"5056 East McDowell Road, Phoenix, AZ, 85008",,,33.4661927,-111.9723751,,,n_11715606351,shop=butcher
"Carefree, AZ",,retail,453991,The Plug Smoke Shop,"5040 East McDowell Road, Phoenix, AZ, 85008",,,33.4660884,-111.9728568,,,n_11715606354,shop=tobacco
"Carefree, AZ",,retail,453991,It's All Goodz Smoke Shop,,,,33.4661636,-111.9922515,,,n_11733025688,shop=tobacco
"Carefree, AZ",,retail,446120,International Beauty Salon,,,,33.4661661,-111.992062,,,n_11733025690,shop=beauty
"Carefree, AZ",,retail,445310,Ice2U,,,,33.466161,-111.9918379,,,n_11733025692,shop=beverages
"Carefree, AZ",,retail,445120,HJ&B Groceries & African Market,,,,33.4660453,-111.9918379,,,n_11733025693,shop=convenience
"Carefree, AZ",,retail,445110,Zam Zam World Foods,,,,33.4669043,-111.9961304,,,n_11733076032,shop=supermarket
"Carefree, AZ",,retail,445310,The Joy Lush Club,"24 W Camelback Rd Suite D & E, Phoenix, AZ 85013",+1-602-314-5989,https://thejoylushclub.com,33.5097481,-112.0757239,,,n_11829312171,"shop=alcohol, amenity=bar"
"Carefree, AZ",,retail,445120,Circle K,"10200 North Scottsdale Road, Scottsdale, AZ, 85253",,,33.5788772,-111.9268067,,,n_11862739597,"shop=convenience, brand=Circle K, operator=Circle K"
"Carefree, AZ",,retail,445110,Albertsons,"3130 West Carefree Highway, Phoenix, AZ, 85086",+1 623-582-4985,https://local.albertsons.com/az/phoenix/3130-w-carefree-hwy.html,33.7998268,-112.1269666,,,n_11876198704,"shop=supermarket, brand=Albertsons"
"Carefree, AZ",,retail,445110,Safeway,"3800 West Happy Valley Road, Glendale, AZ, 85310",+1 623-518-1946,https://local.safeway.com/safeway/az/glendale/3800-w-happy-valley-rd.html,33.7144047,-112.1410901,,,n_11876198705,"shop=supermarket, brand=Safeway"
"Carefree, AZ",,retail,445110,Sprouts Farmers Market,"8787 North Scottsdale Road, Scottsdale, AZ, 85253",+1 480-534-3620,https://www.sprouts.com/store/az/scottsdale/scottsdale-gainey-ranch/,33.565664,-111.924471,,,n_11876198709,"shop=supermarket, brand=Sprouts Farmers Market"
"Carefree, AZ",,retail,445110,ALDI,"1401 East Bell Road, Phoenix, AZ, 85022",+1 833-479-7158,https://stores.aldi.us/az/phoenix/1401-e-bell-rd,33.6398797,-112.0520617,,,n_11876198710,"shop=supermarket, brand=ALDI"
"Carefree, AZ",,retail,445110,Safeway,"13440 North 7th Street, Phoenix, AZ, 85022",+1 602-547-1288,https://local.safeway.com/safeway/az/phoenix/13440-n-7th-st.html,33.6088995,-112.0669533,,,n_11876198711,"shop=supermarket, brand=Safeway"
"Carefree, AZ",,retail,446120,Bath & Body Works,,,,33.5077422,-112.0420513,,,n_11899028525,"shop=cosmetics, brand=Bath & Body Works"
"Carefree, AZ",,retail,452319,Five Below,,+1 602-857-8288,https://locations.fivebelow.com/az/phoenix/1925-e-camelback-road,33.5077653,-112.0413455,,,n_11899028526,"shop=variety_store, brand=Five Below"
"Carefree, AZ",,retail,446120,Herbal Nails & Spa at Happy Valley,"2501 West Happy Valley Road, Phoenix, AZ, 85085",623 587 9975,https://herbalnailsandspahappyvalley.com/,33.7087575,-112.1145329,,,n_11956186432,shop=beauty
"Carefree, AZ",,retail,445110,,,,,33.6252455,-112.0302654,,,n_11970919760,shop=supermarket
"Carefree, AZ",,retail,453110,,,,,33.6250644,-112.0302694,,,n_11970919763,shop=florist
"Carefree, AZ",,retail,445110,Asiana Market,,,,33.6553943,-112.1540701,,,n_11983758069,shop=grocery
"Carefree, AZ",,retail,445310,Drive Thru Liquor,,,,33.4760973,-112.0126372,,,n_12050142032,shop=alcohol
"Carefree, AZ",,retail,445120,Safeway,"32515 North Scottsdale Road, Scottsdale, AZ, 85266",,,33.7809327,-111.9247596,,,n_12074318972,shop=convenience
"Carefree, AZ",,retail,446120,Bath & Body Works,"2470 W Happy Valley Rd, Phoenix, AZ, 85085",623 587 4493,https://www.bathandbodyworks,33.7147959,-112.1125894,,,n_12077980093,"shop=cosmetics, brand=Bath & Body Works"
"Carefree, AZ",,retail,446120,Amazing Lash Studio,"2470 W Happy Valley Rd, Phoenix, AZ, 85085",623 777 7540,https://www.amazinglashstudio.com/studios/az/phoenix/norterra,33.7148352,-112.1126779,,,n_12078013907,"shop=beauty, brand=Amazing Lash Studio"
"Carefree, AZ",,retail,446120,Restore Hyper Wellness,"2450 W Happy Valley Rd, Phoenix, AZ, 85085",623 201 18603,https://www.restore.com/locations/az-phoenix-norterra-az013,33.7141146,-112.1115739,,,n_12078758356,"shop=beauty, brand=Restore Hyper Wellness"
"Carefree, AZ",,retail,453110,Poppies Flower Shop,"2450 W Happy Valley Rd, Phoenix, AZ, 85085",480 649 7100,https://www.poppiesflowershop.com/,33.7144938,-112.1117443,,,n_12078787554,shop=florist
"Carefree, AZ",,retail,452210,TJ Maxx,"2501 W Happy Valley Rd, Phoenix, AZ, 85085",623 434 7701,https://tjmaxx.tjx.com/store/index.jsp,33.7087825,-112.1110945,,,n_12079134488,"shop=department_store, brand=TJ Maxx"
"Carefree, AZ",,retail,446120,Ulta Beauty,"2501 W Happy Valley Rd, Phoenix, AZ, 85085",623 581 6766,https://www.ulta.com/,33.7087482,-112.110191,,,n_12079165566,"shop=cosmetics, brand=Ulta Beauty"
"Carefree, AZ",,retail,452319,Five Below,"2501 W Happy Valley Rd, Phoenix, AZ, 85085",+1 623-264-6767,https://locations.fivebelow.com/az/phoenix/2501-w-happy-valley-road-39,33.708757,-112.1099324,,,n_12079208038,"shop=variety_store, brand=Five Below"
"Carefree, AZ",,retail,452319,Dollar Tree,"2501 W Happy Valley Rd, Phoenix, AZ, 85085",623 300 7325,https://www.dollartree.com/locations/AZ/phoenix/4480/,33.7087866,-112.1091942,,,n_12079213315,"shop=variety_store, brand=Dollar Tree"
"Carefree, AZ",,retail,445110,Sprouts Farmers Market,"34750 N. North Valley Pkwy, Phoenix, AZ, 85086",480 956 6058,https://www.sprouts.com/store/az/phoenix/north-valley-pkwy/,33.7998285,-112.1316073,,,n_12080407301,"shop=supermarket, brand=Sprouts Farmers Market"
"Carefree, AZ",,retail,446120,,,,,33.4788052,-111.9249755,,,n_12098087719,shop=beauty
"Carefree, AZ",,retail,446120,,,,,33.4788063,-111.9248226,,,n_12098087721,shop=beauty
"Carefree, AZ",,retail,445110,Fry's Food and Drug,"850 East Hatcher Road, Phoenix, AZ, 85020",+1 602-216-1473,https://www.frysfood.com/stores/grocery/az/phoenix/cave-creek-hatcher/660/00609,33.5726724,-112.0609717,,,n_12163771007,"shop=supermarket, brand=Fry's Food and Drug"
"Carefree, AZ",,retail,452319,St. Vincent de Paul,85032,,,33.6253432,-111.9758777,,,n_12168966701,shop=variety_store
"Carefree, AZ",,retail,445110,Food City,"3202 East Greenway Road, Phoenix, AZ, 85032",+1 602-253-0087,https://www.mifoodcity.com/store/104,33.628406,-112.0120675,,,n_12287277901,"shop=supermarket, brand=Food City"
"Carefree, AZ",,retail,445110,Fry's Marketplace,"8900 East Via Linda, Scottsdale, AZ, 85258",+1 480-657-6433,https://www.frysfood.com/stores/grocery/az/scottsdale/pima-via-linda/660/00621,33.5704764,-111.8891776,,,n_12309782228,"shop=supermarket, brand=Fry's Food and Drug"
"Carefree, AZ",,retail,445292,Rocket Fizz,7101 East 6th Avenue,,,33.4986362,-111.9280845,,,n_12333533620,"shop=confectionery, brand=Rocket Fizz"
"Carefree, AZ",,retail,445110,Whole Foods Market,"12500 North Tatum Boulevard, Phoenix, AZ, 85032",602-569-7600,https://www.wholefoodsmarket.com/stores/paradisevalleymall85032,33.6017757,-111.9812544,,,n_12338104403,"shop=supermarket, brand=Whole Foods Market, operator=Whole Foods Market"
"Carefree, AZ",,retail,445110,Whole Foods Market,"7628 E Indian School Road, Scottsdale, AZ, 85251",,,33.4957613,-111.9160004,,,n_12338109972,"shop=supermarket, brand=Whole Foods Market"
"Carefree, AZ",,retail,453110,French Florist - North Scottsdale,"6501 East Greenway Parkway, Scottsdale, AZ, 85254",480-573-0396,https://www.frenchflorist.com/,33.6238996,-111.9424602,,,n_12359885063,shop=florist
"Carefree, AZ",,retail,446110,CVS Pharmacy,,,,33.5093056,-111.996218,,,n_12398979733,"shop=chemist, brand=CVS Pharmacy"
"Carefree, AZ",,retail,446120,Nice Nails & Spa,,,,33.5550927,-112.1007429,,,n_12407558454,shop=beauty
"Carefree, AZ",,retail,446120,Brows Threading,,,,33.5551616,-112.1004254,,,n_12407558457,shop=beauty
"Carefree, AZ",,retail,452319,Dollar Tree,,,,33.6416482,-112.098408,,,n_12439881500,"shop=variety_store, brand=Dollar Tree"
"Carefree, AZ",,retail,445110,Istanbul Market,,,,33.6415603,-112.0985939,,,n_12439927401,shop=supermarket
"Carefree, AZ",,retail,446120,Skin Laundry,,,,33.5105682,-112.0288441,,,n_12454199552,"shop=beauty, brand=Skin Laundry"
"Carefree, AZ",,retail,445292,See's Candies,,,,33.4969875,-111.925883,,,n_12454427258,"shop=confectionery, brand=See's Candies"
"Carefree, AZ",,retail,446120,Curv Body Lounge,,,,33.4972166,-111.9258814,,,n_12454427259,shop=beauty
"Carefree, AZ",,retail,446120,Bath & Body Works,,,,33.5035926,-111.9297462,,,n_12454744516,"shop=cosmetics, brand=Bath & Body Works"
"Carefree, AZ",,retail,446120,Sephora,,,,33.5036835,-111.9282,,,n_12454744542,"shop=cosmetics, brand=Sephora"
"Carefree, AZ",,retail,446120,MAC Cosmetics,,,,33.5037072,-111.9298792,,,n_12454744552,"shop=cosmetics, brand=MAC Cosmetics"
"Carefree, AZ",,retail,446120,Jo Malone,,,,33.5039969,-111.9297748,,,n_12454744556,"shop=perfumery, brand=Jo Malone"
"Carefree, AZ",,retail,446120,Bodyroll Studio,,,,33.4929627,-111.9302663,,,n_12472668192,shop=beauty
"Carefree, AZ",,retail,446120,Image on main,,,,33.4932459,-111.9300114,,,n_12472704521,shop=cosmetics
"Carefree, AZ",,retail,446120,Bath & Body Works,"2819 West Agua Fria Freeway, Phoenix, AZ, 85027",+16235812883,https://www.bathandbodyworks.com,33.6664354,-112.1202703,,,n_12475529414,"shop=cosmetics, brand=Bath & Body Works"
"Carefree, AZ",,retail,446120,Sola Salons,"2811 West Agua Fria Freeway, Phoenix, AZ, 85027",+14026801206,https://www.solasalonstudios.com/locations/deer-valley-town-center,33.6664527,-112.1199156,,,n_12475529415,"shop=beauty, brand=Sola Salons"
"Carefree, AZ",,retail,445120,7-Eleven,"4748 East McDowell Road, Phoenix, AZ, 85008",+1 602-275-8452,https://www.7-eleven.com/locations/az/phoenix/4748-east-mcdowell-rd-19650,33.4660435,-111.978812,,,n_12518646771,"shop=convenience, brand=7-Eleven"
"Carefree, AZ",,retail,445110,Fry's Marketplace,"Peoria, AZ, 85383",,,33.7512946,-112.3125775,,,n_12542916849,"shop=supermarket, brand=Fry's Marketplace"
"Carefree, AZ",,retail,452319,Dollar Tree,"4323 East Bell Road, 85032",4804858762,https://dollartree.com/,33.6400133,-111.9874289,,,n_12584380501,"shop=variety_store, brand=Dollar Tree"
"Carefree, AZ",,retail,445120,Party City,"4533 East Cactus Road, 85032",(623) 259-1661,http://stores.partycity.com,33.5986674,-111.9857014,,,n_12585373602,shop=convenience
"Carefree, AZ",,retail,446120,Ziba Beauty - Eyebrow Threading - Kids Cut- Men’s Haircut,"4515 East Cactus Road, 85032",,https://ziba-beauty.com/,33.5986812,-111.9861901,,,n_12585571001,shop=beauty
"Carefree, AZ",,retail,445120,Dollar Tree,"12805 North Tatum Boulevard, 85032",5204855191,,33.6021485,-111.9766571,,,n_12586948704,shop=convenience
"Carefree, AZ",,retail,446120,Sephora,"12646 North Tatum Boulevard, 85032",6028870366,https://www.sephora.com/,33.6019125,-111.9812408,,,n_12586955401,shop=cosmetics
"Carefree, AZ",,retail,446120,LuxeNails & Spa,"7342 East Shea Boulevard, Scottsdale, AZ, 85254",,https://luxenailandspa.com/,33.5837501,-111.9234175,,,n_12639769401,shop=beauty
"Carefree, AZ",,retail,445120,,"15515 North Scottsdale Road, Scottsdale, AZ, 85254",,,33.6289663,-111.9247214,,,n_12646032820,shop=convenience
"Carefree, AZ",,retail,445310,Total Wine,"10320 North Scottsdale Road, Scottsdale, AZ, 85253",,,33.579623,-111.9276197,,,n_12646611003,"shop=alcohol, brand=Total Wine"
"Carefree, AZ",,retail,452319,Family Dollar,,,,33.5540198,-112.1359107,,,n_12657589157,"shop=variety_store, brand=Family Dollar"
"Carefree, AZ",,retail,446120,Pretty Nails & Spa,,,,33.4887046,-112.0823673,,,n_12889795836,shop=beauty
"Carefree, AZ",,retail,446120,Whish,"15649 North Greenway Hayden Loop, Scottsdale, AZ, 85260",,https://whishbody.com,33.6274938,-111.9150324,,,n_12903546310,shop=beauty
"Carefree, AZ",,retail,446120,Skin Spirit,,,,33.5074235,-112.0373057,,,n_12918589650,shop=beauty
"Carefree, AZ",,retail,446120,Ready Set Glo Nails,"7942 West Bell Road, Glendale, AZ, 85308",,,33.6392665,-112.2303108,,,n_12984535938,shop=beauty
"Carefree, AZ",,retail,446120,AZ-3D Nails & Spa,"3434 West Greenway Road, Phoenix, AZ, 85053",,,33.6262045,-112.1318141,,,n_12986776690,shop=beauty
"Carefree, AZ",,retail,445110,Smart & Final Extra!,"3434 West Greenway Road, Phoenix, AZ, 85053",+16028433363,https://www.smartandfinal.com/sm/pickup/rsid/522/store,33.6265547,-112.1327925,,,n_12986789923,"shop=supermarket, brand=Smart & Final"
"Carefree, AZ",,retail,453991,Nana's Smoke Shop,"3414 West Union Hills Drive, Phoenix, AZ, 85027",,,33.6551118,-112.1327406,,,n_12987268373,shop=tobacco
"Carefree, AZ",,retail,452319,Prime IV,"5310 East High Street, Phoenix, AZ, 85054-5471",+1-602-975-4918,https://primeivhydration.com/locations/arizona/phoenix-85054/,33.6764324,-111.9664476,,,n_13002554120,shop=general
"Carefree, AZ",,retail,445310,Sonoran Desert Olive Oil Company,"5350 East High Street, Phoenix, AZ, 85054-5471",+1-480-656-9076,https://www.sonorandesertoliveoil.com/,33.6760777,-111.9653115,,,n_13004192947,shop=beverages
"Carefree, AZ",,retail,446120,Brazillian Touch MedSpa,"5415 East High Street, Phoenix, AZ, 85054-5461",+1-480-618-7204,https://www.braziliantouchmedspa.com/,33.6755807,-111.9651162,,,n_13004192951,shop=beauty
"Carefree, AZ",,retail,446120,Primp And Blow,"5410 East High Street, Phoenix, AZ, 85054-5457",+1-602-845-4000,https://primpandblow.com/locations/phoenix-location/,33.6757453,-111.9642877,,,n_13004192957,shop=beauty
"Carefree, AZ",,retail,446120,M3V The Nail Bar,"5450 East High Street, Phoenix, AZ, 85054-5459",+1-480-659-9556,https://www.m3vnailbar.com/,33.6755934,-111.9637694,,,n_13004192962,shop=beauty
"Carefree, AZ",,retail,445110,Sprouts Farmers Market,"5455 East High Street, Phoenix, AZ, 85054-5464",+1-602-682-3200,https://www.highstreetaz.com/directory/sprouts-express/,33.6752842,-111.9637103,,,n_13004192964,"shop=supermarket, brand=Sprouts Farmers Market"
"Carefree, AZ",,retail,446120,Aroma 360,,,,33.5107201,-112.0292799,,,n_13034414839,shop=perfumery
"Carefree, AZ",,retail,445120,Circle K,"12201 North Cave Creek Road, Phoenix, AZ, 85022",,,33.5972924,-112.0372039,,,w_33090566,"shop=convenience, brand=Circle K"
"Carefree, AZ",,retail,452319,99 Cents Only Stores,"7830 North 12th Street, Phoenix, AZ, 85020",,https://locations.99only.com/az/phoenix/discount-store-223.html,33.5520206,-112.0582541,,,w_33112933,"shop=variety_store, brand=99 Cents Only Stores"
"Carefree, AZ",,retail,445120,QuikTrip,"1133 East Northern Avenue, Phoenix, AZ, 85020",,,33.5523244,-112.057226,,,w_33112997,"shop=convenience, brand=QuikTrip, operator=QT"
"Carefree, AZ",,retail,445120,Country Market Deli,"8941 North 12th Street, Phoenix, AZ, 85020",,,33.567521,-112.056249,,,w_33151188,shop=convenience
"Carefree, AZ",,retail,446110,Walgreens,"13227 North 7th Street, Phoenix, AZ, 85028",,https://www.walgreens.com/locator/walgreens-13227+n+7th+st-phoenix-az-85022/id=6599,33.6063349,-112.0643721,,,w_33168245,"shop=chemist, brand=Walgreens"
"Carefree, AZ",,retail,445120,QuikTrip,"2019 East Cactus Road, Phoenix, AZ, 85022",,,33.5961165,-112.0353668,,,w_33184427,"shop=convenience, brand=QuikTrip"
"Carefree, AZ",,retail,445120,ampm,"East Northern Avenue, Phoenix, AZ, 85020-4216",,,33.5526521,-112.0561735,,,w_33262133,"shop=convenience, brand=ampm"
"Carefree, AZ",,retail,445110,Walmart Neighborhood Market,"115 East Dunlap Avenue, Phoenix, AZ, 85020",+1 480-754-8043,https://www.walmart.com/store/2632-phoenix-az,33.5664969,-112.0722089,,,w_33881655,"shop=supermarket, brand=Walmart, operator=Walmart"
"Carefree, AZ",,retail,445120,Central Food Mart,"8937 North Central Avenue, Phoenix, AZ, 85020",,,33.5673776,-112.0734109,,,w_33881740,shop=convenience
"Carefree, AZ",,retail,445120,Circle K,"12042 North 32nd Street, Phoenix, AZ, 85028",,,33.5965827,-112.0138207,,,w_62262645,"shop=convenience, brand=Circle K"
"Carefree, AZ",,retail,445120,7-Eleven,"3201 East Shea Boulevard, Phoenix, AZ, 85028",+1 602-953-8003,https://www.7-eleven.com/locations/az/phoenix/3201-e-shea-blvd-26086,33.5821713,-112.0125412,,,w_62263648,"shop=convenience, brand=7-Eleven"
"Carefree, AZ",,retail,445120,ampm,"3610 East Bell Road, Phoenix, AZ, 85032",,,33.6412,-112.0043637,,,w_62265064,"shop=convenience, brand=ampm"
"Carefree, AZ",,retail,445292,See's Candies,"4576 East Cactus Road, Phoenix, AZ, 85032",,,33.5998633,-111.9828227,,,w_64888606,"shop=confectionery, brand=See's Candies"
"Carefree, AZ",,retail,446110,Walgreens,"10865 North Tatum Boulevard, Phoenix, AZ, 85028",,https://www.walgreens.com/locator/walgreens-10865+n+tatum+blvd-phoenix-az-85028/id=3191,33.5858551,-111.9773007,,,w_65592145,"shop=chemist, brand=Walgreens"
"Carefree, AZ",,retail,445110,Trader Joe's,"4726 East Shea Boulevard, Phoenix, AZ, 85028",+1 602-485-7788,https://locations.traderjoes.com/az/phoenix/282/,33.5833358,-111.9790541,,,w_65592189,"shop=supermarket, brand=Trader Joe's"
"Carefree, AZ",,retail,446110,Walgreens,"710 East Camelback Road, Phoenix, AZ, 85014",,https://www.walgreens.com/locator/walgreens-710+e+camelback+rd-phoenix-az-85014/id=6527,33.5097671,-112.0643825,,,w_65715362,"shop=chemist, brand=Walgreens"
"Carefree, AZ",,retail,445120,,"6502 North 7th Street, Phoenix, AZ, 85014",,,33.531404,-112.0656019,,,w_65716384,shop=convenience
"Carefree, AZ",,retail,446110,Walgreens,"6838 North 7th Street, Phoenix, AZ, 85014",,https://www.walgreens.com/locator/walgreens-6838+n+7th+st-phoenix-az-85014/id=7018,33.5375844,-112.0654412,,,w_65716494,"shop=chemist, brand=Walgreens"
"Carefree, AZ",,retail,445110,Safeway,"810 East Glendale Avenue, Phoenix, AZ, 85020",+1 602-331-0134,https://local.safeway.com/safeway/az/phoenix/810-e-glendale-ave.html,33.5395155,-112.0623349,,,w_65716522,"shop=supermarket, brand=Safeway"
"Carefree, AZ",,retail,446110,CVS Pharmacy,"1610 East Camelback Road, Phoenix, AZ, 85016",,https://www.cvs.com/store-locator/phoenix-az-pharmacies/1610-e-camelback-rd-phoenix-az-85016/storeid=8366,33.5096286,-112.0470359,,,w_65727596,"shop=chemist, brand=CVS Pharmacy"
"Carefree, AZ",,retail,445292,See's Candies,"132 East Camelback Road, Phoenix, AZ, 85012",,,33.5095199,-112.0710216,,,w_65727934,"shop=confectionery, brand=See's Candies"
"Carefree, AZ",,retail,445110,Walmart Supercenter,"4747 East Cactus Road, Phoenix, AZ, 85032",+1 602-404-3712,https://www.walmart.com/store/4232-phoenix-az,33.5961325,-111.978628,,,w_65742643,"shop=supermarket, brand=Walmart, operator=Walmart"
"Carefree, AZ",,retail,445120,Circle K,"15262 North Tatum Boulevard, Phoenix, AZ, 85032",,,33.6254799,-111.9784994,,,w_66604308,"shop=convenience, brand=Circle K"
"Carefree, AZ",,retail,445120,Circle K,"15412 North 32nd Street, Phoenix, AZ, 85032",,,33.6267131,-112.0139511,,,w_67085450,"shop=convenience, brand=Circle K"
"Carefree, AZ",,retail,445120,Circle K,"1875 West Greenway Road, Phoenix, AZ, 85023",,,33.6250517,-112.0991417,,,w_67090921,"shop=convenience, brand=Circle K"
"Carefree, AZ",,retail,446110,Walgreens,"4710 East Rose Garden Lane, Phoenix, AZ, 85050",,https://www.walgreens.com/locator/walgreens-4710+e+rose+garden+ln-phoenix-az-85050/id=9261,33.6773395,-111.9787581,,,w_67121968,"shop=chemist, brand=Walgreens"
"Carefree, AZ",,retail,445110,Albertsons,"21001 North Tatum Boulevard, Phoenix, AZ, 85050",+1 480-342-8231,https://local.albertsons.com/az/phoenix/21001-n-tatum-blvd-suite-76.html,33.678675,-111.9746871,,,w_67121982,"shop=supermarket, brand=Albertsons"
"Carefree, AZ",,retail,445120,Jacksons,"21001 North Tatum Boulevard, Phoenix, AZ, 85050",,,33.679874,-111.9767293,,,w_67121993,"shop=convenience, brand=Jacksons"
"Carefree, AZ",,retail,452210,Target,"21001 North Tatum Boulevard, Phoenix, AZ, 85050",+1 480-419-9380,https://www.target.com/sl/phoenix-ne/1360,33.6743381,-111.9743562,,,w_67122000,"shop=department_store, brand=Target"
"Carefree, AZ",,retail,445120,Circle K,"2524 West Thunderbird Road, Phoenix, AZ, 85023",,,33.6115829,-112.1109469,,,w_68295665,"shop=convenience, brand=Circle K"
"Carefree, AZ",,retail,446110,Walgreens,"2610 West Thunderbird Road, Phoenix, AZ, 85023",,https://www.walgreens.com/locator/walgreens-2610+w+thunderbird+rd-phoenix-az-85023/id=3593,33.6115382,-112.1118395,,,w_68295671,"shop=chemist, brand=Walgreens"
"Carefree, AZ",,retail,445120,QuikTrip,"2750 West Thunderbird Road, Phoenix, AZ, 85053",,,33.6115601,-112.1191332,,,w_68295692,"shop=convenience, brand=QuikTrip"
"Carefree, AZ",,retail,445110,Fry's Food and Drug,"3421 West Thunderbird Road, Phoenix, AZ, 85053",+1-602-375-0186,https://www.frysfood.com,33.6092585,-112.1321037,,,w_68295700,"shop=supermarket, brand=Fry's Food and Drug"
"Carefree, AZ",,retail,452210,Burlington,"2728 West Peoria Avenue, Phoenix, AZ, 85029-5202",+1 602-866-2628,https://stores.burlington.com/az/phoenix/181,33.5829742,-112.1182576,,,w_68295762,"shop=department_store, brand=Burlington"
"Carefree, AZ",,retail,445120,Circle K,"Phoenix, AZ, 85032",,,33.6123604,-111.9965136,,,w_71076564,"shop=convenience, brand=Circle K"
"Carefree, AZ",,retail,445110,Fry's Food and Drug,"4025 East Thunderbird Road, Phoenix, AZ, 85032",+1 602-953-1615,https://www.frysfood.com/stores/grocery/az/phoenix/40th-st-thunderbird/660/00121,33.6110663,-111.9941228,,,w_71076567,"shop=supermarket, brand=Fry's Food and Drug"
"Carefree, AZ",,retail,445110,Safeway,"6501 East Greenway Parkway;East Greenway Parkway Building 4, Scottsdale, AZ, 85254",+1 480-991-3317,https://local.safeway.com/safeway/az/scottsdale/6501-e-greenway-pkwy-bldg-4.html,33.6240104,-111.9416388,,,w_71277325,"shop=supermarket, brand=Safeway"
"Carefree, AZ",,retail,445120,Kierland Express LLC,"6347 East Greenway Road, Scottsdale, AZ, 85254",,,33.6252194,-111.9434907,,,w_71277326,shop=convenience
"Carefree, AZ",,retail,446110,Walgreens,"6501 East Greenway Road, Scottsdale, AZ, 85254",,,33.6253629,-111.9422479,,,w_71277329,"shop=chemist, brand=Walgreens"
"Carefree, AZ",,retail,445110,Fry's Food and Drug,"6339;6321 East Greenway Road, Scottsdale, AZ, 85254",+1 480-368-8940,https://www.frysfood.com/stores/grocery/az/scottsdale/64th-st-greenway/660/00120,33.6246419,-111.9445286,,,w_71277331,"shop=supermarket, brand=Fry's Food and Drug"
"Carefree, AZ",,retail,445120,Circle K,"East Greenway Road, Phoenix, AZ, 85032",,,33.6269584,-111.9967128,,,w_71277416,"shop=convenience, brand=Circle K"
"Carefree, AZ",,retail,445120,Circle K,"18422 North Tatum Boulevard, Phoenix, AZ, 85032",,,33.6547314,-111.9782637,,,w_71277438,"shop=convenience, brand=Circle K"
"Carefree, AZ",,retail,446110,Walgreens,"4006 East Bell Road, Phoenix, AZ, 85032",,https://www.walgreens.com/locator/walgreens-4006+e+bell+rd-phoenix-az-85032/id=4951,33.6412878,-111.9954479,,,w_71277511,"shop=chemist, brand=Walgreens"
"Carefree, AZ",,retail,445120,Circle K,"4808 East Bell Road, Phoenix, AZ, 85254",,,33.6411771,-111.9767342,,,w_71277539,"shop=convenience, brand=Circle K"
"Carefree, AZ",,retail,445120,,"East Bell Road, Scottsdale, AZ, 85254",,,33.6398462,-111.9593954,,,w_71277542,shop=convenience
"Carefree, AZ",,retail,446110,CVS Pharmacy,"4323 East Bell Road, Phoenix, AZ, 85032",,,33.6400304,-111.9874341,,,w_71277565,"shop=chemist, amenity=pharmacy, brand=CVS Pharmacy"
"Carefree, AZ",,retail,445110,Walmart Supercenter,"4435 West Anthem Way, Phoenix, AZ, 85086",+1 623-551-6314,https://www.walmart.com/store/5329-anthem-az,33.8697063,-112.1549826,,,w_72011685,"shop=supermarket, brand=Walmart, operator=Walmart"
"Carefree, AZ",,retail,445110,Safeway,"20901 North Pima Road, Scottsdale, AZ, 85255",+1 480-585-3552,https://local.safeway.com/safeway/az/scottsdale/20901-n-pima-rd.html,33.6758186,-111.8881743,,,w_77848830,"shop=supermarket, brand=Safeway"
"Carefree, AZ",,retail,445110,Trader Joe's,"7555 East Frank Lloyd Wright Boulevard, Scottsdale, AZ, 85260",+1 480-367-8920,https://locations.traderjoes.com/az/scottsdale/87/,33.6359248,-111.9171681,,,w_79734180,"shop=supermarket, brand=Trader Joe's"
"Carefree, AZ",,retail,445210,Scottsdale Meat Market,"14987 North Northsight Boulevard, Scottsdale, AZ, 85260",,,33.6214477,-111.8970345,,,w_79794643,shop=butcher
"Carefree, AZ",,retail,452210,Kohl's,"8680 East Raintree Drive, Scottsdale, AZ, 85260",+1 480-609-9830,https://www.kohls.com/stores/az/scottsdale-620.shtml,33.6191536,-111.8952672,,,w_79794651,"shop=department_store, brand=Kohl's"
"Carefree, AZ",,retail,445110,Walmart Supercenter,"15355 North Northsight Boulevard, Scottsdale, AZ, 85260",+1 480-348-5505,https://www.walmart.com/store/2766-scottsdale-az,33.6247115,-111.8935526,,,w_79794657,"shop=supermarket, brand=Walmart, operator=Walmart"
"Carefree, AZ",,retail,452210,Ross,"15694 North Frank Lloyd Wright Boulevard, Scottsdale, AZ, 85260",+1 480-391-2617,,33.6286026,-111.8892824,,,w_79794714,"shop=department_store, brand=Ross"
"Carefree, AZ",,retail,446110,CVS Pharmacy,"3210 East Union Hills Drive, Phoenix, AZ, 85050",,https://www.cvs.com/store-locator/phoenix-az-pharmacies/3210-e-union-hills-dr-phoenix-az-85050/storeid=3264,33.6556801,-112.012794,,,w_82162095,"shop=chemist, brand=CVS Pharmacy"
"Carefree, AZ",,retail,446110,Walgreens,"2415 East Union Hills Drive, Phoenix, AZ, 85050",,https://www.walgreens.com/locator/walgreens-2415+e+union+hills+dr-phoenix-az-85050/id=3132,33.6544382,-112.0301585,,,w_82163144,"shop=chemist, brand=Walgreens"
"Carefree, AZ",,retail,445120,,"2340 East Union Hills Drive, Phoenix, AZ, 85024",,,33.6558021,-112.031439,,,w_82163148,shop=convenience
"Carefree, AZ",,retail,446110,Walgreens,"2435 East Greenway Parkway, Phoenix, AZ",,,33.630862,-112.0290808,,,w_82697513,"shop=chemist, brand=Walgreens"
"Carefree, AZ",,retail,445120,,"15827 North Cave Creek Road, Phoenix, AZ, 85032",,,33.6311682,-112.0300792,,,w_82697514,shop=convenience
"Carefree, AZ",,retail,445110,Fry's Food and Drug,"3511 West Peoria Avenue, Phoenix, AZ, 85029",+1-602-866-5420,https://www.frysfood.com/stores/grocery/az/phoenix/35th-ave-peoria/660/00641,33.5806573,-112.1353636,,,w_87608352,"shop=supermarket, brand=Fry's Food and Drug"
"Carefree, AZ",,retail,445120,7-Eleven,"8410 East McDonald Drive, Scottsdale, AZ, 85250",+1 480-948-7363,https://www.7-eleven.com/locations/az/scottsdale/8410-east-mcdonald-26411,33.5243522,-111.8996583,,,w_93099387,"shop=convenience, brand=7-Eleven"
"Carefree, AZ",,retail,445120,The Market,"9030 East Talking Stick Way, Scottsdale, AZ, 85250",480-596-3800,,33.5389197,-111.8864233,,,w_93160849,shop=convenience
"Carefree, AZ",,retail,446110,Walgreens,"8816 East Pinnacle Peak Road, Scottsdale, AZ, 85254",+1-480-473-8965,https://www.walgreens.com/locator/walgreens-8816+e+pinnacle+peak+rd-scottsdale-az-85255/id=3602,33.6992719,-111.8892343,,,w_97991528,"shop=chemist, brand=Walgreens"
"Carefree, AZ",,retail,446110,CVS Pharmacy,"10160 East Bell Road, Scottsdale, AZ, 85260",(480) 473-4608,https://www.cvs.com/store-locator/scottsdale-az-pharmacies/10160-bell-road-east-scottsdale-az-85260/storeid=7862,33.6408447,-111.8620425,,,w_101254359,"shop=chemist, brand=CVS Pharmacy"
"Carefree, AZ",,retail,445110,AJ's Fine Foods,"23251 North Pima Road, Scottsdale, AZ, 85255",+1-480-563-5070,https://www.ajsfinefoods.com/,33.6968077,-111.8884097,,,w_101363888,shop=supermarket
"Carefree, AZ",,retail,445120,4 Sons,"3150 West Carefree Highway, Phoenix, AZ, 85086;85085",,,33.7991527,-112.1285235,,,w_103863568,shop=convenience
"Carefree, AZ",,retail,446110,Walgreens,"2707 West Carefree Highway, Phoenix, AZ, 85085",,https://www.walgreens.com/locator/walgreens-2707+w+carefree+hwy-phoenix-az-85085/id=9472,33.7976919,-112.1188842,,,w_103863582,"shop=chemist, brand=Walgreens"
"Carefree, AZ",,retail,445120,ampm,"2635 West Deer Valley Road, Phoenix, AZ, 85027",,,33.6831094,-112.1167396,,,w_115569963,"shop=convenience, brand=ampm"
"Carefree, AZ",,retail,446110,Walgreens,"7448 West Thunderbird Road, Peoria, AZ, 85381",623-979-0558,https://www.walgreens.com/locator/walgreens-7448+w+thunderbird+rd-peoria-az-85381/id=3427,33.6110849,-112.2193663,,,w_121895579,"shop=chemist, brand=Walgreens"
"Carefree, AZ",,retail,445110,Fry's Food and Drug,"7770 East McDowell Road, Scottsdale, AZ, 85257",+1 480-941-4088,https://www.frysfood.com/stores/grocery/az/scottsdale/77th-st-mcdowell/660/00005,33.467293,-111.9128443,,,w_126319240,"shop=supermarket, brand=Fry's Food and Drug"
"Carefree, AZ",,retail,445110,Walmart Supercenter,"1825 West Bell Road, Phoenix, AZ, 85023",+1 602-942-4138,https://www.walmart.com/store/2512-phoenix-az,33.6371709,-112.09814,,,w_127013604,"shop=supermarket, brand=Walmart, operator=Walmart"
"Carefree, AZ",,retail,445110,Fry's Food and Drug,"3036 East Thomas Road, Phoenix, AZ, 85016",+1 602-468-9188,https://www.frysfood.com/stores/grocery/az/phoenix/30th-st-thomas/660/00002,33.4817943,-112.016559,,,w_128414393,"shop=supermarket, brand=Fry's Food and Drug"
"Carefree, AZ",,retail,445120,Food Mart,"4352 East McDowell Road, Phoenix, AZ, 85008",,,33.4663718,-111.9880643,,,w_136807600,shop=convenience
"Carefree, AZ",,retail,446110,Walgreens,"3605 East Thomas Road, Phoenix, AZ, 85018",,https://www.walgreens.com/locator/walgreens-3605+e+thomas+rd-phoenix-az-85018/id=3789,33.4799346,-112.003603,,,w_137598734,"shop=chemist, brand=Walgreens"
"Carefree, AZ",,retail,445110,Walmart Supercenter,"3721 East Thomas Road, Phoenix, AZ, 85018",+1 602-685-0555,https://www.walmart.com/store/2515-phoenix-az,33.4787171,-112.0010092,,,w_137598736,"shop=supermarket, brand=Walmart, operator=Walmart"
"Carefree, AZ",,retail,445120,Circle K,"3449 West Greenway Road, Phoenix, AZ, 85053",,,33.6246344,-112.133112,,,w_142226948,"shop=convenience, brand=Circle K"
"Carefree, AZ",,retail,445110,Safeway,"550 East Bell Road, Phoenix, AZ, 85022",+1 602-863-4194,https://local.safeway.com/safeway/az/phoenix/550-e-bell-rd.html,33.6417864,-112.0671593,,,w_145092098,"shop=supermarket, brand=Safeway"
"Carefree, AZ",,retail,445120,Circle K,"3011 East Bell Road, Phoenix, AZ, 85032",,,33.6399014,-112.0174005,,,w_146986446,"shop=convenience, brand=Circle K"
"Carefree, AZ",,retail,445110,Walmart Supercenter,"21655 North Lake Pleasant Parkway, Peoria, AZ, 85382",+1 623-537-0809,https://www.walmart.com/store/3896-peoria-az,33.6802899,-112.2762148,,,w_150296887,"shop=supermarket, brand=Walmart, operator=Walmart"
"Carefree, AZ",,retail,446110,Walgreens,"3402 West Osborn Road;North Central Avenue, Phoenix, AZ, 85013;85012",,https://www.walgreens.com/locator/walgreens-3402+n+central+ave-phoenix-az-85012/id=3464,33.4879396,-112.0746546,,,w_150740378,"shop=chemist, brand=Walgreens"
"Carefree, AZ",,retail,445120,QuikTrip,"321 West Indian School Road, Phoenix, AZ, 85013",,,33.4941615,-112.0792223,,,w_151178133,"shop=convenience, brand=QuikTrip"
"Carefree, AZ",,retail,445120,Food Mart,"223 East Indian School Road, Phoenix, AZ, 85012",,,33.494367,-112.0702321,,,w_151179320,shop=convenience
"Carefree, AZ",,retail,446110,Walgreens,"1825 West Bethany Home Road, Phoenix, AZ, 85015",,https://www.walgreens.com/locator/walgreens-1825+w+bethany+home+rd-phoenix-az-85015/id=6063,33.5235768,-112.0988613,,,w_151813214,"shop=chemist, brand=Walgreens"
"Carefree, AZ",,retail,445120,Grab N Go Covenience Market,"2506 West Bethany Home Road, Phoenix, AZ, 85017",,https://www.grabngomarkets.com/,33.5245861,-112.1133139,,,w_151813229,shop=convenience
"Carefree, AZ",,retail,445120,7-Eleven,"1850 West Glendale Avenue, Phoenix, AZ, 85021",+1 602-995-3493,https://www.7-eleven.com/locations/az/phoenix/1850-w-glendale-26085,33.5390794,-112.0990965,,,w_151902026,"shop=convenience, brand=7-Eleven"
"Carefree, AZ",,retail,445110,Walmart Supercenter,"6145 North 35th Avenue, Phoenix, AZ, 85017",+1 602-973-0774,https://www.walmart.com/store/5330-phoenix-az,33.5267786,-112.1326431,,,w_152448046,"shop=supermarket, brand=Walmart, operator=Walmart"
"Carefree, AZ",,retail,445120,Quick Stop,"7938 North 59th Avenue, Glendale, AZ, 85301",,,33.5528194,-112.1866196,,,w_152881321,shop=convenience
"Carefree, AZ",,retail,445110,Walmart Supercenter,"5605 West Northern Avenue, Glendale, AZ, 85301",+1 623-934-6920,https://www.walmart.com/store/5124/glendale-az,33.5511933,-112.17995,,,w_152881365,"shop=supermarket, brand=Walmart, operator=Walmart"
"Carefree, AZ",,retail,445120,Circle K,"309 East Osborn Road, Phoenix, AZ, 85012",,,33.4868532,-112.0688772,,,w_153035589,"shop=convenience, brand=Circle K"
"Carefree, AZ",,retail,445110,Natural Grocers,"655 West Indian School Road, Phoenix, AZ, 85013",,,33.494502,-112.0830427,,,w_153061652,"shop=supermarket, brand=Natural Grocers"
"Carefree, AZ",,retail,452319,Super 99 Center,"6015 West Bethany Home Road, Phoenix, AZ, 85301",,,33.5246646,-112.150989,,,w_153932306,shop=general
"Carefree, AZ",,retail,452319,Dollar General,"2650 West Glendale Avenue, Phoenix, AZ, 85051",,https://www.dollargeneral.com/store-directory/az/phoenix/25371,33.5388986,-112.1160955,,,w_153932316,"shop=variety_store, brand=Dollar General"
"Carefree, AZ",,retail,445110,Safeway,"10773 North Scottsdale Road, Scottsdale, AZ, 85254",+1 480-948-6446,https://local.safeway.com/safeway/az/scottsdale/10773-n-scottsdale-rd.html,33.5842883,-111.9243761,,,w_154827917,"shop=supermarket, brand=Safeway"
"Carefree, AZ",,retail,446110,CVS Pharmacy,"10653 North Scottsdale Road, Scottsdale, AZ, 85254",,https://www.cvs.com/store-locator/scottsdale-az-pharmacies/10653-n-scottsdale-rd-scottsdale-az-85254/storeid=9210,33.5831865,-111.9242808,,,w_154827919,"shop=chemist, brand=CVS Pharmacy"
"Carefree, AZ",,retail,445120,The Market,"3210 East Thomas Road, Phoenix, AZ, 85018",,,33.4809711,-112.012047,,,w_156343283,shop=convenience
"Carefree, AZ",,retail,445120,Circle K,"8319 West Bell Road, Peoria, AZ, 85382",,,33.6373835,-112.2340356,,,w_156541163,"shop=convenience, brand=Circle K"
"Carefree, AZ",,retail,452210,Big Lots,"17510 North 75th Avenue, Glendale, AZ, 85308",+1 623-334-8983,https://local.biglots.com/az/glendale/17510-n-75th-ave,33.6411623,-112.2210892,,,w_156541165,"shop=department_store, brand=Big Lots"
"Carefree, AZ",,retail,446110,Walgreens,"5421 West Thunderbird Road, Glendale, AZ, 85306",+16025479645,https://www.walgreens.com/locator/walgreens-5421+w+thunderbird+rd-glendale-az-85306/id=3385,33.6104005,-112.1763295,,,w_156544854,"shop=chemist, brand=Walgreens"
"Carefree, AZ",,retail,445120,QuikTrip,"1610 North 16th Street, Phoenix, AZ, 85016",,,33.5061593,-112.0467816,,,w_156723207,"shop=convenience, brand=QuikTrip"
"Carefree, AZ",,retail,445120,,"1910 West Deer Valley Road;West Deer Valley Drive, Phoenix, AZ, 85027",,,33.6843534,-112.1004009,,,w_157362574,shop=convenience
"Carefree, AZ",,retail,445310,BevMo!,"6712 West Bell Road, Glendale, AZ, 85308",,,33.6389086,-112.2036748,,,w_168657640,"shop=alcohol, brand=BevMo!"
"Carefree, AZ",,retail,445120,QuikTrip,"2500 East Union Hills Drive, Phoenix, AZ, 85050",,,33.6557113,-112.029466,,,w_168995965,"shop=convenience, brand=QuikTrip"
"Carefree, AZ",,retail,445120,Circle K,"1850 West Union Hills Drive, Phoenix, AZ, 85027",,,33.6555305,-112.0992716,,,w_169012025,"shop=convenience, brand=Circle K"
"Carefree, AZ",,retail,446110,Walgreens,"29660 North Tatum Boulevard, Phoenix, AZ, 85331",,https://www.walgreens.com/locator/walgreens-29660+n+tatum+blvd-cave+creek-az-85331/id=3912,33.7547206,-111.9903664,,,w_169013354,"shop=chemist, brand=Walgreens"
"Carefree, AZ",,retail,445110,Safeway,"29834 North Cave Creek Road, Phoenix, AZ, 85331",+1 480-563-9335,https://local.safeway.com/safeway/az/cave-creek/29834-n-cave-creek-rd.html,33.7578923,-111.9918188,,,w_169013360,"shop=supermarket, brand=Safeway"
"Carefree, AZ",,retail,445120,Circle K,"23336 North Lake Pleasant Parkway, Peoria, AZ, 85383",,,33.6956722,-112.2765373,,,w_169603915,"shop=convenience, brand=Circle K"
"Carefree, AZ",,retail,445120,Cicle K,"20202 North 7th Avenue, Phoenix, AZ, 85027",,,33.6697881,-112.0836488,,,w_169762023,shop=convenience
"Carefree, AZ",,retail,446110,CVS Pharmacy,"5400 North Cave Creek Road;East Carefree Highway, Carefree, AZ, 85331",,,33.7999588,-111.9644598,,,w_183531512,"shop=chemist, brand=CVS Pharmacy"
