Location,Search Keyword,Segment,NAICS Code,Business Name,Address,Phone Number,Website,Latitude,Longitude,Rating,User Ratings,Place ID,Types
"Rio Verde, AZ",,retail,445110,Albertsons,"18411 North Cave Creek Road, Phoenix, AZ, 85032",+1 602-494-7388,https://local.albertsons.com/az/phoenix/18411-n-cave-creek-rd.html,33.6534775,-112.0295607,,,n_631702487,"shop=supermarket, brand=Albertsons"
"Rio Verde, AZ",,retail,452210,Target,"12602 North Paradise Village Parkway West, Phoenix, AZ, 85032",+1 602-953-2151,https://www.target.com/sl/paradise-valley/233,33.6003765,-111.989399,,,n_654574321,"shop=department_store, brand=Target"
"Rio Verde, AZ",,retail,445110,Sprouts Farmers Market,"12415 North Tatum Boulevard, Phoenix, AZ, 85032",+1 602-971-4177,https://www.sprouts.com/store/az/phoenix/paradise-valley/,33.5995046,-111.978748,,,n_706931745,"shop=supermarket, brand=Sprouts Farmers Market"
"Rio Verde, AZ",,retail,445110,Safeway,"3132 East Camelback Road, Phoenix, AZ, 85016",+1 602-955-6455,https://local.safeway.com/safeway/az/phoenix/3132-e-camelback-rd.html,33.51122,-112.0147691,,,n_903327798,"shop=supermarket, brand=Safeway"
"Rio Verde, AZ",,retail,446120,Ulta Beauty,"9019 East Talking Stick Way, Scottsdale, AZ, 85250",+1 480-905-1099,https://www.ulta.com/stores/scottsdale-az-33,33.5375487,-111.8876565,,,n_1070143659,"shop=cosmetics, brand=Ulta Beauty"
"Rio Verde, AZ",,retail,445110,Albertsons,"6965 North Hayden Road, Scottsdale, AZ, 85250",+1 480-991-9707,https://local.albertsons.com/az/scottsdale/6965-n-hayden-rd.html,33.5375138,-111.906255,,,n_1079350210,"shop=supermarket, brand=Albertsons"
"Rio Verde, AZ",,retail,452319,Dollar Tree,"3131 East Thunderbird Road, Phoenix, AZ, 85032",+1-602-613-2603,https://locations.dollartree.com/az/phoenix/3131-e-thunderbird-rd,33.6098352,-112.014665,,,n_1140259220,"shop=variety_store, brand=Dollar Tree"
"Rio Verde, AZ",,retail,445110,Trader Joe's,"6202 North Scottsdale Road, Paradise Valley, AZ, 85253",+1 480-948-9886,https://www.traderjoes.com,33.5290131,-111.927455,,,n_1592989381,"shop=supermarket, brand=Trader Joe's"
"Rio Verde, AZ",,retail,445310,,,,,33.4153247,-111.5653911,,,n_1606736474,shop=alcohol
"Rio Verde, AZ",,retail,445110,Fry's Marketplace,"3246 East Bell Road, Phoenix, AZ, 85032",+1 602-765-4633,https://www.frysfood.com/stores/grocery/az/phoenix/32nd-st-bell-rd/660/00618,33.6418104,-112.01108,,,n_1680973812,"shop=supermarket, brand=Fry's Marketplace"
"Rio Verde, AZ",,retail,445120,7-Eleven,,,,33.6401882,-112.0045374,,,n_1680973983,"shop=convenience, brand=7-Eleven"
"Rio Verde, AZ",,retail,445110,Fry's Food and Drug,"4505 East Thomas Road, Phoenix, AZ, 85018",+1 602-952-1491,https://www.frysfood.com/stores/grocery/az/phoenix/44th-st-thomas/660/00135,33.4791949,-111.984154,,,n_1686021865,"shop=supermarket, brand=Fry's Food and Drug"
"Rio Verde, AZ",,retail,445120,Circle K,"620 East Carefree Highway, Phoenix, AZ, 85085",,,33.7998279,-112.0663068,,,n_2011584847,"shop=convenience, brand=Circle K"
"Rio Verde, AZ",,retail,446120,Beverly Nails and Spa,"849 North Dobson Road, Mesa, AZ, 85201",,,33.4332695,-111.86895,,,n_2082893740,shop=beauty
"Rio Verde, AZ",,retail,445120,4 Son's Chevron,,,,33.5820634,-112.0134726,,,n_2130147115,"shop=convenience, operator=4 Son's Chevron"
"Rio Verde, AZ",,retail,445110,Bashas',,,,33.5834965,-112.0117397,,,n_2181863598,"shop=supermarket, brand=Bashas'"
"Rio Verde, AZ",,retail,452210,American Freight,,+1-602-482-0950,,33.5956609,-112.012463,,,n_2181863608,"shop=department_store, brand=American Freight"
"Rio Verde, AZ",,retail,452210,TJ Maxx,"4511 East Cactus Road, Phoenix, AZ, 85032",+1-602-953-2970,,33.5985706,-111.9865212,,,n_2181863614,"shop=department_store, brand=TJ Maxx"
"Rio Verde, AZ",,retail,445120,,"7949 East Thomas Road, Scottsdale, AZ, 85251",,,33.4799357,-111.909383,,,n_2206162533,shop=convenience
"Rio Verde, AZ",,retail,445120,Pinnacle Peak General Store,,,https://www.pinnaclepeakgeneralstore.com/,33.6979985,-111.8929573,,,n_2207550120,shop=convenience
"Rio Verde, AZ",,retail,446120,Celebrity Tanning,"1901 South Signal Butte Road, Mesa, AZ, 85209",,,33.3812911,-111.5988997,,,n_2216786618,shop=beauty
"Rio Verde, AZ",,retail,452319,Dollar General,"725 West Apache Trail, Apache Junction, AZ, 85120",+1 480 288 8430,https://www.dollargeneral.com/store-directory/az/apache-junction/6710,33.4134607,-111.5535768,,,n_2231361026,"shop=variety_store, brand=Dollar General"
"Rio Verde, AZ",,retail,445120,fastmarket,"719 East Thunderbird Road, Phoenix, AZ, 85022",,,33.6070868,-112.0644349,,,n_2321311627,shop=convenience
"Rio Verde, AZ",,retail,445120,Fast Market,"20205 North Cave Creek Road, Phoenix, AZ, 85024",,,33.6699542,-112.0302378,,,n_2488946293,shop=convenience
"Rio Verde, AZ",,retail,453110,Acacia Flowers,,,,33.5972603,-112.0137043,,,n_2489922042,shop=florist
"Rio Verde, AZ",,retail,446120,Regal Nails,"2555 West Apache Trail, Apache Junction, AZ, 85220",+1 480 288 9690,https://regalnails.com/,33.4136489,-111.574773,,,n_2666374551,"shop=beauty, brand=Regal Nails"
"Rio Verde, AZ",,retail,452319,Dollar Tree,"2540 West Apache Trail, Apache Junction, AZ, 85120",+1 480 366 6815,https://www.dollartree.com/locations/az/apache-junction/3719/,33.4162956,-111.5734355,,,n_2684615474,"shop=variety_store, brand=Dollar Tree"
"Rio Verde, AZ",,retail,445110,Fry's Food and Drug,,,,33.6391116,-112.064301,,,n_2699343661,"shop=supermarket, brand=Fry's Food and Drug"
"Rio Verde, AZ",,retail,452319,Tropic Zone,"820 East Greenway Parkway, Phoenix, AZ, 85022",,,33.6380404,-112.062989,,,n_2699349687,shop=variety_store
"Rio Verde, AZ",,retail,453991,Herb n' Legend,"830 East Greenway Parkway, Phoenix, AZ, 85022",,,33.6380945,-112.062777,,,n_2699350480,shop=tobacco
"Rio Verde, AZ",,retail,445120,,"6324 East Greenway Road, Phoenix, AZ, 85254",,,33.626452,-111.943451,,,n_2755635608,shop=convenience
"Rio Verde, AZ",,retail,452210,Big Lots,"10603 East Main Street, Mesa, AZ, 85120",+1 480-984-7161,https://local.biglots.com/az/apache-junction/10603-e-apache-trail,33.413572,-111.601983,,,n_2810118310,"shop=department_store, brand=Big Lots"
"Rio Verde, AZ",,retail,452319,99 Cents Only Stores,"7919 East Thomas Road, Scottsdale, AZ, 85251",,https://locations.99only.com/az/scottsdale/discount-store-164.html,33.4790184,-111.9100276,,,n_2819232270,"shop=variety_store, brand=99 Cents Only Stores"
"Rio Verde, AZ",,retail,446120,,"3109 East Cactus Road, Phoenix, AZ, 85028",,,33.5964538,-112.0148321,,,n_2866844222,shop=beauty
"Rio Verde, AZ",,retail,452210,Beall's Outlet,"725 West Apache Trail, Apache Junction, AZ, 85120",+1 480 983 6112,https://www.beallsoutlet.com/,33.4134737,-111.553154,,,n_2881862760,"shop=department_store, brand=Bealls"
"Rio Verde, AZ",,retail,452319,99 Cents Only Stores,"3003 West Apache Trail, Apache Junction, AZ, 85120",,https://locations.99only.com/az/apachejunction/discount-store-219.html,33.413871,-111.578296,,,n_2946898986,"shop=variety_store, brand=99 Cents Only Stores"
"Rio Verde, AZ",,retail,445120,,"5550 East Mckellips Road, Mesa, AZ, 85215",,,33.4522571,-111.7106263,,,n_3189511752,shop=convenience
"Rio Verde, AZ",,retail,445120,Circle K,"13801 North Tatum Boulevard, Phoenix, AZ, 85032",,,33.6118426,-111.977424,,,n_3399307607,"shop=convenience, brand=Circle K"
"Rio Verde, AZ",,retail,452210,JCPenney,"4510 East Cactus Road, Phoenix, AZ, 85032",,,33.6018923,-111.986445,,,n_3399307613,"shop=department_store, brand=JCPenney"
"Rio Verde, AZ",,retail,445120,Safeway,,,,33.625655,-111.9773132,,,n_3399307618,shop=convenience
"Rio Verde, AZ",,retail,446120,Charming Nails,"183 West Apache Trail, Apache Junction, AZ, 85120",+1 480 288 4899,,33.4119829,-111.5482175,,,n_3661315345,shop=beauty
"Rio Verde, AZ",,retail,445120,,,,,33.4143931,-111.8578932,,,n_3709672594,shop=convenience
"Rio Verde, AZ",,retail,453991,AJ Tobacco & Liquor,"1601 West Apache Trail, Apache Junction, AZ, 85120",+1 480 983 5383,http://ajtobaccoliquor.com/,33.4148272,-111.5636801,,,n_3855973139,shop=tobacco
"Rio Verde, AZ",,retail,445110,Yasha From Russia,"10240 North 32nd Street, Phoenix, AZ, 85028",+1-602-347-6055,http://yashafromrussia.biz/,33.580415,-112.013317,,,n_4194666182,shop=supermarket
"Rio Verde, AZ",,retail,445110,Yusef's Middle Eastern Grocery and Deli,,,,33.6257146,-112.0312727,,,n_4196486501,shop=supermarket
"Rio Verde, AZ",,retail,446120,Nizhóní Spa,"185 North Apache Trail, Apache Junction, AZ, 85120",+1 480 669 0920,http://nizhonispa.com/,33.4166434,-111.5478344,,,n_4295770180,"shop=beauty, operator=Nizhoni Spa, LLC"
"Rio Verde, AZ",,retail,446120,Old Fashion Pedicures with Roxanne,"2125 West Apache Trail, Apache Junction, AZ, 85120",,,33.4146846,-111.569476,,,n_4336415804,shop=beauty
"Rio Verde, AZ",,retail,445310,Cellars Fine Wine & Spirits,"10660 North 32nd Street, Phoenix, AZ, 85028",,,33.5838369,-112.0137949,,,n_4341626928,shop=alcohol
"Rio Verde, AZ",,retail,445120,Circle K,"9618 North Saguaro Boulevard, Fountain Hills, AZ, 85268",+14808378348,,33.5739393,-111.714125,,,n_4438369517,"shop=convenience, brand=Circle K"
"Rio Verde, AZ",,retail,445120,,"6930 East Thomas Road, Scottsdale, AZ, 85251",,,33.4807842,-111.930929,,,n_4455885507,shop=convenience
"Rio Verde, AZ",,retail,452210,Stagecoach Village,East Cave Creek Road,,,33.8301357,-111.9287275,,,n_4517227091,shop=department_store
"Rio Verde, AZ",,retail,446120,The Art of Shaving,,,,33.5034265,-111.9269632,,,n_4586165589,shop=beauty
"Rio Verde, AZ",,retail,445310,Winery,,,,33.4993226,-111.9277995,,,n_4840570389,shop=wine
"Rio Verde, AZ",,retail,446120,The Perfume Shoppe,,,,33.4996011,-111.9275586,,,n_4840570411,shop=perfumery
"Rio Verde, AZ",,retail,446120,Queens Nails,,,,33.50029,-111.9264021,,,n_4840570438,shop=beauty
"Rio Verde, AZ",,retail,446120,Ramon Bacaui,,,,33.4972085,-111.9278921,,,n_4860843142,shop=beauty
"Rio Verde, AZ",,retail,446120,Steven Paul,,,,33.496117,-111.9292173,,,n_4860843164,shop=beauty
"Rio Verde, AZ",,retail,446120,The Sparkle Bar,,,,33.4967372,-111.9290876,,,n_4860843177,shop=beauty
"Rio Verde, AZ",,retail,446120,Jasmin Nails,"5901 East McKellips Road, Mesa, AZ, 85215",,,33.4506372,-111.7039262,,,n_4915756054,shop=beauty
"Rio Verde, AZ",,retail,453991,Power Smoke Shop,"6671 East Baseline Road, Gilbert, AZ, 85206",,,33.3785908,-111.690267,,,n_4996391852,shop=tobacco
"Rio Verde, AZ",,retail,446120,C-K Nails,"458 North Alma School Road, Mesa, AZ, 85201",,,33.423619,-111.8568086,,,n_5023100937,shop=beauty
"Rio Verde, AZ",,retail,445120,Party Supplies,"16876 North Cave Creek Road, Phoenix, AZ, 85032",,,33.6392079,-112.0313119,,,n_5060450095,shop=convenience
"Rio Verde, AZ",,retail,452319,99 Cents Only Stores,"16880 North Cave Creek Road, Phoenix, AZ, 85022",,https://locations.99only.com/az/phoenix/discount-store-166.html,33.6391132,-112.032353,,,n_5060450096,"shop=variety_store, brand=99 Cents Only Stores"
"Rio Verde, AZ",,retail,446120,OG Beauty,,,,33.4929433,-111.9287778,,,n_5173661295,shop=beauty
"Rio Verde, AZ",,retail,446120,Applause!,,,,33.4923663,-111.9248282,,,n_5173662855,shop=beauty
"Rio Verde, AZ",,retail,446120,Brandy’s Wig Outlet,,,,33.4941551,-111.9241042,,,n_5173662894,shop=beauty
"Rio Verde, AZ",,retail,445310,Aridus Wine Company,"7173 East Main Street, Scottsdale, AZ, 85251",,,33.4929287,-111.9267689,,,n_5173662899,shop=wine
"Rio Verde, AZ",,retail,446120,Starwood Nails & Spa,"95 South Idaho Road, Apache Junction, AZ, 85119",+1 480 671 5053,,33.4142373,-111.5449911,,,n_5284178928,shop=beauty
"Rio Verde, AZ",,retail,445120,Fry's Food Stores,,,,33.6540332,-112.0887925,,,n_5423234078,shop=convenience
"Rio Verde, AZ",,retail,446120,Facials by Ann,,,,33.6260869,-111.9199341,,,n_5476945171,shop=beauty
"Rio Verde, AZ",,retail,446120,Organic Findings,,,,33.6260489,-111.9184454,,,n_5476945176,shop=beauty
"Rio Verde, AZ",,retail,446191,Foods 2000 Real Investment,,,,33.6264353,-111.9195156,,,n_5476945192,shop=health_food
"Rio Verde, AZ",,retail,445292,Aunt Abby's Confections,,+1-480-607-6827,http://www.auntabbys.com,33.5855412,-111.927631,,,n_5595673589,shop=confectionery
"Rio Verde, AZ",,retail,446120,Luana's Hair Hut,"10704 East Apache Trail, Apache Junction, AZ, 85120",,,33.4155472,-111.6000323,,,n_5649882477,shop=beauty
"Rio Verde, AZ",,retail,445120,,,,,33.6116112,-111.8642845,,,n_5766938838,shop=convenience
"Rio Verde, AZ",,retail,445120,,"10180 North Fort Mcdowell Road, Fort Mcdowell, AZ, 85264",,,33.5788295,-111.6778549,,,n_5855898018,shop=convenience
"Rio Verde, AZ",,retail,446120,R & R Nails,"16605 East Palisades Boulevard, Fountain Hills, AZ, 85268",+14808161235,,33.6067648,-111.7217537,,,n_6010725304,shop=beauty
"Rio Verde, AZ",,retail,446120,Deluxe Nail & Spa,"16650 East Palisades Boulevard, Fountain Hills, AZ, 85268",+14808164036,,33.6094054,-111.7206941,,,n_6012635637,shop=beauty
"Rio Verde, AZ",,retail,446120,You Need Nails,"16225 East Palisades Boulevard, Fountain Hills, AZ, 85268",,,33.6104536,-111.727573,,,n_6019970896,shop=beauty
"Rio Verde, AZ",,retail,446191,Hi-Health,"16815 East Shea Boulevard, Fountain Hills, AZ, 85268",+14808373010,,33.5746328,-111.7194869,,,n_6034969906,shop=health_food
"Rio Verde, AZ",,retail,446120,European Nails & Spa,"16815 East Shea Boulevard, Fountain Hills, AZ, 85268",+14808367644,,33.5748764,-111.7197081,,,n_6034969909,shop=beauty
"Rio Verde, AZ",,retail,446120,Cut Throat,"7310 East Stetson Drive, Scottsdale, AZ, 85251",,,33.499699,-111.9238576,,,n_6135741486,shop=cosmetics
"Rio Verde, AZ",,retail,446120,Diva Nails & Lash,"6204 North Scottsdale Road, Paradise Valley, AZ, 85253",+1-480-922-5512,https://www.divanailsandlashaz.com/,33.5295821,-111.9275538,,,n_6150911985,shop=beauty
"Rio Verde, AZ",,retail,446120,Orchid Nail & Spa,,+1-480-357-6966,https://www.orchidnailandspa.net/,33.3633367,-111.669095,,,n_6228867823,shop=beauty
"Rio Verde, AZ",,retail,453991,DIY Smoke Shop,"1225 West Main Street, Mesa, AZ, 85201;85210",,,33.4128051,-111.857228,,,n_6249705103,shop=tobacco
"Rio Verde, AZ",,retail,445110,Smart & Final Extra!,,,,33.612494,-111.976431,,,n_6249811682,"shop=supermarket, brand=Smart & Final"
"Rio Verde, AZ",,retail,453110,Tatum Flowers,,,,33.6113266,-111.9771578,,,n_6249811688,shop=florist
"Rio Verde, AZ",,retail,446120,Sunchain Tanning Paradise Valley,,,,33.6112181,-111.977074,,,n_6249811689,shop=beauty
"Rio Verde, AZ",,retail,453991,Royal Tobacco,"2837 North Power Road, Mesa, AZ, 85215",,,33.4680945,-111.682788,,,n_6249984247,shop=tobacco
"Rio Verde, AZ",,retail,446120,French Nails,"2824 North Power Road, Mesa, AZ, 85215",,,33.4671506,-111.6854861,,,n_6250034016,shop=beauty
"Rio Verde, AZ",,retail,446120,La Vie En Nail Spa,,,,33.4725709,-111.7017511,,,n_6250121325,shop=beauty
"Rio Verde, AZ",,retail,453110,Steward Flowers,"725 West Apache Trail, Apache Junction, AZ, 85120",+1 480 983 7040,https://www.stewardflowers.com/,33.4138626,-111.554522,,,n_6350796684,shop=florist
"Rio Verde, AZ",,retail,445210,Chop It Up Meat Shop,"725 West Apache Trail, Apache Junction, AZ",+1 480 625 1589,https://www.chopitupmeats.com/,33.4143543,-111.5545156,,,n_6350797589,shop=butcher
"Rio Verde, AZ",,retail,446120,The Beauty Stop,"1678 West Superstition Boulevard, Apache Junction, AZ, 85120",+1 480 288 5354,,33.4226758,-111.5638224,,,n_6357165489,shop=beauty
"Rio Verde, AZ",,retail,446120,Skin Therapy Redefined,"350 West Superstition Boulevard, Apache Junction, AZ, 85120",+1 480 202 0424,http://www.cynthiabranson.skincaretherapy.net/,33.4225424,-111.5501562,,,n_6357165562,shop=beauty
"Rio Verde, AZ",,retail,446120,Desert Dazzle,"100 West Apache Trail, Apache Junction, AZ, 85120",+1 480 671 0916,,33.4139332,-111.5468814,,,n_6394923576,shop=beauty
"Rio Verde, AZ",,retail,446120,Millennium Day Spa & Salon,"7609 East Pinnacle Peak Road, Scottsdale, AZ, 85255",(480) 513-9733,http://mdssalon.com/,33.6975628,-111.9156632,,,n_6399803524,shop=beauty
"Rio Verde, AZ",,retail,452210,Ross,"185 West Apache Trail, Apache Junction, AZ, 85120",+1 480-288-5050,,33.4122906,-111.5488148,,,n_6426933349,"shop=department_store, brand=Ross"
"Rio Verde, AZ",,retail,445120,,,,,33.6112003,-112.0128522,,,n_6496108690,shop=convenience
"Rio Verde, AZ",,retail,453991,Tobacco & Supplies,"1000 West Apache Trail, Apache Junction, AZ, 85120",+1 480 288 0454,,33.4157106,-111.557792,,,n_6496131774,shop=tobacco
"Rio Verde, AZ",,retail,445120,Circle K,"4304 East Cactus Road, Phoenix, AZ, 85032",,,33.5991548,-111.98981,,,n_6501194993,"shop=convenience, brand=Circle K"
"Rio Verde, AZ",,retail,453991,Mojo's Smoke Palace,"1211 North Country Club Drive, Mesa, AZ, 85201",(480) 655-9100,,33.4364665,-111.839219,,,n_6625123947,shop=tobacco
"Rio Verde, AZ",,retail,453991,Mojo's Smoke Palace,"1057 North Mesa Drive, Mesa, AZ, 85201",602-441-4185,,33.4347242,-111.8222464,,,n_6625123948,shop=tobacco
"Rio Verde, AZ",,retail,446120,Jeniza Nails 2,,,,33.6186583,-111.8962167,,,n_6765225504,shop=beauty
"Rio Verde, AZ",,retail,446120,Palm Beach Tan,,,https://palmbeachtan.com/locations/AZ/Scottsdale-North-Northsight-Boulevard,33.6186858,-111.89644,,,n_6765225505,"shop=beauty, brand=Palm Beach Tan"
"Rio Verde, AZ",,retail,446120,Classy Nails Salon Spa,,,,33.579476,-111.8872256,,,n_6765227904,shop=beauty
"Rio Verde, AZ",,retail,445310,Liquor Vault,,,,33.5817495,-111.8806547,,,n_6765227908,shop=alcohol
"Rio Verde, AZ",,retail,445110,Fry's Food and Drug,"29455 North Cave Creek Road, Phoenix, AZ, 85331",+1 480-538-7130,https://www.frysfood.com/stores/grocery/az/cave-creek/tatum-cave-creek/660/00474,33.7524897,-111.990638,,,n_6791889237,"shop=supermarket, brand=Fry's Food and Drug"
"Rio Verde, AZ",,retail,453991,Xmoke City,"3061 West Apache Trail, Apache Junction, AZ, 85120",,,33.4140126,-111.5792422,,,n_6797167001,shop=tobacco
"Rio Verde, AZ",,retail,446120,Pamne's Nails,"3061 West Apache Trail, Apache Junction, AZ, 85120",+1 480 982 4202,,33.4140127,-111.5791222,,,n_6797167002,shop=beauty
"Rio Verde, AZ",,retail,446120,Cuccio Nail Spa,"10861 East Baseline Road, Mesa, AZ, 85209",+1 480 380 2626,,33.378336,-111.5996173,,,n_6910947033,shop=beauty
"Rio Verde, AZ",,retail,446120,Cosmo Nails,"9124 East Main Street, Mesa, AZ, 85207",+1 480 358 9988,http://cosmonailsmesa.com/,33.4165767,-111.6344865,,,n_6961084383,shop=beauty
"Rio Verde, AZ",,retail,445110,American Discount Foods,"9333 East Main Street, Mesa, AZ, 85207",+1 480 454 4132,https://www.americandiscountfoodsaz.com/,33.4146079,-111.6285587,,,n_6968160286,shop=supermarket
"Rio Verde, AZ",,retail,453991,Harley's Smoke Shop,"9333 East Main Street, Mesa, AZ, 85207",+1 480 490 1805,https://harleys-smoke-shop.business.site/,33.4147828,-111.6279449,,,n_6968160294,shop=tobacco
"Rio Verde, AZ",,retail,445210,Jacob's Carniceria,"9333 East Main Street, Mesa, AZ, 85207",,,33.4146075,-111.6281643,,,n_6968160301,shop=butcher
"Rio Verde, AZ",,retail,446120,Paradise Nails Spa 1,"10855 North Tatum Boulevard, Phoenix, AZ, 85028",,,33.5858824,-111.9768664,,,n_7257118387,shop=beauty
"Rio Verde, AZ",,retail,452210,Ross,"10835 North Tatum Boulevard, Phoenix, AZ, 85028",+1 480-922-7785,,33.5851763,-111.9758042,,,n_7257118390,"shop=department_store, brand=Ross"
"Rio Verde, AZ",,retail,446120,Palace Nail Lounge - Mesa,"1940 West Rio Salado Parkway, Mesa, AZ, 85201",,,33.4299089,-111.873392,,,n_7276054823,shop=beauty
"Rio Verde, AZ",,retail,446120,Cuccio Nails Spa,,,,33.3782643,-111.5997491,,,n_7276128857,shop=beauty
"Rio Verde, AZ",,retail,446120,Sephora,"1900 East Rio Salado Parkway, Tempe, AZ, 85281",,,33.4303421,-111.902478,,,n_7277563982,"shop=cosmetics, brand=Sephora"
"Rio Verde, AZ",,retail,446120,Sephora,,,,33.3897064,-111.691331,,,n_7516733873,"shop=cosmetics, brand=Sephora"
"Rio Verde, AZ",,retail,446120,Happy Feet Nails & Spa,,,,33.4649344,-111.6856485,,,n_7527965062,shop=beauty
"Rio Verde, AZ",,retail,453110,Red Mountain Flower Delivery,,,,33.4649446,-111.6860029,,,n_7527965064,shop=florist
"Rio Verde, AZ",,retail,453991,RJ's Cigars,,,,33.4648611,-111.6865064,,,n_7527965065,shop=tobacco
"Rio Verde, AZ",,retail,446120,Nail 8003 Waxing,,,,33.395404,-111.6842464,,,n_7550363105,shop=beauty
"Rio Verde, AZ",,retail,446120,Sunchain,,,,33.3948124,-111.6840346,,,n_7550363113,shop=beauty
"Rio Verde, AZ",,retail,453991,HM Smoke Shop,,,,33.3941137,-111.6829422,,,n_7550363145,shop=tobacco
"Rio Verde, AZ",,retail,446120,Nails 20/20,,,,33.4088065,-111.6819329,,,n_7550494687,shop=beauty
"Rio Verde, AZ",,retail,446120,Klassy Nails & Spa,"3701 East Baseline Road, Gilbert, AZ, 85234",,,33.3784255,-111.7522125,,,n_7556880925,shop=beauty
"Rio Verde, AZ",,retail,446120,Gelish Nails,"3425 East Baseline Road, Gilbert, AZ, 85234",,,33.3786684,-111.7575889,,,n_7556965650,shop=beauty
"Rio Verde, AZ",,retail,446120,Valley Nails & Spa,"1939 South Val Vista Drive, Mesa, AZ, 85204",,,33.3806036,-111.753455,,,n_7557868590,shop=beauty
"Rio Verde, AZ",,retail,445310,Nekter Juice Bar,"3440 East Baseline Road, Mesa, AZ, 85204",,,33.3797252,-111.7559066,,,n_7557927552,shop=beverages
"Rio Verde, AZ",,retail,446120,European Wax Center,"3426 East Baseline Road, Mesa, AZ, 85204",,https://locations.waxcenter.com/az/mesa/mesa-gilbert-0035.html,33.3810871,-111.7572078,,,n_7557927565,"shop=beauty, brand=European Wax Center"
"Rio Verde, AZ",,retail,446120,Bath & Body Works,"1660 South Val Vista Drive, Mesa, AZ, 85204",,,33.3846022,-111.7567537,,,n_7557942160,"shop=cosmetics, brand=Bath & Body Works"
"Rio Verde, AZ",,retail,446120,Light Rx,,,,33.385293,-111.7564614,,,n_7557942186,shop=beauty
"Rio Verde, AZ",,retail,446120,Vanity Nail Bar,"3460 East Southern Avenue, Mesa, AZ, 85204",,,33.3949952,-111.75584,,,n_7560930245,shop=beauty
"Rio Verde, AZ",,retail,445310,Water N Ice,"3544 East Southern Avenue, Mesa, AZ, 85204",,,33.3948314,-111.7545123,,,n_7560930260,shop=beverages
"Rio Verde, AZ",,retail,446120,Kim Nails,"3544 East Southern Avenue, Mesa, AZ, 85204",,,33.394827,-111.7544416,,,n_7560930261,shop=beauty
"Rio Verde, AZ",,retail,446120,Lotus Nails,"3630 East Southern Avenue, Mesa, AZ, 85206",,,33.3950078,-111.751556,,,n_7560933098,shop=beauty
"Rio Verde, AZ",,retail,446120,Holly's Nails,,,,33.423255,-111.7523598,,,n_7561016732,shop=beauty
"Rio Verde, AZ",,retail,453991,Tobacco 4 Less,,,,33.4234134,-111.7523317,,,n_7561016733,shop=tobacco
"Rio Verde, AZ",,retail,453991,AW Smoke Shop,"1242 East McKellips Road, Mesa, AZ, 85203",,,33.4521229,-111.8034916,,,n_7567852709,shop=tobacco
"Rio Verde, AZ",,retail,446120,Daisy Nails,"1239 East McKellips Road, Mesa, AZ, 85203",,,33.4492279,-111.8033078,,,n_7567878678,shop=beauty
"Rio Verde, AZ",,retail,446120,Spa & Nail Creations,"1229 East McKellips Road, Mesa, AZ, 85203",,,33.4511398,-111.8030965,,,n_7567878725,shop=beauty
"Rio Verde, AZ",,retail,446120,Nails of the World,"425 North Stapley Drive, Mesa, AZ, 85203",,,33.4229297,-111.803639,,,n_7570441772,shop=beauty
"Rio Verde, AZ",,retail,445292,Dulceria La Esperanza,,,,33.4227634,-111.7987232,,,n_7570441783,shop=confectionery
"Rio Verde, AZ",,retail,453991,Smoke Shop & Cellular,,,,33.4228569,-111.7987256,,,n_7570441784,shop=tobacco
"Rio Verde, AZ",,retail,453991,EZ's Smoke Shop,"27 South Stapley Drive, Mesa, AZ, 85204",,,33.4142892,-111.804901,,,n_7571683950,shop=tobacco
"Rio Verde, AZ",,retail,445210,Carniceria La Constancia,"1109 East Main Street, Mesa, AZ, 85203",,,33.4146117,-111.807295,,,n_7571718890,shop=butcher
"Rio Verde, AZ",,retail,453991,GMOMMY'S SMOKE SHOP,,,,33.4074746,-111.804607,,,n_7571871301,shop=tobacco
"Rio Verde, AZ",,retail,445120,M&M Market,,,,33.4004168,-111.8058705,,,n_7571871421,shop=convenience
"Rio Verde, AZ",,retail,445292,Dulceria los Chiquitines,,,,33.4003483,-111.8058729,,,n_7571871451,shop=confectionery
"Rio Verde, AZ",,retail,453991,AW Smoke Shop,"1232 East Southern Avenue, Mesa, AZ, 85204",,,33.3937589,-111.804058,,,n_7571892978,shop=tobacco
"Rio Verde, AZ",,retail,446120,iSpa Nails,"1116 South Stapley Drive, Mesa, AZ, 85204",,,33.3944699,-111.806347,,,n_7571893112,shop=beauty
"Rio Verde, AZ",,retail,445310,7 Plus Agua,"1245 South Stapley Drive, Mesa, AZ, 85204",,,33.3917917,-111.8044629,,,n_7571905427,shop=beverages
"Rio Verde, AZ",,retail,446120,4K Nails & Spa,"1939 East Baseline Road, Gilbert, AZ, 85233",,,33.3771834,-111.789434,,,n_7596559971,shop=beauty
"Rio Verde, AZ",,retail,446120,Margarita Nails & Spa,"1851 East Baseline Road, Gilbert, AZ, 85233",,,33.3784202,-111.7915447,,,n_7596627462,shop=beauty
"Rio Verde, AZ",,retail,446120,MAKA Beauty Systems,"1916 South Gilbert Road, Mesa, AZ, 85204",,,33.3802305,-111.7893808,,,n_7596633812,shop=beauty
"Rio Verde, AZ",,retail,446120,Classique Nail Atelier,"2401 East Baseline Road, Gilbert, AZ, 85234",,,33.3784389,-111.7792577,,,n_7596746603,shop=beauty
"Rio Verde, AZ",,retail,446120,5 Star Brows Threading Salon,,,,33.3773505,-111.7871689,,,n_7596746669,shop=beauty
"Rio Verde, AZ",,retail,446120,K N Nails,,,,33.3930651,-111.7866142,,,n_7597150689,shop=beauty
"Rio Verde, AZ",,retail,446120,DL Nails,"1356 South Gilbert Road, Mesa, AZ, 85204",,,33.3902999,-111.789689,,,n_7597193633,shop=beauty
"Rio Verde, AZ",,retail,446120,Avon,"1230 South Gilbert Road, Mesa, AZ, 85204",,,33.3929504,-111.7905043,,,n_7597193696,"shop=cosmetics, brand=Avon"
"Rio Verde, AZ",,retail,445310,Water Mart,"1230 South Gilbert Road, Mesa, AZ, 85204",,,33.3929552,-111.790656,,,n_7597193697,shop=beverages
"Rio Verde, AZ",,retail,446120,Diane's Fabulous Nails,"925 South Gilbert Road, Mesa, AZ, 85204",,,33.3981199,-111.787045,,,n_7597371255,shop=beauty
"Rio Verde, AZ",,retail,453991,DJ's Smoke Shop,"529 South Gilbert Road, Mesa, AZ, 85204",,,33.4055771,-111.788031,,,n_7597410087,shop=tobacco
"Rio Verde, AZ",,retail,453110,Lena's Flowers & Catering,"330 South Gilbert Road, Mesa, AZ, 85204",,,33.4096612,-111.7891731,,,n_7597420985,shop=florist
"Rio Verde, AZ",,retail,445310,Shop Kwik Deli,"323 North Gilbert Road, Mesa, AZ, 85203",,,33.4214325,-111.787604,,,n_7636080877,shop=alcohol
"Rio Verde, AZ",,retail,453110,Pop N Daisies,"1950 East University Drive, Mesa, AZ, 85203",,,33.4233614,-111.788822,,,n_7636208842,shop=florist
"Rio Verde, AZ",,retail,446120,Lexor Nails & Spa,"1900 East University Drive, Mesa, AZ, 85203",,,33.4242218,-111.788635,,,n_7636208847,shop=beauty
"Rio Verde, AZ",,retail,446120,Nail Jewelry,"1949 East Brown Road, Mesa, AZ, 85203",,,33.4356349,-111.788986,,,n_7636208923,shop=beauty
"Rio Verde, AZ",,retail,446120,Club Tanning,"1925 East Brown Road, Mesa, AZ, 85203",,,33.4366027,-111.789695,,,n_7636208929,shop=beauty
"Rio Verde, AZ",,retail,453110,Desert Poppy Floral Studio,"8880 East Via Linda, Scottsdale, AZ, 85258",,,33.5697034,-111.8901875,,,n_7636234010,shop=florist
"Rio Verde, AZ",,retail,445310,Water & Ice,,,,33.450542,-111.7871685,,,n_7638966995,shop=beverages
"Rio Verde, AZ",,retail,452319,Dollar General,"330 East Brown Road, Mesa, AZ, 85201",,https://www.dollargeneral.com/store-directory/az/mesa/14509,33.4363981,-111.823634,,,n_7640733751,"shop=variety_store, brand=Dollar General"
"Rio Verde, AZ",,retail,445310,Water & Ice,"1146 North Mesa Drive, Mesa, AZ, 85201",,,33.4363714,-111.823184,,,n_7640733752,shop=beverages
"Rio Verde, AZ",,retail,446120,Solar Nails,"323 East Brown Road, Mesa, AZ, 85201",,,33.4343635,-111.8242558,,,n_7640752747,shop=beauty
"Rio Verde, AZ",,retail,445110,Quick Cash Market,,,,33.4353228,-111.8222259,,,n_7640752768,shop=supermarket
"Rio Verde, AZ",,retail,445310,HD Water Outlet,"1119 South Mesa Drive, Mesa, AZ, 85210",+1 480-834-8983,,33.3945553,-111.822319,,,n_7650299885,shop=beverages
"Rio Verde, AZ",,retail,446120,Dasha Nails & Spa,"1119 South Mesa Drive, Mesa, AZ, 85210",+1 480-659-5141,,33.3947106,-111.8223268,,,n_7650299886,shop=beauty
"Rio Verde, AZ",,retail,445110,Mercado y Carniceria El Rancho,"303 East Southern Avenue, Mesa, AZ, 85210",+1 480-610-1084,,33.3928853,-111.824784,,,n_7650340679,shop=supermarket
"Rio Verde, AZ",,retail,446120,Mona's Beauty Supply,"347 East Southern Avenue, Mesa, AZ, 85210",+1 480-709-1167,,33.3919313,-111.8233128,,,n_7650352893,shop=beauty
"Rio Verde, AZ",,retail,452319,San Miguel Arcangel Yerberia,"535 East Southern Avenue, Mesa, AZ, 85204",+1 480-404-2547,,33.3928426,-111.8193337,,,n_7650352994,shop=general
"Rio Verde, AZ",,retail,445310,Super Stop Mesa Liquor Store,"321 West McKellips Road, Mesa, AZ, 85201",,,33.4511428,-111.8381437,,,n_7706297190,shop=alcohol
"Rio Verde, AZ",,retail,453110,Arizona Flower Shop,"1530 North Country Club Drive, Mesa, AZ, 85201",,,33.4424964,-111.840597,,,n_7715134354,shop=florist
"Rio Verde, AZ",,retail,453110,Bloomers Flower & Gift Shop,,,,33.4427606,-111.8405956,,,n_7715134358,shop=florist
"Rio Verde, AZ",,retail,452319,Dollar Plus,,,,33.4266699,-111.8392828,,,n_7722358689,shop=variety_store
"Rio Verde, AZ",,retail,445210,Tortilleria y Carniceria Linda,,,,33.4262923,-111.8392933,,,n_7722358691,shop=butcher
"Rio Verde, AZ",,retail,445310,Planet Smoothie,"444 West Main Street, Mesa, 85210",,https://www.planetsmoothie.com/stores/mesa/18490,33.4153258,-111.8418391,,,n_7722833793,shop=beverages
"Rio Verde, AZ",,retail,446120,Alexis Beauty Shop,"624 West Broadway Road, Mesa, AZ, 85210",,,33.4081844,-111.8464144,,,n_7725581781,shop=beauty
"Rio Verde, AZ",,retail,445210,Carniceria El Potrero,"624 West Broadway Road, Mesa, AZ, 85210",,,33.4082009,-111.8455222,,,n_7725581785,shop=butcher
"Rio Verde, AZ",,retail,453991,Roll Over Smoke Shop,"1120 South Country Club Drive, Mesa, AZ, 85210",,,33.3945554,-111.8416551,,,n_7725629852,shop=tobacco
"Rio Verde, AZ",,retail,453991,Culture Smoke Shop,"1212 West University Drive, Mesa, AZ, 85201",,,33.4234054,-111.8568168,,,n_7762943586,shop=tobacco
"Rio Verde, AZ",,retail,445120,Clever Dollar,"1130 West University Drive, Mesa, AZ, 85201",,,33.4226664,-111.8552463,,,n_7762943625,shop=convenience
"Rio Verde, AZ",,retail,453991,Heavy Hitterz,"1130 West University Drive, Mesa, AZ, 85201",,,33.4226074,-111.8551935,,,n_7762943627,shop=tobacco
"Rio Verde, AZ",,retail,445310,Arizona Water Vendors,"250 South Mulberry, Mesa, AZ, 85202",,,33.4095925,-111.8611981,,,n_7771042549,shop=beverages
"Rio Verde, AZ",,retail,445310,Fiesta Liquor,"753 South Alma School Road, Mesa, AZ, 85210",,,33.4015307,-111.85666,,,n_7771397318,shop=alcohol
"Rio Verde, AZ",,retail,453110,Apache Junction Flowers,"1075 South Idaho Road, Apache Junction, AZ, 85119",+1 480 982 1851,http://apachejunctionflowers.com/,33.405888,-111.5453759,,,n_7777164779,shop=florist
"Rio Verde, AZ",,retail,445310,Water & Ice,"1140 North Higley Road, Mesa, AZ, 85205",,,33.4369803,-111.721474,,,n_7814204015,shop=beverages
"Rio Verde, AZ",,retail,453991,Triton Smoke Shop,"1140 North Higley Road, Mesa, AZ, 85205",,,33.4369803,-111.721131,,,n_7814204020,shop=tobacco
"Rio Verde, AZ",,retail,446120,Ibrow Threading,"5050 East University Drive, Mesa, AZ, 85205",,,33.4232194,-111.7216472,,,n_7818186356,shop=beauty
"Rio Verde, AZ",,retail,446120,Angel Touch Nails by Anne,"5050 East University Drive, Mesa, AZ, 85205",,,33.4235008,-111.7216508,,,n_7818186359,shop=beauty
"Rio Verde, AZ",,retail,446120,Posh Nails,"1125 South Higley Road, Mesa, AZ, 85206",,,33.3948532,-111.7187588,,,n_7818729640,shop=beauty
"Rio Verde, AZ",,retail,445310,Water N More,"1239 South Higley Road, Mesa, AZ, 85206",,,33.3920146,-111.7185339,,,n_7818740594,shop=beverages
"Rio Verde, AZ",,retail,453991,M&I Smoke Shop,"1239 South Higley Road, Mesa, AZ, 85206",,,33.3919249,-111.7185339,,,n_7818740595,shop=tobacco
"Rio Verde, AZ",,retail,446120,Higley Nails & Spa,"1239 South Higley Road, Mesa, AZ, 85206",,,33.391842,-111.718535,,,n_7818740596,shop=beauty
"Rio Verde, AZ",,retail,446120,Polish Nails,"1652 North Higley Road, Gilbert, AZ, 85234",,,33.380207,-111.724758,,,n_7821853756,shop=beauty
"Rio Verde, AZ",,retail,446120,L'mour Nails & Spa,"1496 North Higley Road, Gilbert, AZ, 85234",,,33.3773407,-111.7228743,,,n_7824003892,shop=beauty
"Rio Verde, AZ",,retail,446120,Embellish Nail & Spa,"3244 East Guadalupe Road, Gilbert, AZ, 85234",,,33.3666465,-111.720712,,,n_7824512192,shop=beauty
"Rio Verde, AZ",,retail,446120,Haute Nails Spa & Salon,,,,33.450977,-111.7725287,,,n_7866677697,shop=beauty
"Rio Verde, AZ",,retail,445310,Lindsay Water & Ice,"454 North Lindsay Road, Mesa, AZ, 85213",,,33.4244114,-111.77151,,,n_7876906170,shop=beverages
"Rio Verde, AZ",,retail,446120,Darling Nails & Spa,"454 North Lindsay Road, Mesa, AZ, 85213",,,33.4241863,-111.771506,,,n_7876906172,shop=beauty
"Rio Verde, AZ",,retail,445310,Alans Beer & Wine,,,,33.4086086,-111.770574,,,n_7879041913,shop=alcohol
"Rio Verde, AZ",,retail,446120,Lavern Nails & Spa,"2753 East Broadway Road, Mesa, AZ, 85204",,,33.4060068,-111.771573,,,n_7879086296,shop=beauty
"Rio Verde, AZ",,retail,453991,Cigarette & Cigar Outlet,"2753 East Broadway Road, Mesa, AZ, 85204",,,33.4061816,-111.771581,,,n_7879086298,shop=tobacco
"Rio Verde, AZ",,retail,445310,7 Plus Water,"2665 East Broadway Road, Mesa, AZ, 85204",,,33.4067002,-111.7734507,,,n_7879086309,shop=beverages
"Rio Verde, AZ",,retail,445120,Pop's Exotic Sodas and Snacks,,+1 602 761 0720,https://www.popsexotics.com/,33.4233216,-111.8393055,,,n_7903065281,shop=convenience
"Rio Verde, AZ",,retail,446120,Elegant Nails & Spa,"4425 East McKellips Road, Mesa, AZ, 85205",,,33.4492012,-111.7352342,,,n_7903806098,shop=beauty
"Rio Verde, AZ",,retail,446120,Sassy Wink Lashes,"1635 North Greenfield Road, Mesa, AZ, 85205",,,33.4455321,-111.7351201,,,n_7906227140,shop=beauty
"Rio Verde, AZ",,retail,446120,OBI Nails Salon,"1309 North Greenfield Road, Mesa, AZ, 85205",,,33.4394923,-111.735361,,,n_7907068588,shop=beauty
"Rio Verde, AZ",,retail,446120,Chase Nail's,"4446 East University Drive, Mesa, AZ, 85205",,,33.4238597,-111.7337816,,,n_7909873249,shop=beauty
"Rio Verde, AZ",,retail,445310,Water & Ice Mesa,,,,33.4222844,-111.7371941,,,n_7909873379,shop=beverages
"Rio Verde, AZ",,retail,453991,Tobacco & More,"63 North Greenfield Road, Mesa, AZ, 85205",,,33.4172937,-111.735819,,,n_7911122984,shop=tobacco
"Rio Verde, AZ",,retail,452319,Dollar Tree,"63 North Greenfield Road, Mesa, AZ, 85205",,https://www.dollartree.com/locations/az/mesa/5696/,33.4170275,-111.735804,,,n_7911122985,"shop=variety_store, brand=Dollar Tree"
"Rio Verde, AZ",,retail,446120,Portfolio Nails,"4448 East Main Street, Mesa, AZ, 85205",,,33.4168493,-111.733667,,,n_7911122988,shop=beauty
"Rio Verde, AZ",,retail,446120,Petal Fresh Nails Spa,,,,33.4142859,-111.7360346,,,n_7911217624,shop=beauty
"Rio Verde, AZ",,retail,446120,Jeff's Design Lines,,,,33.4077741,-111.7384223,,,n_7911217644,shop=beauty
"Rio Verde, AZ",,retail,446120,New Moon Nails,"4437 East Southern Avenue, Mesa, AZ, 85206",,,33.392032,-111.7355638,,,n_7911640162,shop=beauty
"Rio Verde, AZ",,retail,446120,TD Nail & Spa,"1246 South Greenfield Road, Mesa, AZ, 85206",,,33.392114,-111.7373574,,,n_7911640274,shop=beauty
"Rio Verde, AZ",,retail,446120,V05 Nails & Spa,"1766 South Greenfield Road, Mesa, AZ, 85206",,,33.3824484,-111.7395878,,,n_7914187568,shop=beauty
"Rio Verde, AZ",,retail,446120,Celebrity Tanning,"1705 South Greenfield Road, Mesa, AZ, 85206",,,33.3841304,-111.7369519,,,n_7915354394,shop=beauty
"Rio Verde, AZ",,retail,446120,Glitter With Style,,,,33.3798432,-111.7419959,,,n_7915402736,shop=beauty
"Rio Verde, AZ",,retail,446120,Nails Unlimited,"4331 East Baseline Road, Gilbert, AZ, 85234",,,33.3779891,-111.7412119,,,n_7918495609,shop=beauty
"Rio Verde, AZ",,retail,446120,Famous Nails,"1035 North Ellsworth Road, Mesa, AZ, 85207",,,33.4350178,-111.631316,,,n_7935967294,shop=beauty
"Rio Verde, AZ",,retail,446120,Nail Boutique,"23415 North Scottsdale Road, Scottsdale, AZ, 85255",,,33.6991318,-111.923842,,,n_7990332741,shop=beauty
"Rio Verde, AZ",,retail,453991,Stag Tobacconist,"23535 North Scottsdale Road, Scottsdale, AZ, 85255",,,33.6998263,-111.924912,,,n_7990332769,shop=tobacco
"Rio Verde, AZ",,retail,446120,LunchboxWax,"23271 North Scottsdale Road, Scottsdale, AZ, 85255",,,33.6981732,-111.923135,,,n_7993516660,shop=beauty
"Rio Verde, AZ",,retail,446120,Ovation Nails & Spa,"23271 North Scottsdale Road, Scottsdale, AZ, 85255",,,33.6979059,-111.9234279,,,n_7993516663,shop=beauty
"Rio Verde, AZ",,retail,446120,Scottsdale Skin & Holistic Health,"7500 East Pinnacle Peak Road, Scottsdale, AZ, 85255",,,33.6992805,-111.91759,,,n_7993516830,shop=beauty
"Rio Verde, AZ",,retail,446120,Lavish Nails,"21811 North Scottsdale Road, Scottsdale, AZ, 85255",,,33.6853552,-111.924469,,,n_7996404718,shop=beauty
"Rio Verde, AZ",,retail,453110,Stems A Florist,"7291 East Adobe Drive, Scottsdale, AZ, 85255",,,33.6869934,-111.92365,,,n_7996404888,shop=florist
"Rio Verde, AZ",,retail,446120,Desert Bronze,"20831 North Scottsdale Road, Scottsdale, AZ, 85255",,,33.6762667,-111.923329,,,n_7998235498,shop=beauty
"Rio Verde, AZ",,retail,446120,Prestige Nails & Spa,"20731 North Scottsdale Road, Scottsdale, AZ, 85255",,,33.6749416,-111.923606,,,n_7998235558,shop=beauty
"Rio Verde, AZ",,retail,446120,Modern Nails & Lash,"18529 North Scottsdale Road, Scottsdale, AZ, 85255",,,33.652977,-111.92468,,,n_8000958452,shop=beauty
"Rio Verde, AZ",,retail,446120,Natural Nails & Lashes,,,,33.6580084,-111.932859,,,n_8001157297,shop=beauty
"Rio Verde, AZ",,retail,446120,Merle Norman,,,,33.6570114,-111.926048,,,n_8001157482,"shop=cosmetics, brand=Merle Norman Cosmetics"
"Rio Verde, AZ",,retail,446120,North Scottsdale Med Spa,,,,33.6557559,-111.9292106,,,n_8001157486,shop=beauty
"Rio Verde, AZ",,retail,446120,Beautif-EYE,,,,33.6559867,-111.9294247,,,n_8001157489,shop=beauty
"Rio Verde, AZ",,retail,446120,Grand Nails Lounge,,,,33.6538519,-111.9292631,,,n_8004518252,shop=beauty
"Rio Verde, AZ",,retail,445110,Caspian Food Market,"17040 North Scottsdale Road, Phoenix, AZ, 85255",,,33.6409814,-111.925813,,,n_8004736410,shop=supermarket
"Rio Verde, AZ",,retail,446120,Plush Nail Bar,"17025 North Scottsdale Road, Scottsdale, AZ, 85255",,,33.6404306,-111.924517,,,n_8004736413,shop=beauty
"Rio Verde, AZ",,retail,445110,Pure Life Veganix,"16215 North Scottsdale Road, Scottsdale, AZ, 85254",,,33.6342717,-111.923814,,,n_8005379608,shop=supermarket
"Rio Verde, AZ",,retail,452210,Saks Off 5th,"16219 North Scottsdale Road, Scottsdale, AZ, 85254",,,33.6338536,-111.923758,,,n_8005379611,"shop=department_store, brand=Saks Off 5th"
"Rio Verde, AZ",,retail,446120,Scottsdale Tanning,"16255 North Scottsdale Road, Scottsdale, AZ, 85254",,,33.6346803,-111.921043,,,n_8005379847,shop=beauty
"Rio Verde, AZ",,retail,446120,Allure Nails & Wax,"16255 North Scottsdale Road, Scottsdale, AZ, 85254",,,33.634861,-111.921021,,,n_8005379849,shop=beauty
"Rio Verde, AZ",,retail,446120,Sugar Sugar,"16255 North Scottsdale Road, Scottsdale, AZ, 85254",,,33.6351075,-111.921207,,,n_8005379852,shop=beauty
"Rio Verde, AZ",,retail,446120,Stellar Lash,"7077 East Bell Road, Phoenix, AZ, 85254",,,33.6380678,-111.928406,,,n_8007582915,shop=beauty
"Rio Verde, AZ",,retail,445110,Amerifresh,"16100 North 71st Street, Phoenix, AZ, 85254",,,33.6322757,-111.928484,,,n_8007592061,shop=supermarket
"Rio Verde, AZ",,retail,452319,Bug & Weed Mart,"1356 South Gilbert Road, Mesa, AZ, 85204",480.497.0535,https://bugweedmart.com/,33.3903005,-111.7892072,,,n_8014666240,shop=general
"Rio Verde, AZ",,retail,446120,Ibrow Threading,,,,33.4333844,-111.9034999,,,n_8113266009,shop=beauty
"Rio Verde, AZ",,retail,445292,Rocky Mountain Chocolate Factory,,,,33.4328043,-111.9048551,,,n_8113266156,"shop=confectionery, brand=Rocky Mountain Chocolate Factory"
"Rio Verde, AZ",,retail,446120,Amazing Lash Studio,,,,33.4327849,-111.904033,,,n_8113266162,"shop=beauty, brand=Amazing Lash Studio"
"Rio Verde, AZ",,retail,446120,Bath & Body Works,,,,33.4328805,-111.9038956,,,n_8113266163,"shop=cosmetics, brand=Bath & Body Works"
"Rio Verde, AZ",,retail,445292,IT'S SUGAR,,,,33.4327841,-111.9041229,,,n_8113266164,shop=confectionery
"Rio Verde, AZ",,retail,446120,European Wax Center,,,https://locations.waxcenter.com/az/tempe/tempe-tempe-marketplace-0141.html,33.4323781,-111.9024035,,,n_8113266203,"shop=beauty, brand=European Wax Center"
"Rio Verde, AZ",,retail,446120,Sun Gun Tanning,,,,33.4324901,-111.9027748,,,n_8113266206,shop=beauty
"Rio Verde, AZ",,retail,446120,7 Day Spa & Nails,,,,33.4326129,-111.9028798,,,n_8113266208,shop=beauty
"Rio Verde, AZ",,retail,452319,Dollar Tree,"112 East McKellips Road, Mesa, AZ, 85201",,https://www.dollartree.com/locations/az/mesa/6917/,33.4520917,-111.8294632,,,n_8332525400,"shop=variety_store, brand=Dollar Tree"
"Rio Verde, AZ",,retail,446120,Nails by Jessica,"105 South Delaware Drive, Apache Junction, AZ, 85120",,,33.4141307,-111.5712912,,,n_8464900954,shop=beauty
"Rio Verde, AZ",,retail,445110,Sababa Kosher Grocery,,,,33.6395682,-112.0472639,,,n_8508721954,shop=supermarket
"Rio Verde, AZ",,retail,452319,Dollar Tree,,,https://www.dollartree.com/locations/az/mesa/5567/,33.363525,-111.6557319,,,n_8526952015,"shop=variety_store, brand=Dollar Tree"
"Rio Verde, AZ",,retail,446120,Platinum Nails & Spa,,,,33.3744522,-111.6872668,,,n_8534280601,shop=beauty
"Rio Verde, AZ",,retail,446120,HFskin Beauty Bar LLC,"2235 South Power Road, Mesa, AZ, 85209",,,33.3758674,-111.687337,,,n_8534280614,shop=beauty
"Rio Verde, AZ",,retail,446120,Rehana Beauty,,,,33.3775699,-111.6867002,,,n_8534407476,shop=beauty
"Rio Verde, AZ",,retail,445310,Water & Ice,,,,33.3797499,-111.6802631,,,n_8534846832,shop=beverages
"Rio Verde, AZ",,retail,446120,Beauty Calls Nails & Salon,"6920 East Baseline Road, Mesa, AZ, 85206",,,33.379885,-111.685209,,,n_8538943942,shop=beauty
"Rio Verde, AZ",,retail,446120,Seven's Nails & Spa,"6610 East Baseline Road, Mesa, AZ, 85206",,,33.3799414,-111.690615,,,n_8538944266,shop=beauty
"Rio Verde, AZ",,retail,446120,Armstrong McCall,"6056 East Baseline Road, Mesa, AZ, 85206",,,33.3797685,-111.7000914,,,n_8539704565,shop=beauty
"Rio Verde, AZ",,retail,452210,TJ Maxx,,,,33.3905576,-111.6893783,,,n_8546988932,"shop=department_store, brand=TJ Maxx"
"Rio Verde, AZ",,retail,446120,Gel Polish Nails & Spa,"6055 East Southern Avenue, Mesa, AZ, 85206",,,33.3934851,-111.7005269,,,n_8546988969,shop=beauty
"Rio Verde, AZ",,retail,446120,Superstition Nails Spa,,,,33.3883474,-111.6838552,,,n_8551471647,shop=beauty
"Rio Verde, AZ",,retail,453110,Blume Events,,,,33.3886264,-111.6762254,,,n_8551653381,shop=florist
"Rio Verde, AZ",,retail,446120,AZ Spray Tanning,,,,33.4070404,-111.6827952,,,n_8558461931,shop=beauty
"Rio Verde, AZ",,retail,453110,Razzle Dazzle Flowers & Gifts,,,,33.4165708,-111.6687589,,,n_8577354005,shop=florist
"Rio Verde, AZ",,retail,445110,Carniceria del Rancho,,,,33.4166779,-111.6751047,,,n_8577423727,shop=supermarket
"Rio Verde, AZ",,retail,446120,Arizona Excellent Nails,,,,33.4147425,-111.673563,,,n_8580925506,shop=beauty
"Rio Verde, AZ",,retail,446120,Beyoutiful Brows,"1152 North Power Road, Mesa, AZ, 85205",,,33.4363745,-111.6848741,,,n_8584412438,shop=beauty
"Rio Verde, AZ",,retail,446120,Misa Nail,"1152 North Power Road, Mesa, AZ, 85205",,,33.4365252,-111.6848732,,,n_8584412440,shop=beauty
"Rio Verde, AZ",,retail,446120,Celebrity Tanning,"1909 North Power Road, Mesa, AZ, 85205",,,33.4504639,-111.6818206,,,n_8588221744,shop=beauty
"Rio Verde, AZ",,retail,446120,European Wax Center,"1909 North Power Road, Mesa, AZ, 85205",,https://locations.waxcenter.com/az/mesa/mesa-red-mountain-0257.html,33.4504707,-111.6817101,,,n_8588221745,"shop=beauty, brand=European Wax Center"
"Rio Verde, AZ",,retail,446120,Elite Nails,"1909 North Power Road, Mesa, AZ, 85205",,,33.4504692,-111.6816039,,,n_8588221746,shop=beauty
"Rio Verde, AZ",,retail,445210,Chuck's Fine Meats,"6606 East McKellips Road, Mesa, AZ, 85205",,,33.452433,-111.6883228,,,n_8588221766,shop=butcher
"Rio Verde, AZ",,retail,446120,Super Relax Nails & Spa,"6626 East McKellips Road, Mesa, AZ, 85205",,,33.4533735,-111.6880562,,,n_8588221772,shop=beauty
"Rio Verde, AZ",,retail,446120,Hot Rock Nails & Spa,"2015 North Power Road, Mesa, AZ, 85207",,,33.452178,-111.6828766,,,n_8593166580,shop=beauty
"Rio Verde, AZ",,retail,446120,Ultra Nails Spa,"2733 North Power Road, Mesa, AZ, 85215",,,33.4659578,-111.682307,,,n_8593915669,shop=beauty
"Rio Verde, AZ",,retail,445120,,,,,33.7986984,-112.0675914,,,n_8595363570,shop=convenience
"Rio Verde, AZ",,retail,446120,DIP Nail Spa,,,,33.3918199,-111.5994226,,,n_8633650675,shop=beauty
"Rio Verde, AZ",,retail,446120,Escape Nail Spa,"10720 East Southern Avenue, Mesa, AZ, 85208",,,33.3948508,-111.599883,,,n_8633650682,shop=beauty
"Rio Verde, AZ",,retail,453991,Tobacco Plus Smoke Shop,"347 East Southern Avenue, Mesa, AZ, 85210",,,33.3921233,-111.8235947,,,n_8649391217,shop=tobacco
"Rio Verde, AZ",,retail,453110,Crismon's Flowers,"144 West Main Street, Mesa, AZ, 85201",,,33.4153144,-111.8357328,,,n_8840333253,shop=florist
"Rio Verde, AZ",,retail,453991,Hecho A Mano Cigar Lounge,,,,33.7982413,-111.9308662,,,n_8893289675,shop=tobacco
"Rio Verde, AZ",,retail,446120,Arizona Fashion Nails,"34522 North Scottsdale Road, Scottsdale, AZ, 85266",,,33.7988188,-111.9308752,,,n_8893289702,shop=beauty
"Rio Verde, AZ",,retail,445210,The Meat Market,"37636 North Tom Darlington Drive, Carefree, AZ, 85377",,,33.827481,-111.9241079,,,n_8896195429,shop=butcher
"Rio Verde, AZ",,retail,452319,Desert Donkey,,,,33.8259833,-111.9241057,,,n_8910602177,shop=general
"Rio Verde, AZ",,retail,453991,Sticks Golf & Cigar Lounge,,,,33.8259369,-111.9223372,,,n_8910662799,shop=tobacco
"Rio Verde, AZ",,retail,453110,Cactus Flower Florist,"36889 North Tom Darlington Drive, Carefree, AZ, 85377",,,33.8206307,-111.9238394,,,n_8910849020,shop=florist
"Rio Verde, AZ",,retail,446120,Beauty & Bliss,"36889 North Tom Darlington Drive, Carefree, AZ, 85377",,,33.8206585,-111.9237389,,,n_8910849024,shop=beauty
"Rio Verde, AZ",,retail,446120,Kelly Nail & Spa,"32607 North Scottsdale Road, Scottsdale, AZ, 85266",,,33.781578,-111.9223829,,,n_8912461495,shop=beauty
"Rio Verde, AZ",,retail,446120,Merle Norman,"32531 North Scottsdale Road, Scottsdale, AZ, 85266",,,33.7804596,-111.9236782,,,n_8912461536,"shop=cosmetics, brand=Merle Norman Cosmetics"
"Rio Verde, AZ",,retail,446120,Summit Aesthetics,"32421 North Scottsdale Road, Scottsdale, AZ, 85266",,,33.7799485,-111.924738,,,n_8912461637,shop=beauty
"Rio Verde, AZ",,retail,446120,Bath & Body Works,"32409 North Scottsdale Road, Scottsdale, AZ, 85266",,,33.779937,-111.9235296,,,n_8912461713,"shop=cosmetics, brand=Bath & Body Works"
"Rio Verde, AZ",,retail,446120,Happy Feet Nails & Spa 2,,,,33.7689563,-111.9237657,,,n_8912536008,shop=beauty
"Rio Verde, AZ",,retail,446120,Loma Skin & Laser,,+14807474748,https://www.LomaLaser.com,33.5683725,-111.8881057,,,n_8917127866,shop=beauty
"Rio Verde, AZ",,retail,446110,Camelback Compounding Pharmacy,,,,33.5104952,-111.9857684,,,n_9122773856,shop=chemist
"Rio Verde, AZ",,retail,446120,Sephora,,,,33.3852623,-111.6031181,,,n_9143547217,"shop=cosmetics, brand=Sephora"
"Rio Verde, AZ",,retail,446120,Chic Nails,,,,33.4957618,-111.9891251,,,n_9147167859,shop=beauty
"Rio Verde, AZ",,retail,453991,On-Auk-Mor,,,,33.4655046,-111.8651191,,,n_9168506128,shop=tobacco
"Rio Verde, AZ",,retail,446120,Hayden Nails & Spa,,,,33.4815342,-111.9099004,,,n_9211386027,shop=beauty
"Rio Verde, AZ",,retail,446120,Celebrity Tanning,,,,33.4809885,-111.9100988,,,n_9211386031,shop=beauty
"Rio Verde, AZ",,retail,446120,Aurora Nail Bar,,,,33.3777793,-111.7205183,,,n_9214503223,shop=beauty
"Rio Verde, AZ",,retail,446120,GLOWBIOTICS Probiotic Skincare,"2150 West Broadway Road, Mesa, AZ, 85202",,,33.4089599,-111.8788328,,,n_9241697303,shop=beauty
"Rio Verde, AZ",,retail,446120,Ken’s Nails & Spa,,,,33.4949379,-111.9797652,,,n_9273521227,shop=beauty
"Rio Verde, AZ",,retail,445110,Bashas',"731 East Union Hills Drive, Phoenix, AZ, 85024",6026529520,https://www.bashas.com/stores/bashas-supermarket-7th-st-e-union-hills/,33.653572,-112.064102,,,n_9545208903,"shop=supermarket, brand=Bashas'"
"Rio Verde, AZ",,retail,445110,W Mart,,,,33.4790077,-111.9102288,,,n_9560542697,shop=supermarket
"Rio Verde, AZ",,retail,446120,For Nails Only,,,,33.4797232,-111.9838918,,,n_9700983431,shop=beauty
"Rio Verde, AZ",,retail,453991,Adult Boutique & Video & Smoke Shop,"1458 North Scottsdale Road, Tempe, AZ, 85281",,,33.4457542,-111.9268617,,,n_9733711860,shop=tobacco
"Rio Verde, AZ",,retail,446120,Beauty Affair Lash Lounge & Spa,"1448 North Scottsdale Road, Tempe, AZ, 85281",,,33.4455946,-111.9270845,,,n_9733711865,shop=beauty
"Rio Verde, AZ",,retail,446120,Lavish Dolls Beauty Bar,"1821 North Scottsdale Road, Tempe, AZ, 85281",,,33.4494173,-111.9257285,,,n_9742164497,shop=beauty
"Rio Verde, AZ",,retail,446120,Marcy's Mane Design,"4446 E University Dr, Suite 111;East University Drive, Mesa, AZ, 85205",+1 480-832-5506,http://www.mmdhair.com,33.4233701,-111.7337801,,,n_9743572135,shop=beauty
"Rio Verde, AZ",,retail,445120,,"17027 North Cave Creek Road, Phoenix, AZ, 85032",,,33.6415588,-112.0305188,,,n_9861862513,shop=convenience
"Rio Verde, AZ",,retail,452210,Target,"3880 North 92nd Street, Scottsdale, AZ, 85251",,,33.4932948,-111.880702,,,n_9946130721,"shop=department_store, brand=Target"
"Rio Verde, AZ",,retail,445120,QuikTrip,"3882 North 92nd Street, Scottsdale, AZ, 85251",,,33.494065,-111.881246,,,n_9946136597,"shop=convenience, brand=QuikTrip"
"Rio Verde, AZ",,retail,446120,J Anthony Salon & Spa,"20811 North Cave Creek Road, Phoenix, AZ, 85024",+1-623-434-5400,,33.6752177,-112.030479,,,n_9964997349,shop=beauty
"Rio Verde, AZ",,retail,446120,Le Le Nails,,,,33.4957436,-112.0004534,,,n_10121602163,shop=beauty
"Rio Verde, AZ",,retail,445120,Shell,"1166 North Higley Road, Mesa, AZ, 85205",,,33.4369255,-111.7194871,,,n_10151981307,"shop=convenience, brand=Shell"
"Rio Verde, AZ",,retail,446120,Sephora,,,,33.623534,-111.9249617,,,n_10222555155,"shop=cosmetics, brand=Sephora"
"Rio Verde, AZ",,retail,446120,Bath & Body Works,,,,33.6249679,-111.9250214,,,n_10222555170,"shop=cosmetics, brand=Bath & Body Works"
"Rio Verde, AZ",,retail,446120,Lynn's Nails & Spa,"11108 North Frank Lloyd Wright Boulevard, Scottsdale, AZ, 85259",480-661-0601,https://lynnsnails.org/,33.5865566,-111.8364765,,,n_10311813531,shop=beauty
"Rio Verde, AZ",,retail,445110,Fry's Food and Drug,"7628 East Indian School Road, Scottsdale, AZ, 85251",+1 480-994-0212,https://www.frysfood.com/stores/grocery/az/scottsdale/indian-school-rd-miller/660/00025,33.4957232,-111.9159622,,,n_10400932705,"shop=supermarket, brand=Fry's Food and Drug"
"Rio Verde, AZ",,retail,453110,Fresh Cut Romance,,,https://www.freshcutromance.com/,33.4953534,-111.986603,,,n_10550801816,shop=florist
"Rio Verde, AZ",,retail,446120,My Salon Suite,,,,33.384435,-111.8027132,,,n_10558733999,shop=beauty
"Rio Verde, AZ",,retail,446191,Lady+Wolf Market,"Scottsdale, AZ",(480) 269-5814,https://ladyandwolf.com,33.4951185,-111.9287782,,,n_10560485084,shop=health_food
"Rio Verde, AZ",,retail,446120,Sunset Nails,,,,33.3813069,-111.7873323,,,n_10560554604,shop=beauty
"Rio Verde, AZ",,retail,453110,Karen's Flowers,,,,33.381197,-111.7871447,,,n_10560554605,shop=florist
"Rio Verde, AZ",,retail,446120,Amazing Lash Studio,,,,33.3810693,-111.7872803,,,n_10560554606,"shop=beauty, brand=Amazing Lash Studio"
"Rio Verde, AZ",,retail,446120,Sephora,,,,33.3822274,-111.7567542,,,n_10566816824,"shop=cosmetics, brand=Sephora"
"Rio Verde, AZ",,retail,446120,Beauty Belle Studio,,,,33.3803955,-111.7493908,,,n_10566846527,shop=beauty
"Rio Verde, AZ",,retail,446120,Honey & Oats Therapeutics,,,,33.385317,-111.7418646,,,n_10569282431,shop=beauty
"Rio Verde, AZ",,retail,446120,Speakeasy Salon Suites,,,,33.3850909,-111.7418383,,,n_10569282432,shop=beauty
"Rio Verde, AZ",,retail,446120,The White Spa Nails,,,,33.3818465,-111.7384817,,,n_10569282441,shop=beauty
"Rio Verde, AZ",,retail,446120,Kool Nails Salon,,,,33.3805584,-111.6665708,,,n_10575730892,shop=beauty
"Rio Verde, AZ",,retail,446120,Varia Nail Bar,,,,33.49919,-111.9185054,,,n_10607032195,shop=beauty
"Rio Verde, AZ",,retail,453991,Owl Ear Cigars,,,,33.5393729,-111.8898652,,,n_10728574804,shop=tobacco
"Rio Verde, AZ",,retail,446120,Young Skin Arizona,,,,33.5395607,-111.8899632,,,n_10728628005,shop=beauty
"Rio Verde, AZ",,retail,446120,Bath & Body Works,,,,33.5401485,-111.889655,,,n_10728628008,"shop=cosmetics, brand=Bath & Body Works"
"Rio Verde, AZ",,retail,446120,Lavish Nail Pavillion,,,,33.5404126,-111.8883992,,,n_10728628027,shop=beauty
"Rio Verde, AZ",,retail,446120,Nail-ed it Salon,,,,33.5367327,-111.8893353,,,n_10728754920,shop=beauty
"Rio Verde, AZ",,retail,446120,Bath & Body Works,,,,33.5360676,-111.8882874,,,n_10728754929,"shop=cosmetics, brand=Bath & Body Works"
"Rio Verde, AZ",,retail,446120,Salon Zoya,,,,33.5529366,-111.8811364,,,n_10728802511,shop=beauty
"Rio Verde, AZ",,retail,445292,Sugar Drop Candy Shop,,,,33.5552616,-111.8763385,,,n_10728802632,shop=confectionery
"Rio Verde, AZ",,retail,446120,Lush,,,,33.5665711,-111.8876753,,,n_10731413198,"shop=cosmetics, brand=Lush"
"Rio Verde, AZ",,retail,446120,Beauty Gold Esthetics,,,,33.568283,-111.8882199,,,n_10731489847,shop=beauty
"Rio Verde, AZ",,retail,446191,nohoshot,,,,33.5683951,-111.8750179,,,n_10731797442,shop=health_food
"Rio Verde, AZ",,retail,446120,Bon Temps Beauty,,,,33.5701289,-111.8867742,,,n_10731797487,shop=beauty
"Rio Verde, AZ",,retail,453991,Smoke Central,,,,33.5699814,-111.8867226,,,n_10731797488,shop=tobacco
"Rio Verde, AZ",,retail,453110,Le Bouquet Florist,,,,33.5705594,-111.8865639,,,n_10731797501,shop=florist
"Rio Verde, AZ",,retail,446120,Trish Nail,,,,33.5706715,-111.8864109,,,n_10731797502,shop=beauty
"Rio Verde, AZ",,retail,446120,See The Queen,,,,33.5694065,-111.8901837,,,n_10731811566,shop=beauty
"Rio Verde, AZ",,retail,453991,Trend Smoke Vape & Cigars,,,,33.5697355,-111.8893627,,,n_10731811572,shop=tobacco
"Rio Verde, AZ",,retail,446120,First Nails & Spa,,,,33.5698629,-111.889309,,,n_10731811574,shop=beauty
"Rio Verde, AZ",,retail,446120,Serenity Skin Spa,,,,33.5755923,-111.8751326,,,n_10744352429,shop=beauty
"Rio Verde, AZ",,retail,453991,21 Degrees Cigar Lounge,,,,33.581556,-111.8790548,,,n_10744352574,shop=tobacco
"Rio Verde, AZ",,retail,446120,Scottsdale Hand Foot Nail Salon,,,,33.5814647,-111.8784738,,,n_10744394911,shop=beauty
"Rio Verde, AZ",,retail,446120,Scottsdale Nail Lounge,,,,33.5804453,-111.8807087,,,n_10744406560,shop=beauty
"Rio Verde, AZ",,retail,446120,Skinovation,,,,33.5857301,-111.8834926,,,n_10746690570,shop=beauty
"Rio Verde, AZ",,retail,446120,Desert Bloom Skin Care,,,,33.584221,-111.8885804,,,n_10747445403,shop=beauty
"Rio Verde, AZ",,retail,445310,Phoenix Wine,,,,33.584262,-111.894431,,,n_10747476460,shop=wine
"Rio Verde, AZ",,retail,446120,Lacquer Nails & Spa Scottsdale,,,,33.585157,-111.8936803,,,n_10747476496,shop=beauty
"Rio Verde, AZ",,retail,445110,Brighton Jones,"4211 North Marshall Way, Scottsdale, AZ, 85251",480-353-2456,https://www.brightonjones.com/locations/scottsdale/,33.4971951,-111.9286468,,,n_10748007897,shop=supermarket
"Rio Verde, AZ",,retail,446120,RBF Skincare,,,,33.6154862,-111.9059153,,,n_10762341469,shop=beauty
"Rio Verde, AZ",,retail,446120,Adorn Nail Spa,,,,33.6199414,-111.8923144,,,n_10767521809,shop=beauty
"Rio Verde, AZ",,retail,446120,Sephora,,,,33.6194186,-111.8954933,,,n_10778951993,"shop=cosmetics, brand=Sephora"
"Rio Verde, AZ",,retail,453991,Scottsdale Cigars,,,,33.6239695,-111.8918115,,,n_10778967302,shop=tobacco
"Rio Verde, AZ",,retail,453991,Havana Leaf Smoke Vape & Cigar,,,,33.6271908,-111.8933262,,,n_10780768259,shop=tobacco
"Rio Verde, AZ",,retail,445110,Saffron Indian Grocery N Kitchen,,,,33.6229373,-111.8972244,,,n_10780808503,shop=supermarket
"Rio Verde, AZ",,retail,446120,T-Kay Nails & Spa,,,,33.6276634,-111.8916009,,,n_10780810808,shop=beauty
"Rio Verde, AZ",,retail,453991,Bing Bong Smoke Shop,,,,33.6216924,-111.8982075,,,n_10783507350,shop=tobacco
"Rio Verde, AZ",,retail,446120,Sachi Nails & Lash,,,,33.6214324,-111.8992524,,,n_10783507387,shop=beauty
"Rio Verde, AZ",,retail,445120,Kwik Mart,,,,33.4577645,-111.908748,,,n_10794111548,shop=convenience
"Rio Verde, AZ",,retail,446120,Trendy Nail Spa,,,,33.6277851,-111.8969541,,,n_10796212888,shop=beauty
"Rio Verde, AZ",,retail,446120,Enhanced Esthetics,,,,33.6143129,-111.9096715,,,n_10797744008,shop=beauty
"Rio Verde, AZ",,retail,446120,Lash Anarchist,,,,33.6156716,-111.9129892,,,n_10797753575,shop=beauty
"Rio Verde, AZ",,retail,453991,Cigar King,,,,33.6155738,-111.9118692,,,n_10797753580,shop=tobacco
"Rio Verde, AZ",,retail,446120,Omni Bioceutical Innovations,,,,33.6161294,-111.9107464,,,n_10797753584,shop=beauty
"Rio Verde, AZ",,retail,453110,Dei-Zinz',,,,33.6144346,-111.9111896,,,n_10798574302,shop=florist
"Rio Verde, AZ",,retail,446120,KC Skin Care & Airbrush Tanning,,,,33.6142499,-111.9117787,,,n_10798609816,shop=beauty
"Rio Verde, AZ",,retail,453110,Your Event Florist LLC,,,,33.6118307,-111.9133452,,,n_10798644672,shop=florist
"Rio Verde, AZ",,retail,446120,Sola Salons,,,,33.6268863,-111.8878578,,,n_10857204290,"shop=beauty, brand=Sola Salons"
"Rio Verde, AZ",,retail,446120,Villagio Nail Spa,,,,33.628198,-111.8890134,,,n_10857350914,shop=beauty
"Rio Verde, AZ",,retail,446120,Dip Nail Bar,,,,33.6198401,-111.8749639,,,n_10857351035,shop=beauty
"Rio Verde, AZ",,retail,446120,Luxury Paulene's Nails,,,,33.6192631,-111.8758951,,,n_10857385436,shop=beauty
"Rio Verde, AZ",,retail,446120,Amazing Lash Studio,,,,33.6191472,-111.8760689,,,n_10857385438,"shop=beauty, brand=Amazing Lash Studio"
"Rio Verde, AZ",,retail,445310,Paseo Water & Ice,,,,33.6190564,-111.876573,,,n_10857385485,shop=beverages
"Rio Verde, AZ",,retail,446120,Waxing The City,,,,33.6190917,-111.8770167,,,n_10857385488,shop=beauty
"Rio Verde, AZ",,retail,446120,Scottsdale Nails,,,,33.6215401,-111.873394,,,n_10857397698,shop=beauty
"Rio Verde, AZ",,retail,446120,European Wax Center,,,https://locations.waxcenter.com/az/scottsdale/scottsdale-mcdowell-mountain-0008.html,33.6212951,-111.8734709,,,n_10857397701,"shop=beauty, brand=European Wax Center"
"Rio Verde, AZ",,retail,446120,Bronzmopolitan Spray Tan Bar,,,,33.6300806,-111.8890697,,,n_10857400166,shop=beauty
"Rio Verde, AZ",,retail,446120,APUS Nails & Lashes,,,,33.6301332,-111.8879105,,,n_10857400198,shop=beauty
"Rio Verde, AZ",,retail,446120,,"1437 East Main Street, Mesa, AZ, 85203",,,33.4146183,-111.8001839,,,n_10913200757,shop=beauty
"Rio Verde, AZ",,retail,445210,German Sausage Company,,+1-602-840-6032,https://germansausageaz.com/,33.4949334,-111.9760466,,,n_10925362341,shop=butcher
"Rio Verde, AZ",,retail,446120,JFR International,,,,33.6376558,-111.8856486,,,n_10938618011,shop=beauty
"Rio Verde, AZ",,retail,446120,Organic Rae's Spray Tanning,,,,33.6393385,-111.8890082,,,n_10938618070,shop=beauty
"Rio Verde, AZ",,retail,446120,Gameela Skin,,,,33.6390168,-111.8882718,,,n_10938618074,shop=beauty
"Rio Verde, AZ",,retail,446120,Michele Q Permanent Makeup,,,,33.6371777,-111.882389,,,n_10948375698,shop=beauty
"Rio Verde, AZ",,retail,446120,BIOVEA,,,,33.6376426,-111.8839957,,,n_10948375701,shop=beauty
"Rio Verde, AZ",,retail,446120,Quantum Red,,,,33.6394214,-111.8833864,,,n_10948390050,shop=beauty
"Rio Verde, AZ",,retail,445110,Mekong Supermarket,,,,33.412907,-111.8762037,,,n_10951085585,shop=supermarket
"Rio Verde, AZ",,retail,445110,Fry's Food and Drug,"1245 West Main Street, Mesa, AZ, 85201",+1 480-833-8879,https://www.frysfood.com/stores/grocery/az/mesa/alma-school-rd-main-st/660/00113,33.4130694,-111.8580829,,,n_10951731208,"shop=supermarket, brand=Fry's Food and Drug"
"Rio Verde, AZ",,retail,452319,Dollar Tree,"3360 North Hayden Road, Scottsdale, AZ, 85251",,,33.48668,-111.9103,,,n_10989870101,"shop=variety_store, brand=Dollar Tree"
"Rio Verde, AZ",,retail,445310,Craft Beer Hop Stop,"717 West Union Hills Drive, Phoenix, AZ, 85027",+1-602-993-5090,,33.6541012,-112.0837022,,,n_11005890186,"shop=alcohol, operator=Allen"
"Rio Verde, AZ",,retail,445310,Arcadia Premium,,,,33.4802979,-111.9604064,,,n_11026261941,shop=alcohol
"Rio Verde, AZ",,retail,446120,Fashion Nails & Spa,,,,33.6792212,-111.9745716,,,n_11048887411,shop=beauty
"Rio Verde, AZ",,retail,446120,Soap Des Jour,,,,33.6758749,-111.9723496,,,n_11048915067,shop=cosmetics
"Rio Verde, AZ",,retail,445292,It's Sugar,,,,33.6756609,-111.9718994,,,n_11048915073,shop=confectionery
"Rio Verde, AZ",,retail,446120,Sephora,,,,33.6761762,-111.973331,,,n_11048915078,"shop=cosmetics, brand=Sephora"
"Rio Verde, AZ",,retail,445210,Omaha Steaks,,,,33.6763391,-111.9757647,,,n_11048925150,"shop=butcher, brand=Omaha Steaks"
"Rio Verde, AZ",,retail,446120,European Wax Center,,,https://locations.waxcenter.com/az/phoenix/phoenix-desert-ridge-0066.html,33.6741862,-111.9757609,,,n_11048925158,"shop=beauty, brand=European Wax Center"
"Rio Verde, AZ",,retail,446120,The Beauty District,,,,33.6740813,-111.9753639,,,n_11048925161,shop=beauty
"Rio Verde, AZ",,retail,446120,Amazing Lash Studio,,,,33.6745632,-111.975225,,,n_11048925164,"shop=beauty, brand=Amazing Lash Studio"
"Rio Verde, AZ",,retail,446120,Sephora,,,,33.6735313,-111.9706932,,,n_11048925183,"shop=cosmetics, brand=Sephora"
"Rio Verde, AZ",,retail,446120,Palm Beach Tan,,,https://palmbeachtan.com/locations/AZ/Phoenix-North-Tatum-Boulevard,33.677843,-111.9789906,,,n_11050189066,"shop=beauty, brand=Palm Beach Tan"
"Rio Verde, AZ",,retail,446120,Debon Nails & Spa,,,,33.6777558,-111.9788035,,,n_11050189067,shop=beauty
"Rio Verde, AZ",,retail,446120,All About Nails & Spa,,,,33.6752647,-111.9798241,,,n_11050189085,shop=beauty
"Rio Verde, AZ",,retail,453110,Flowers By Jodi,,,,33.6747311,-112.021114,,,n_11050189097,shop=florist
"Rio Verde, AZ",,retail,445210,Block & Apron,,,,33.6758291,-112.0283566,,,n_11050257172,shop=butcher
"Rio Verde, AZ",,retail,446120,CBD Ophthalmic Tomey,,,,33.674244,-112.0264508,,,n_11050257192,shop=beauty
"Rio Verde, AZ",,retail,445110,Beirut Market,,,,33.67848,-112.0293511,,,n_11050269525,shop=supermarket
"Rio Verde, AZ",,retail,446120,Five Star Nails & Spa,,,,33.6758261,-112.0302758,,,n_11064072246,shop=beauty
"Rio Verde, AZ",,retail,453991,American Vape Cigar Smoke,,,,33.6756114,-112.030477,,,n_11064072247,shop=tobacco
"Rio Verde, AZ",,retail,445120,Minute Mart,,,,33.6699269,-112.0316169,,,n_11064072265,shop=convenience
"Rio Verde, AZ",,retail,446120,Ocean Luxury Nails & Spa,,,,33.671586,-112.0301036,,,n_11064072273,shop=beauty
"Rio Verde, AZ",,retail,453110,Artistic Surroundings,,,,33.676078,-112.0973108,,,n_11076241399,shop=florist
"Rio Verde, AZ",,retail,445292,Great Wolf Candy Compan,,,,33.5438428,-111.8901954,,,n_11126317804,shop=confectionery
"Rio Verde, AZ",,retail,445110,Cardenas,"751 East Broadway Road, Mesa, AZ",,,33.4076966,-111.8148932,,,n_11203723327,"shop=supermarket, brand=Cardenas"
"Rio Verde, AZ",,retail,446120,Just Teazzin,"4815 South 48th Street, Mesa, AZ, 85205",480-830-1617,https://www.justteazzinmesa.com/,33.4149767,-111.7273901,,,n_11347111188,shop=beauty
"Rio Verde, AZ",,retail,453991,Straight Up Smoke Shop,"4815 East Main Street, Mesa, AZ, 85205",,,33.4149858,-111.7269431,,,n_11347111191,shop=tobacco
"Rio Verde, AZ",,retail,445110,TransAfrican Food Store,"4815 East Main Street, Mesa, AZ, 85205",602-730-0680,https://transafricanfoodstore.com/,33.4149986,-111.7264982,,,n_11347111196,shop=supermarket
"Rio Verde, AZ",,retail,445110,Misha's Kosher Food Market,"814 Eash Union Hills Road, Phoenix, AZ",+1 623-580-0909,https://m.facebook.com/Russianmishamedvedz,33.6553018,-112.0622192,,,n_11411186670,shop=supermarket
"Rio Verde, AZ",,retail,445120,Superpumper,"8990 East Shea Boulevard, Scottsdale, AZ, 85260",,,33.5830341,-111.8867389,,,n_11446336787,shop=convenience
"Rio Verde, AZ",,retail,452210,Dillard's,,+1 480-949-5869,https://www.dillards.com/stores/arizona/scottsdale-fashion-square-scottsdale/0902,33.504053,-111.932481,,,n_11523794466,"shop=department_store, brand=Dillard's"
"Rio Verde, AZ",,retail,446120,Vina Nails & Spa,"4757 E Greenway Rd, Phoenix, AZ, 85032",+1 -602-603-2420,https://vinanailsspa.com,33.6232859,-111.9763221,,,n_11549466049,"shop=beauty, operator=Helen Pham"
"Rio Verde, AZ",,retail,445110,Aldi,"4555 East Cactus Road, Phoenix, AZ, 85032",+1 855-955-2534,https://stores.aldi.us/az/phoenix/4555-e-cactus-road,33.5986364,-111.9859956,,,n_11582507293,"shop=supermarket, brand=Aldi"
"Rio Verde, AZ",,retail,453991,Hippie Joint Smoke Shop,,,,33.4507306,-111.7011767,,,n_11611791547,shop=tobacco
"Rio Verde, AZ",,retail,446120,Excellent Nails,,,,33.450864,-111.7010996,,,n_11611791548,shop=beauty
"Rio Verde, AZ",,retail,446120,Beyoutiful Brows,,,,33.4521097,-111.7005158,,,n_11611797604,shop=beauty
"Rio Verde, AZ",,retail,446120,Nails 8002 & Waxing,,,,33.4524541,-111.7044648,,,n_11611797616,shop=beauty
"Rio Verde, AZ",,retail,453991,Culebra Cigars,,,,33.4500953,-111.7021567,,,n_11611797668,shop=tobacco
"Rio Verde, AZ",,retail,446120,Sunset Salon Suites,,,,33.4512191,-111.709114,,,n_11611835641,shop=beauty
"Rio Verde, AZ",,retail,446120,T Nail Lounge,,,,33.4512682,-111.7204785,,,n_11617817804,shop=beauty
"Rio Verde, AZ",,retail,446120,Dae Hair,,,,33.4451899,-111.7220377,,,n_11617834235,shop=beauty
"Rio Verde, AZ",,retail,453991,Lux Smoke & Cigar,,,,33.4513745,-111.732221,,,n_11625394280,shop=tobacco
"Rio Verde, AZ",,retail,446120,European Nails Spa,,,,33.4528682,-111.7896828,,,n_11633645278,shop=beauty
"Rio Verde, AZ",,retail,452319,Dollar Tree,,,,33.4514725,-111.7861043,,,n_11633645292,"shop=variety_store, brand=Dollar Tree"
"Rio Verde, AZ",,retail,453991,Gin’s Smoke Shop,,,,33.4512303,-111.7856601,,,n_11633645293,shop=tobacco
"Rio Verde, AZ",,retail,446120,Gemini Aesthetics,,,,33.4509942,-111.7895075,,,n_11633645299,shop=beauty
"Rio Verde, AZ",,retail,445230,Restaurant Equipment Hunter,,,,33.4524567,-111.8451054,,,n_11635933752,shop=greengrocer
"Rio Verde, AZ",,retail,446120,Nail Couture,,,,33.7973963,-111.9775326,,,n_11647241575,shop=beauty
"Rio Verde, AZ",,retail,445110,Don Filos Market,,,,33.4516719,-111.9165871,,,n_11660931774,shop=supermarket
"Rio Verde, AZ",,retail,446120,Moods Salon,,,,33.4547885,-111.9260368,,,n_11660931786,shop=beauty
"Rio Verde, AZ",,retail,445310,Star Liquor & Convenience,"1512 North Scottsdale Road, Tempe, AZ, 85281",,,33.4461654,-111.9270954,,,n_11664032999,shop=alcohol
"Rio Verde, AZ",,retail,446120,AZ Tip & Toes Nails,"1526 North Scottsdale Road, Tempe, AZ, 85281",,,33.4465159,-111.9270941,,,n_11664033000,shop=beauty
"Rio Verde, AZ",,retail,453991,Galaxy Cigars & Vapes,,,,33.466435,-111.9019329,,,n_11715035094,shop=tobacco
"Rio Verde, AZ",,retail,446120,Gel-Q Nail & Spa,,,,33.4663673,-111.9120112,,,n_11715520414,shop=beauty
"Rio Verde, AZ",,retail,446120,The Spa Pro Clinic & Academy,,,,33.4678458,-111.9134505,,,n_11715520430,shop=beauty
"Rio Verde, AZ",,retail,446120,KTs Nails & Spa,,,,33.4651696,-111.9167207,,,n_11715529791,shop=beauty
"Rio Verde, AZ",,retail,445210,Carniceria El Rancho,,,,33.4644696,-111.9173246,,,n_11715529838,shop=butcher
"Rio Verde, AZ",,retail,453991,Blue Spot Smoke Shop,,,,33.4644237,-111.9167047,,,n_11715529841,shop=tobacco
"Rio Verde, AZ",,retail,446120,Allure Lash Lab,,,,33.4662502,-111.9354187,,,n_11715599460,shop=beauty
"Rio Verde, AZ",,retail,446120,Eyelashed Arizona,,,,33.4660969,-111.9355703,,,n_11715599463,shop=beauty
"Rio Verde, AZ",,retail,446120,Sassy Wink,,,,33.4658359,-111.9354752,,,n_11715599467,shop=beauty
"Rio Verde, AZ",,retail,445120,International Food Market,,,,33.4659722,-111.9721761,,,n_11715606349,shop=convenience
"Rio Verde, AZ",,retail,445210,Mini Market Halal Meat,"5056 East McDowell Road, Phoenix, AZ, 85008",,,33.4661927,-111.9723751,,,n_11715606351,shop=butcher
"Rio Verde, AZ",,retail,445120,Circle K,"10200 North Scottsdale Road, Scottsdale, AZ, 85253",,,33.5788772,-111.9268067,,,n_11862739597,"shop=convenience, brand=Circle K, operator=Circle K"
"Rio Verde, AZ",,retail,445110,Sprouts Farmers Market,"8787 North Scottsdale Road, Scottsdale, AZ, 85253",+1 480-534-3620,https://www.sprouts.com/store/az/scottsdale/scottsdale-gainey-ranch/,33.565664,-111.924471,,,n_11876198709,"shop=supermarket, brand=Sprouts Farmers Market"
"Rio Verde, AZ",,retail,445110,ALDI,"1401 East Bell Road, Phoenix, AZ, 85022",+1 833-479-7158,https://stores.aldi.us/az/phoenix/1401-e-bell-rd,33.6398797,-112.0520617,,,n_11876198710,"shop=supermarket, brand=ALDI"
"Rio Verde, AZ",,retail,445110,Safeway,"13440 North 7th Street, Phoenix, AZ, 85022",+1 602-547-1288,https://local.safeway.com/safeway/az/phoenix/13440-n-7th-st.html,33.6088995,-112.0669533,,,n_11876198711,"shop=supermarket, brand=Safeway"
"Rio Verde, AZ",,retail,453991,Gravitate Smoke & Vape,,,,33.4064268,-111.668017,,,n_11882429381,shop=tobacco
"Rio Verde, AZ",,retail,453110,Argi's Flower Shop,,,,33.4089709,-111.7106974,,,n_11882429430,shop=florist
"Rio Verde, AZ",,retail,446120,Haley's Nails,,,,33.4088624,-111.711104,,,n_11882429434,shop=beauty
"Rio Verde, AZ",,retail,445120,Quick & Easy Food Mart,,,,33.4083901,-111.7951673,,,n_11882546910,shop=convenience
"Rio Verde, AZ",,retail,445210,Carniceria El Herradero,,,,33.4084663,-111.8008672,,,n_11882546918,shop=butcher
"Rio Verde, AZ",,retail,452319,Super Dollars Discount,,,,33.4081716,-111.8017921,,,n_11882546919,shop=variety_store
"Rio Verde, AZ",,retail,445310,Primo Water Refill,,,,33.4085535,-111.8017894,,,n_11882546921,shop=beverages
"Rio Verde, AZ",,retail,446120,K-Bella Beauty Spa,,,,33.4082847,-111.8022171,,,n_11882546950,shop=beauty
"Rio Verde, AZ",,retail,445110,Carniceria Murrieta's,,,,33.4071173,-111.8726384,,,n_11902982384,shop=supermarket
"Rio Verde, AZ",,retail,453991,AtoZ Smoke Shop & Gifts,,,,33.4071229,-111.8731429,,,n_11902982388,shop=tobacco
"Rio Verde, AZ",,retail,446120,Pro's Nails by Vy,,,,33.4080388,-111.8737375,,,n_11902982391,shop=beauty
"Rio Verde, AZ",,retail,452319,Daiso Japan,,,,33.4137963,-111.8722331,,,n_11938807141,"shop=variety_store, brand=Daiso"
"Rio Verde, AZ",,retail,445110,,,,,33.6252455,-112.0302654,,,n_11970919760,shop=supermarket
"Rio Verde, AZ",,retail,453110,,,,,33.6250644,-112.0302694,,,n_11970919763,shop=florist
"Rio Verde, AZ",,retail,445120,Safeway,"32515 North Scottsdale Road, Scottsdale, AZ, 85266",,,33.7809327,-111.9247596,,,n_12074318972,shop=convenience
"Rio Verde, AZ",,retail,446120,,,,,33.4788052,-111.9249755,,,n_12098087719,shop=beauty
"Rio Verde, AZ",,retail,446120,,,,,33.4788063,-111.9248226,,,n_12098087721,shop=beauty
"Rio Verde, AZ",,retail,445110,Fry's Food and Drug,"850 East Hatcher Road, Phoenix, AZ, 85020",+1 602-216-1473,https://www.frysfood.com/stores/grocery/az/phoenix/cave-creek-hatcher/660/00609,33.5726724,-112.0609717,,,n_12163771007,"shop=supermarket, brand=Fry's Food and Drug"
"Rio Verde, AZ",,retail,452319,St. Vincent de Paul,85032,,,33.6253432,-111.9758777,,,n_12168966701,shop=variety_store
"Rio Verde, AZ",,retail,446120,Hantz Professional Products,,,,33.4233017,-111.9070626,,,n_12210293263,shop=beauty
"Rio Verde, AZ",,retail,453110,Zinnia Floral Co,,,,33.4239037,-111.9078895,,,n_12210293272,shop=florist
"Rio Verde, AZ",,retail,453991,Holy Cow Smoke Shop,"1944 East University Drive, Tempe, AZ, 85288",,,33.4224466,-111.9032558,,,n_12223906765,shop=tobacco
"Rio Verde, AZ",,retail,445310,Streamline Water LLC,,,,33.4230233,-111.8997693,,,n_12223912025,shop=beverages
"Rio Verde, AZ",,retail,446120,Starlett Nails & Spa,,,,33.4214732,-111.8934361,,,n_12270097025,shop=beauty
"Rio Verde, AZ",,retail,453991,Blue Dragon Vapor,,,,33.4225311,-111.8756829,,,n_12284601476,shop=tobacco
"Rio Verde, AZ",,retail,445110,Food City,"3202 East Greenway Road, Phoenix, AZ, 85032",+1 602-253-0087,https://www.mifoodcity.com/store/104,33.628406,-112.0120675,,,n_12287277901,"shop=supermarket, brand=Food City"
"Rio Verde, AZ",,retail,445120,One Stop Food Mart,,,,33.4223408,-111.8659745,,,n_12290851207,shop=convenience
"Rio Verde, AZ",,retail,453110,MG Floral & Design,,,,33.4216377,-111.8504874,,,n_12295741057,shop=florist
"Rio Verde, AZ",,retail,445310,Water Plus Ice,,,,33.4213025,-111.8504962,,,n_12295741059,shop=beverages
"Rio Verde, AZ",,retail,446120,Peak Nail Spa,,,,33.4209273,-111.8502803,,,n_12295741061,shop=beauty
"Rio Verde, AZ",,retail,445110,Fry's Marketplace,"8900 East Via Linda, Scottsdale, AZ, 85258",+1 480-657-6433,https://www.frysfood.com/stores/grocery/az/scottsdale/pima-via-linda/660/00621,33.5704764,-111.8891776,,,n_12309782228,"shop=supermarket, brand=Fry's Food and Drug"
"Rio Verde, AZ",,retail,453991,Match One Smoke Shop,,,,33.4219805,-111.8203388,,,n_12327820403,shop=tobacco
"Rio Verde, AZ",,retail,445310,Club Live Well,,,,33.422036,-111.819873,,,n_12327820405,shop=beverages
"Rio Verde, AZ",,retail,445120,Elsa's Foodmart,,,,33.4226902,-111.8136346,,,n_12327820460,shop=convenience
"Rio Verde, AZ",,retail,445292,Rocket Fizz,7101 East 6th Avenue,,,33.4986362,-111.9280845,,,n_12333533620,"shop=confectionery, brand=Rocket Fizz"
"Rio Verde, AZ",,retail,445110,Whole Foods Market,"12500 North Tatum Boulevard, Phoenix, AZ, 85032",602-569-7600,https://www.wholefoodsmarket.com/stores/paradisevalleymall85032,33.6017757,-111.9812544,,,n_12338104403,"shop=supermarket, brand=Whole Foods Market, operator=Whole Foods Market"
"Rio Verde, AZ",,retail,445110,Whole Foods Market,"7628 E Indian School Road, Scottsdale, AZ, 85251",,,33.4957613,-111.9160004,,,n_12338109972,"shop=supermarket, brand=Whole Foods Market"
"Rio Verde, AZ",,retail,446120,Outer Beauty Inner Peace Salon,,,,33.4225663,-111.8074052,,,n_12347154024,shop=beauty
"Rio Verde, AZ",,retail,453110,French Florist - North Scottsdale,"6501 East Greenway Parkway, Scottsdale, AZ, 85254",480-573-0396,https://www.frenchflorist.com/,33.6238996,-111.9424602,,,n_12359885063,shop=florist
"Rio Verde, AZ",,retail,445110,,,,,33.4124885,-111.8738169,,,n_12392889320,shop=supermarket
"Rio Verde, AZ",,retail,446110,CVS Pharmacy,,,,33.5093056,-111.996218,,,n_12398979733,"shop=chemist, brand=CVS Pharmacy"
"Rio Verde, AZ",,retail,445292,See's Candies,,,,33.4969875,-111.925883,,,n_12454427258,"shop=confectionery, brand=See's Candies"
"Rio Verde, AZ",,retail,446120,Curv Body Lounge,,,,33.4972166,-111.9258814,,,n_12454427259,shop=beauty
"Rio Verde, AZ",,retail,446120,Bath & Body Works,,,,33.5035926,-111.9297462,,,n_12454744516,"shop=cosmetics, brand=Bath & Body Works"
"Rio Verde, AZ",,retail,446120,Sephora,,,,33.5036835,-111.9282,,,n_12454744542,"shop=cosmetics, brand=Sephora"
"Rio Verde, AZ",,retail,446120,MAC Cosmetics,,,,33.5037072,-111.9298792,,,n_12454744552,"shop=cosmetics, brand=MAC Cosmetics"
"Rio Verde, AZ",,retail,446120,Jo Malone,,,,33.5039969,-111.9297748,,,n_12454744556,"shop=perfumery, brand=Jo Malone"
"Rio Verde, AZ",,retail,445292,The Jerky King,,480-264-3325,,33.4135734,-111.8760774,,,n_12461011080,shop=confectionery
"Rio Verde, AZ",,retail,446120,Bodyroll Studio,,,,33.4929627,-111.9302663,,,n_12472668192,shop=beauty
"Rio Verde, AZ",,retail,446120,Image on main,,,,33.4932459,-111.9300114,,,n_12472704521,shop=cosmetics
"Rio Verde, AZ",,retail,452319,Dollar Tree,"4323 East Bell Road, 85032",4804858762,https://dollartree.com/,33.6400133,-111.9874289,,,n_12584380501,"shop=variety_store, brand=Dollar Tree"
"Rio Verde, AZ",,retail,445120,Party City,"4533 East Cactus Road, 85032",(623) 259-1661,http://stores.partycity.com,33.5986674,-111.9857014,,,n_12585373602,shop=convenience
"Rio Verde, AZ",,retail,446120,Ziba Beauty - Eyebrow Threading - Kids Cut- Men’s Haircut,"4515 East Cactus Road, 85032",,https://ziba-beauty.com/,33.5986812,-111.9861901,,,n_12585571001,shop=beauty
"Rio Verde, AZ",,retail,445120,Dollar Tree,"12805 North Tatum Boulevard, 85032",5204855191,,33.6021485,-111.9766571,,,n_12586948704,shop=convenience
"Rio Verde, AZ",,retail,446120,Sephora,"12646 North Tatum Boulevard, 85032",6028870366,https://www.sephora.com/,33.6019125,-111.9812408,,,n_12586955401,shop=cosmetics
"Rio Verde, AZ",,retail,453110,Rosa Elegante LLC Flower Shop,"347 East Southern Avenue, Mesa, AZ, 85210",+1 602-544-7043,,33.391803,-111.8233284,,,n_12587031836,shop=florist
"Rio Verde, AZ",,retail,446120,B5 Beauty School,"420 East Southern Avenue, Mesa, AZ, 85204",+1 602-900-1999,,33.3944528,-111.822041,,,n_12587031884,shop=beauty
"Rio Verde, AZ",,retail,453110,La Ocasion Flower Shop,"420 East Southern Avenue, Mesa, AZ, 85204",+1 602-872-7270,,33.3943631,-111.8221641,,,n_12587031885,shop=florist
"Rio Verde, AZ",,retail,446120,LuxeNails & Spa,"7342 East Shea Boulevard, Scottsdale, AZ, 85254",,https://luxenailandspa.com/,33.5837501,-111.9234175,,,n_12639769401,shop=beauty
"Rio Verde, AZ",,retail,445120,,"15515 North Scottsdale Road, Scottsdale, AZ, 85254",,,33.6289663,-111.9247214,,,n_12646032820,shop=convenience
"Rio Verde, AZ",,retail,445310,Total Wine,"10320 North Scottsdale Road, Scottsdale, AZ, 85253",,,33.579623,-111.9276197,,,n_12646611003,"shop=alcohol, brand=Total Wine"
"Rio Verde, AZ",,retail,446120,Whish,"15649 North Greenway Hayden Loop, Scottsdale, AZ, 85260",,https://whishbody.com,33.6274938,-111.9150324,,,n_12903546310,shop=beauty
"Rio Verde, AZ",,retail,445120,QuikTrip,"1956 East Southern Avenue, Mesa, AZ, 85204",,,33.3941276,-111.7892652,,,n_12972058528,"shop=convenience, brand=QuikTrip"
"Rio Verde, AZ",,retail,446120,Skinsight By Kellie,"1061 North Dobson Road, Mesa, AZ, 85201",+1-480-818-4568,https://skinsight-by-kellie.square.site/,33.4356003,-111.8648265,,,n_12994274169,shop=beauty
"Rio Verde, AZ",,retail,452319,Prime IV,"5310 East High Street, Phoenix, AZ, 85054-5471",+1-602-975-4918,https://primeivhydration.com/locations/arizona/phoenix-85054/,33.6764324,-111.9664476,,,n_13002554120,shop=general
"Rio Verde, AZ",,retail,445310,Sonoran Desert Olive Oil Company,"5350 East High Street, Phoenix, AZ, 85054-5471",+1-480-656-9076,https://www.sonorandesertoliveoil.com/,33.6760777,-111.9653115,,,n_13004192947,shop=beverages
"Rio Verde, AZ",,retail,446120,Brazillian Touch MedSpa,"5415 East High Street, Phoenix, AZ, 85054-5461",+1-480-618-7204,https://www.braziliantouchmedspa.com/,33.6755807,-111.9651162,,,n_13004192951,shop=beauty
"Rio Verde, AZ",,retail,446120,Primp And Blow,"5410 East High Street, Phoenix, AZ, 85054-5457",+1-602-845-4000,https://primpandblow.com/locations/phoenix-location/,33.6757453,-111.9642877,,,n_13004192957,shop=beauty
"Rio Verde, AZ",,retail,446120,M3V The Nail Bar,"5450 East High Street, Phoenix, AZ, 85054-5459",+1-480-659-9556,https://www.m3vnailbar.com/,33.6755934,-111.9637694,,,n_13004192962,shop=beauty
"Rio Verde, AZ",,retail,445110,Sprouts Farmers Market,"5455 East High Street, Phoenix, AZ, 85054-5464",+1-602-682-3200,https://www.highstreetaz.com/directory/sprouts-express/,33.6752842,-111.9637103,,,n_13004192964,"shop=supermarket, brand=Sprouts Farmers Market"
"Rio Verde, AZ",,retail,445120,Circle K,"12201 North Cave Creek Road, Phoenix, AZ, 85022",,,33.5972924,-112.0372039,,,w_33090566,"shop=convenience, brand=Circle K"
"Rio Verde, AZ",,retail,445120,Country Market Deli,"8941 North 12th Street, Phoenix, AZ, 85020",,,33.567521,-112.056249,,,w_33151188,shop=convenience
"Rio Verde, AZ",,retail,446110,Walgreens,"13227 North 7th Street, Phoenix, AZ, 85028",,https://www.walgreens.com/locator/walgreens-13227+n+7th+st-phoenix-az-85022/id=6599,33.6063349,-112.0643721,,,w_33168245,"shop=chemist, brand=Walgreens"
"Rio Verde, AZ",,retail,445120,QuikTrip,"2019 East Cactus Road, Phoenix, AZ, 85022",,,33.5961165,-112.0353668,,,w_33184427,"shop=convenience, brand=QuikTrip"
"Rio Verde, AZ",,retail,445110,Original ChopShop,"1850 South Val Vista Drive, Mesa, AZ, 85204",,,33.3812324,-111.7544158,,,w_35433972,shop=supermarket
"Rio Verde, AZ",,retail,445120,Circle K,"3589 East Baseline Road, Gilbert, AZ, 85234",,,33.3783938,-111.7547978,,,w_35433989,"shop=convenience, brand=Circle K"
"Rio Verde, AZ",,retail,445110,Walmart Supercenter,"857 North Dobson Road, Mesa, AZ, 85201",+1 480-962-0038,https://www.walmart.com/store/2482-mesa-az,33.4319929,-111.8653524,,,w_44660034,"shop=supermarket, brand=Walmart, operator=Walmart"
"Rio Verde, AZ",,retail,452210,Burlington,"1812 West Rio Salado Parkway, Mesa, AZ, 85201",+1 480-962-9029,https://stores.burlington.com/az/mesa/1037,33.4299725,-111.8698684,,,w_44660035,"shop=department_store, brand=Burlington"
"Rio Verde, AZ",,retail,453991,All N One Smoke Shop,"3544 East Broadway Road, Mesa, AZ, 85204",,,33.408582,-111.7543392,,,w_45284735,"shop=tobacco, brand=Estrella Insurance"
"Rio Verde, AZ",,retail,445120,QuikTrip,"3563 East Main Street, Mesa, AZ, 85213",,,33.4147911,-111.7544363,,,w_45284802,"shop=convenience, brand=QuikTrip"
"Rio Verde, AZ",,retail,445120,76,"363 South Gilbert Road, Mesa, AZ, 85204",,,33.4085454,-111.787737,,,w_45291683,"shop=convenience, brand=76"
"Rio Verde, AZ",,retail,445120,ampm,"2751 East University Drive, Mesa, AZ, 85213",,,33.4221658,-111.7716642,,,w_45304405,"shop=convenience, brand=ampm"
"Rio Verde, AZ",,retail,445120,Circle K,"3550 East Main Street, Mesa, AZ, 85213",,,33.4161342,-111.7543357,,,w_46684115,"shop=convenience, brand=Circle K"
"Rio Verde, AZ",,retail,445120,Circle K,"2815 East University Drive, Mesa, AZ, 85213",,,33.4222088,-111.7704836,,,w_46684122,"shop=convenience, brand=Circle K"
"Rio Verde, AZ",,retail,446110,CVS Pharmacy,"360 North Val Vista Drive, Mesa, AZ, 85213",,https://www.cvs.com/store-locator/mesa-az-pharmacies/360-n-val-vista-dr-mesa-az-85213/storeid=5779,33.4221533,-111.7544107,,,w_46684152,"shop=chemist, brand=CVS Pharmacy"
"Rio Verde, AZ",,retail,445120,Circle K,"12042 North 32nd Street, Phoenix, AZ, 85028",,,33.5965827,-112.0138207,,,w_62262645,"shop=convenience, brand=Circle K"
"Rio Verde, AZ",,retail,445120,7-Eleven,"3201 East Shea Boulevard, Phoenix, AZ, 85028",+1 602-953-8003,https://www.7-eleven.com/locations/az/phoenix/3201-e-shea-blvd-26086,33.5821713,-112.0125412,,,w_62263648,"shop=convenience, brand=7-Eleven"
"Rio Verde, AZ",,retail,445120,ampm,"3610 East Bell Road, Phoenix, AZ, 85032",,,33.6412,-112.0043637,,,w_62265064,"shop=convenience, brand=ampm"
"Rio Verde, AZ",,retail,445292,See's Candies,"4576 East Cactus Road, Phoenix, AZ, 85032",,,33.5998633,-111.9828227,,,w_64888606,"shop=confectionery, brand=See's Candies"
"Rio Verde, AZ",,retail,446110,Walgreens,"10865 North Tatum Boulevard, Phoenix, AZ, 85028",,https://www.walgreens.com/locator/walgreens-10865+n+tatum+blvd-phoenix-az-85028/id=3191,33.5858551,-111.9773007,,,w_65592145,"shop=chemist, brand=Walgreens"
"Rio Verde, AZ",,retail,445110,Trader Joe's,"4726 East Shea Boulevard, Phoenix, AZ, 85028",+1 602-485-7788,https://locations.traderjoes.com/az/phoenix/282/,33.5833358,-111.9790541,,,w_65592189,"shop=supermarket, brand=Trader Joe's"
"Rio Verde, AZ",,retail,445110,Walmart Supercenter,"4747 East Cactus Road, Phoenix, AZ, 85032",+1 602-404-3712,https://www.walmart.com/store/4232-phoenix-az,33.5961325,-111.978628,,,w_65742643,"shop=supermarket, brand=Walmart, operator=Walmart"
"Rio Verde, AZ",,retail,445120,Circle K,"15262 North Tatum Boulevard, Phoenix, AZ, 85032",,,33.6254799,-111.9784994,,,w_66604308,"shop=convenience, brand=Circle K"
"Rio Verde, AZ",,retail,445120,Circle K,"15412 North 32nd Street, Phoenix, AZ, 85032",,,33.6267131,-112.0139511,,,w_67085450,"shop=convenience, brand=Circle K"
"Rio Verde, AZ",,retail,446110,Walgreens,"4710 East Rose Garden Lane, Phoenix, AZ, 85050",,https://www.walgreens.com/locator/walgreens-4710+e+rose+garden+ln-phoenix-az-85050/id=9261,33.6773395,-111.9787581,,,w_67121968,"shop=chemist, brand=Walgreens"
"Rio Verde, AZ",,retail,445110,Albertsons,"21001 North Tatum Boulevard, Phoenix, AZ, 85050",+1 480-342-8231,https://local.albertsons.com/az/phoenix/21001-n-tatum-blvd-suite-76.html,33.678675,-111.9746871,,,w_67121982,"shop=supermarket, brand=Albertsons"
"Rio Verde, AZ",,retail,445120,Jacksons,"21001 North Tatum Boulevard, Phoenix, AZ, 85050",,,33.679874,-111.9767293,,,w_67121993,"shop=convenience, brand=Jacksons"
"Rio Verde, AZ",,retail,452210,Target,"21001 North Tatum Boulevard, Phoenix, AZ, 85050",+1 480-419-9380,https://www.target.com/sl/phoenix-ne/1360,33.6743381,-111.9743562,,,w_67122000,"shop=department_store, brand=Target"
"Rio Verde, AZ",,retail,445120,Circle K,"Phoenix, AZ, 85032",,,33.6123604,-111.9965136,,,w_71076564,"shop=convenience, brand=Circle K"
"Rio Verde, AZ",,retail,445110,Fry's Food and Drug,"4025 East Thunderbird Road, Phoenix, AZ, 85032",+1 602-953-1615,https://www.frysfood.com/stores/grocery/az/phoenix/40th-st-thunderbird/660/00121,33.6110663,-111.9941228,,,w_71076567,"shop=supermarket, brand=Fry's Food and Drug"
"Rio Verde, AZ",,retail,445110,Safeway,"6501 East Greenway Parkway;East Greenway Parkway Building 4, Scottsdale, AZ, 85254",+1 480-991-3317,https://local.safeway.com/safeway/az/scottsdale/6501-e-greenway-pkwy-bldg-4.html,33.6240104,-111.9416388,,,w_71277325,"shop=supermarket, brand=Safeway"
"Rio Verde, AZ",,retail,445120,Kierland Express LLC,"6347 East Greenway Road, Scottsdale, AZ, 85254",,,33.6252194,-111.9434907,,,w_71277326,shop=convenience
"Rio Verde, AZ",,retail,446110,Walgreens,"6501 East Greenway Road, Scottsdale, AZ, 85254",,,33.6253629,-111.9422479,,,w_71277329,"shop=chemist, brand=Walgreens"
"Rio Verde, AZ",,retail,445110,Fry's Food and Drug,"6339;6321 East Greenway Road, Scottsdale, AZ, 85254",+1 480-368-8940,https://www.frysfood.com/stores/grocery/az/scottsdale/64th-st-greenway/660/00120,33.6246419,-111.9445286,,,w_71277331,"shop=supermarket, brand=Fry's Food and Drug"
"Rio Verde, AZ",,retail,445120,Circle K,"East Greenway Road, Phoenix, AZ, 85032",,,33.6269584,-111.9967128,,,w_71277416,"shop=convenience, brand=Circle K"
"Rio Verde, AZ",,retail,445120,Circle K,"18422 North Tatum Boulevard, Phoenix, AZ, 85032",,,33.6547314,-111.9782637,,,w_71277438,"shop=convenience, brand=Circle K"
"Rio Verde, AZ",,retail,446110,Walgreens,"4006 East Bell Road, Phoenix, AZ, 85032",,https://www.walgreens.com/locator/walgreens-4006+e+bell+rd-phoenix-az-85032/id=4951,33.6412878,-111.9954479,,,w_71277511,"shop=chemist, brand=Walgreens"
"Rio Verde, AZ",,retail,445120,Circle K,"4808 East Bell Road, Phoenix, AZ, 85254",,,33.6411771,-111.9767342,,,w_71277539,"shop=convenience, brand=Circle K"
"Rio Verde, AZ",,retail,445120,,"East Bell Road, Scottsdale, AZ, 85254",,,33.6398462,-111.9593954,,,w_71277542,shop=convenience
"Rio Verde, AZ",,retail,446110,CVS Pharmacy,"4323 East Bell Road, Phoenix, AZ, 85032",,,33.6400304,-111.9874341,,,w_71277565,"shop=chemist, amenity=pharmacy, brand=CVS Pharmacy"
"Rio Verde, AZ",,retail,445110,Safeway,"20901 North Pima Road, Scottsdale, AZ, 85255",+1 480-585-3552,https://local.safeway.com/safeway/az/scottsdale/20901-n-pima-rd.html,33.6758186,-111.8881743,,,w_77848830,"shop=supermarket, brand=Safeway"
"Rio Verde, AZ",,retail,445110,Trader Joe's,"7555 East Frank Lloyd Wright Boulevard, Scottsdale, AZ, 85260",+1 480-367-8920,https://locations.traderjoes.com/az/scottsdale/87/,33.6359248,-111.9171681,,,w_79734180,"shop=supermarket, brand=Trader Joe's"
"Rio Verde, AZ",,retail,445210,Scottsdale Meat Market,"14987 North Northsight Boulevard, Scottsdale, AZ, 85260",,,33.6214477,-111.8970345,,,w_79794643,shop=butcher
"Rio Verde, AZ",,retail,452210,Kohl's,"8680 East Raintree Drive, Scottsdale, AZ, 85260",+1 480-609-9830,https://www.kohls.com/stores/az/scottsdale-620.shtml,33.6191536,-111.8952672,,,w_79794651,"shop=department_store, brand=Kohl's"
"Rio Verde, AZ",,retail,445110,Walmart Supercenter,"15355 North Northsight Boulevard, Scottsdale, AZ, 85260",+1 480-348-5505,https://www.walmart.com/store/2766-scottsdale-az,33.6247115,-111.8935526,,,w_79794657,"shop=supermarket, brand=Walmart, operator=Walmart"
"Rio Verde, AZ",,retail,452210,Ross,"15694 North Frank Lloyd Wright Boulevard, Scottsdale, AZ, 85260",+1 480-391-2617,,33.6286026,-111.8892824,,,w_79794714,"shop=department_store, brand=Ross"
"Rio Verde, AZ",,retail,446110,CVS Pharmacy,"3210 East Union Hills Drive, Phoenix, AZ, 85050",,https://www.cvs.com/store-locator/phoenix-az-pharmacies/3210-e-union-hills-dr-phoenix-az-85050/storeid=3264,33.6556801,-112.012794,,,w_82162095,"shop=chemist, brand=CVS Pharmacy"
"Rio Verde, AZ",,retail,446110,Walgreens,"2415 East Union Hills Drive, Phoenix, AZ, 85050",,https://www.walgreens.com/locator/walgreens-2415+e+union+hills+dr-phoenix-az-85050/id=3132,33.6544382,-112.0301585,,,w_82163144,"shop=chemist, brand=Walgreens"
"Rio Verde, AZ",,retail,445120,,"2340 East Union Hills Drive, Phoenix, AZ, 85024",,,33.6558021,-112.031439,,,w_82163148,shop=convenience
"Rio Verde, AZ",,retail,446110,Walgreens,"2435 East Greenway Parkway, Phoenix, AZ",,,33.630862,-112.0290808,,,w_82697513,"shop=chemist, brand=Walgreens"
"Rio Verde, AZ",,retail,445120,,"15827 North Cave Creek Road, Phoenix, AZ, 85032",,,33.6311682,-112.0300792,,,w_82697514,shop=convenience
"Rio Verde, AZ",,retail,445120,7-Eleven,"8410 East McDonald Drive, Scottsdale, AZ, 85250",+1 480-948-7363,https://www.7-eleven.com/locations/az/scottsdale/8410-east-mcdonald-26411,33.5243522,-111.8996583,,,w_93099387,"shop=convenience, brand=7-Eleven"
"Rio Verde, AZ",,retail,445120,The Market,"9030 East Talking Stick Way, Scottsdale, AZ, 85250",480-596-3800,,33.5389197,-111.8864233,,,w_93160849,shop=convenience
"Rio Verde, AZ",,retail,446110,Walgreens,"8816 East Pinnacle Peak Road, Scottsdale, AZ, 85254",+1-480-473-8965,https://www.walgreens.com/locator/walgreens-8816+e+pinnacle+peak+rd-scottsdale-az-85255/id=3602,33.6992719,-111.8892343,,,w_97991528,"shop=chemist, brand=Walgreens"
"Rio Verde, AZ",,retail,446110,CVS Pharmacy,"10160 East Bell Road, Scottsdale, AZ, 85260",(480) 473-4608,https://www.cvs.com/store-locator/scottsdale-az-pharmacies/10160-bell-road-east-scottsdale-az-85260/storeid=7862,33.6408447,-111.8620425,,,w_101254359,"shop=chemist, brand=CVS Pharmacy"
"Rio Verde, AZ",,retail,445110,AJ's Fine Foods,"23251 North Pima Road, Scottsdale, AZ, 85255",+1-480-563-5070,https://www.ajsfinefoods.com/,33.6968077,-111.8884097,,,w_101363888,shop=supermarket
"Rio Verde, AZ",,retail,445110,Fry's Food and Drug,"7770 East McDowell Road, Scottsdale, AZ, 85257",+1 480-941-4088,https://www.frysfood.com/stores/grocery/az/scottsdale/77th-st-mcdowell/660/00005,33.467293,-111.9128443,,,w_126319240,"shop=supermarket, brand=Fry's Food and Drug"
"Rio Verde, AZ",,retail,445110,Safeway,"550 East Bell Road, Phoenix, AZ, 85022",+1 602-863-4194,https://local.safeway.com/safeway/az/phoenix/550-e-bell-rd.html,33.6417864,-112.0671593,,,w_145092098,"shop=supermarket, brand=Safeway"
"Rio Verde, AZ",,retail,445120,Circle K,"3011 East Bell Road, Phoenix, AZ, 85032",,,33.6399014,-112.0174005,,,w_146986446,"shop=convenience, brand=Circle K"
"Rio Verde, AZ",,retail,445110,Safeway,"10773 North Scottsdale Road, Scottsdale, AZ, 85254",+1 480-948-6446,https://local.safeway.com/safeway/az/scottsdale/10773-n-scottsdale-rd.html,33.5842883,-111.9243761,,,w_154827917,"shop=supermarket, brand=Safeway"
"Rio Verde, AZ",,retail,446110,CVS Pharmacy,"10653 North Scottsdale Road, Scottsdale, AZ, 85254",,https://www.cvs.com/store-locator/scottsdale-az-pharmacies/10653-n-scottsdale-rd-scottsdale-az-85254/storeid=9210,33.5831865,-111.9242808,,,w_154827919,"shop=chemist, brand=CVS Pharmacy"
"Rio Verde, AZ",,retail,445120,,"1910 West Deer Valley Road;West Deer Valley Drive, Phoenix, AZ, 85027",,,33.6843534,-112.1004009,,,w_157362574,shop=convenience
"Rio Verde, AZ",,retail,445120,Shell,"420 North Apache Trail, Apache Junction, AZ, 85120",,,33.4194864,-111.5465428,,,w_158505935,"shop=convenience, brand=Shell"
"Rio Verde, AZ",,retail,445120,Circle K,"85 West Superstition Boulevard, Apache Junction, AZ, 85120",,https://www.circlek.com/store-locator/US/apache-junction/85-w-superstition-blvd/2708746,33.4220521,-111.5465156,,,w_158505954,"shop=convenience, amenity=fuel, brand=Circle K"
"Rio Verde, AZ",,retail,445120,Circle K,"85 West Superstition Boulevard, Apache Junction, AZ, 85120",,,33.4217906,-111.5466388,,,w_158505961,"shop=convenience, brand=Circle K"
"Rio Verde, AZ",,retail,445120,Circle K,"3135 West Superstition Boulevard, Apache Junction, AZ, 85120",,,33.4217743,-111.5800812,,,w_158621691,"shop=convenience, brand=Circle K"
"Rio Verde, AZ",,retail,445120,Pyramid Mini Market,"2130 West Apache Trail, Apache Junction, AZ, 85120",,,33.4157354,-111.5695451,,,w_158926096,shop=convenience
"Rio Verde, AZ",,retail,445120,,"1633 West Superstition Boulevard, Apache Junction, AZ, 85120",,,33.4219249,-111.5640948,,,w_158926255,"shop=convenience, brand=4 Son's Food Store"
"Rio Verde, AZ",,retail,445310,Apache Mini Mart,"2925 West Superstition Boulevard, Apache Junction, AZ, 85120",,,33.4219764,-111.5776741,,,w_158926392,shop=alcohol
"Rio Verde, AZ",,retail,445120,Circle K,"2341 South Ironwood Drive, Apache Junction, AZ, 85120",,,33.3940081,-111.562699,,,w_163215437,"shop=convenience, brand=Circle K"
"Rio Verde, AZ",,retail,445120,,"3940 South Ironwood Drive, Apache Junction, AZ, 85120",,,33.3793805,-111.5642463,,,w_163408609,shop=convenience
"Rio Verde, AZ",,retail,445110,The Good Apple,"100 North Plaza Drive, Apache Junction, AZ, 85120",+1 480 982 2239,http://www.thegoodapple.com/,33.4167367,-111.5507734,,,w_164936211,shop=supermarket
"Rio Verde, AZ",,retail,446110,CVS Pharmacy,"325 West Apache Trail, Apache Junction, AZ, 85120",+1 480 983 1129,https://www.cvs.com/store-locator/apache-junction-az-pharmacies/325-w-apache-trail-apache-junction-az-85120/storeid=9293,33.4138373,-111.5494681,,,w_164936228,"shop=chemist, brand=CVS Pharmacy"
"Rio Verde, AZ",,retail,445310,Lucky Bob's Liquor Outlet,"431 West Apache Trail, Apache Junction, AZ, 85120",+1 480 982 2581,,33.4143261,-111.5507366,,,w_164936231,shop=alcohol
"Rio Verde, AZ",,retail,446110,Walgreens,"55 West Apache Trail, Apache Junction, AZ, 85120",+1 480 288 1271,https://www.walgreens.com/locator/walgreens-55+w+apache+trl-apache+junction-az-85120/id=4188,33.4125255,-111.5470224,,,w_164936235,"shop=chemist, brand=Walgreens"
"Rio Verde, AZ",,retail,445110,Safeway,"3185 West Apache Trail, Apache Junction, AZ, 85120",+1 480-982-6120,https://local.safeway.com/safeway/az/apache-junction/3185-w-apache-trail.html,33.413738,-111.5797539,,,w_164987973,"shop=supermarket, brand=Safeway, operator=Safeway"
"Rio Verde, AZ",,retail,445110,Walmart Supercenter,"2555 West Apache Trail, Apache Junction, AZ, 85120",+1 480-380-3800,https://www.walmart.com/store/1381-apache-junction-az,33.4139089,-111.5753817,,,w_164987975,"shop=supermarket, brand=Walmart, operator=Walmart"
"Rio Verde, AZ",,retail,445120,Marathon,"1571 West Apache Trail, Apache Junction, AZ, 85120",,,33.4145503,-111.5630685,,,w_165396182,"shop=convenience, brand=Marathon"
"Rio Verde, AZ",,retail,445120,QuikTrip,"2500 East Union Hills Drive, Phoenix, AZ, 85050",,,33.6557113,-112.029466,,,w_168995965,"shop=convenience, brand=QuikTrip"
"Rio Verde, AZ",,retail,446110,Walgreens,"29660 North Tatum Boulevard, Phoenix, AZ, 85331",,https://www.walgreens.com/locator/walgreens-29660+n+tatum+blvd-cave+creek-az-85331/id=3912,33.7547206,-111.9903664,,,w_169013354,"shop=chemist, brand=Walgreens"
"Rio Verde, AZ",,retail,445110,Safeway,"29834 North Cave Creek Road, Phoenix, AZ, 85331",+1 480-563-9335,https://local.safeway.com/safeway/az/cave-creek/29834-n-cave-creek-rd.html,33.7578923,-111.9918188,,,w_169013360,"shop=supermarket, brand=Safeway"
"Rio Verde, AZ",,retail,445110,Food City,"339 East Brown Road, Mesa, AZ, 85201",+1 480-898-3352,https://www.mifoodcity.com/store/2,33.4342125,-111.8234638,,,w_169173019,"shop=supermarket, brand=Food City"
"Rio Verde, AZ",,retail,446110,CVS Pharmacy,"305 East Brown Road, Mesa, AZ, 85201",,https://www.cvs.com/store-locator/mesa-az-pharmacies/305-e-brown-rd-mesa-az-85201/storeid=9213,33.4342327,-111.8246566,,,w_169173021,"shop=chemist, brand=CVS Pharmacy"
"Rio Verde, AZ",,retail,445120,Circle K,"11 East McKellips Road, Mesa, AZ, 85201",,,33.451059,-111.830785,,,w_169298121,"shop=convenience, brand=Circle K, operator=Circle K"
"Rio Verde, AZ",,retail,445120,Circle K,"1550 North Country Club Drive, Mesa, AZ, 85201",,,33.4438022,-111.8403346,,,w_169298124,"shop=convenience, brand=Circle K, operator=Circle K"
"Rio Verde, AZ",,retail,445120,Circle K,"1560 West Main Street, Mesa, AZ, 85201",,,33.4152401,-111.8651197,,,w_169298125,"shop=convenience, brand=Circle K, operator=Circle K"
"Rio Verde, AZ",,retail,445120,Circle K,"410 North Center Street, Mesa, AZ, 85201",,,33.4229155,-111.8319596,,,w_169298128,"shop=convenience, brand=Circle K, operator=Circle K"
"Rio Verde, AZ",,retail,445120,Mr J's Market,"559 North Country Club Drive, Mesa, AZ, 85201",,,33.4258205,-111.8395844,,,w_169639373,shop=convenience
"Rio Verde, AZ",,retail,445310,Fairway Liquor Market,"340 West Brown Road, Mesa, AZ, 85201",,,33.4356253,-111.8389605,,,w_169651992,shop=alcohol
"Rio Verde, AZ",,retail,445120,Cicle K,"20202 North 7th Avenue, Phoenix, AZ, 85027",,,33.6697881,-112.0836488,,,w_169762023,shop=convenience
"Rio Verde, AZ",,retail,445120,Circle K,"2933 South Tomahawk Road, Apache Junction, AZ, 85119",,,33.3883332,-111.5279439,,,w_170296436,"shop=convenience, brand=Circle K"
"Rio Verde, AZ",,retail,445120,Circle K,"427 South Crismon Road, Mesa, AZ, 85208",,,33.4072822,-111.6145056,,,w_170998361,"shop=convenience, brand=Circle K"
"Rio Verde, AZ",,retail,452319,Dollar Tree,"10708 East Southern Avenue, Mesa, AZ, 85209",+1 480 380 4230,https://www.dollartree.com/locations/az/mesa/2633/,33.3948101,-111.6001488,,,w_170998400,"shop=variety_store, brand=Dollar Tree"
"Rio Verde, AZ",,retail,445110,Bashas',"10715 East Main Street, Mesa, AZ, 85120",,,33.4134184,-111.5997245,,,w_171308849,"shop=supermarket, brand=Bashas'"
"Rio Verde, AZ",,retail,445120,,"28 North Signal Butte Road, Apache Junction, AZ, 85120",,,33.4159837,-111.5985774,,,w_171308892,shop=convenience
"Rio Verde, AZ",,retail,445120,ampm,"25 West McKellips Road, Mesa, AZ, 85201",,,33.4509492,-111.8316507,,,w_172108118,"shop=convenience, brand=ampm"
"Rio Verde, AZ",,retail,445120,Chevron,"1143 North Ellsworth Road, Mesa, AZ, 85207",,,33.4362487,-111.6318313,,,w_172747024,"shop=convenience, brand=Chevron"
"Rio Verde, AZ",,retail,445120,QuikTrip,"517 West McKellips Road, Mesa, AZ, 85201",,,33.4507119,-111.8424299,,,w_173112489,"shop=convenience, brand=QuikTrip"
"Rio Verde, AZ",,retail,445310,Beer World,"1530 North Country Club Drive, Mesa, AZ, 85201",,,33.4435122,-111.8403265,,,w_173883685,shop=alcohol
"Rio Verde, AZ",,retail,445120,Bita Market Kitchen,"1710 North Country Club Drive, Mesa, AZ, 85201",,,33.4462767,-111.8402462,,,w_173883691,shop=convenience
"Rio Verde, AZ",,retail,445120,Shell,"9202 East Main Street, Mesa, AZ, 85207",,,33.4159935,-111.6322594,,,w_173911930,"shop=convenience, brand=Shell"
"Rio Verde, AZ",,retail,445120,Circle K,"9615 East University Drive, Mesa, AZ, 85207",,,33.421918,-111.6235942,,,w_173911945,"shop=convenience, brand=Circle K"
"Rio Verde, AZ",,retail,445120,Shop Quick,"1150 West McLellan Road, Mesa, AZ, 85201",,,33.4443052,-111.855846,,,w_174023904,shop=convenience
"Rio Verde, AZ",,retail,445120,Chevron,"1148 South Ellsworth Road, Mesa, AZ, 85209",,,33.3939933,-111.633595,,,w_175775664,"shop=convenience, brand=Chevron"
"Rio Verde, AZ",,retail,445120,At Your Convenience,"8461 East Broadway Road, Mesa, AZ, 85208",,,33.4074444,-111.6480113,,,w_175914777,shop=convenience
"Rio Verde, AZ",,retail,452319,Dollar Tree,"1918 West Rio Salado Parkway, Mesa, AZ, 85201",,,33.4300385,-111.8723303,,,w_175957283,"shop=variety_store, brand=Dollar Tree"
"Rio Verde, AZ",,retail,446110,Walgreens,"1935 North Power Road, Mesa, AZ, 85205",,https://www.walgreens.com/locator/walgreens-1935+n+power+rd-mesa-az-85205/id=3215,33.4509329,-111.6831997,,,w_176985531,"shop=chemist, brand=Walgreens"
"Rio Verde, AZ",,retail,446110,CVS Pharmacy,"5400 North Cave Creek Road;East Carefree Highway, Carefree, AZ, 85331",,,33.7999588,-111.9644598,,,w_183531512,"shop=chemist, brand=CVS Pharmacy"
"Rio Verde, AZ",,retail,445120,QuikTrip,"2212 East Bell Road, Phoenix, AZ, 85022",,,33.6412178,-112.0346669,,,w_184595201,"shop=convenience, brand=QuikTrip"
"Rio Verde, AZ",,retail,445120,QuikTrip,"19815 North 7th Street, Phoenix, AZ, 85024",,,33.666201,-112.064813,,,w_187894441,"shop=convenience, brand=QuikTrip"
"Rio Verde, AZ",,retail,445110,Safeway,"7920 East Chaparral Road, Scottsdale, AZ, 85250",+1 480-994-5653,https://local.safeway.com/safeway/az/scottsdale/7920-e-chaparral-rd.html,33.5106878,-111.9103793,,,w_198967889,"shop=supermarket, brand=Safeway"
