Location,Search Keyword,Segment,NAICS Code,Business Name,Address,Phone Number,Website,Latitude,Longitude,Rating,User Ratings,Place ID,Types
"Gilroy, CA",,retail,445110,Windmill Market,"301 The Alameda, San Juan Bautista, CA, 95045",,,36.8411133,-121.5351038,,,n_315635600,shop=supermarket
"Gilroy, CA",,retail,452210,Big Lots,"360 East 10th Street, Gilroy, CA, 95020",+1 669-305-0419,https://local.biglots.com/ca/gilroy/360-e-10th-st,37.000353,-121.560848,,,n_316509283,"shop=department_store, brand=Big Lots"
"Gilroy, CA",,retail,445120,Neil's Super Market,,,,36.8451236,-121.5397885,,,n_318539518,shop=convenience
"Gilroy, CA",,retail,445310,Lynn's Liquors,,,,36.8465707,-121.4013704,,,n_331040695,shop=alcohol
"Gilroy, CA",,retail,445310,Paul's Liquors & Market,"9305 Monterey Road, Gilroy, CA, 95020",,,37.0318866,-121.5816186,,,n_331067017,shop=alcohol
"Gilroy, CA",,retail,445120,Sun Valley Market,"16725 Monterey Road, Morgan Hill, CA, 95037",,,37.1214767,-121.648145,,,n_331090668,shop=convenience
"Gilroy, CA",,retail,445120,ampm,,,,37.1443375,-121.6649491,,,n_331093436,"shop=convenience, brand=ampm"
"Gilroy, CA",,retail,446120,Sola Salons,"18585 Monterey Road, Morgan Hill, CA, 95037",,https://www.solasalonstudios.com/locations/gateway-center?utm_source=gmb&utm_medium=organic,37.1439894,-121.664419,,,n_331094282,"shop=beauty, operator=Gateway VI Investments - Sola Salon Studios"
"Gilroy, CA",,retail,445110,Cardenas,"727 1st Street, Gilroy, CA, 95020",+1 408-493-0113,https://locations.cardenasmarkets.com/ll/us/ca/gilroy/727-1st-st,37.0144001,-121.5830607,,,n_332111900,"shop=supermarket, brand=Cardenas"
"Gilroy, CA",,retail,445110,Nob Hill Foods,"777 1st Street, Gilroy, CA, 95020",+1 408-847-4857,https://www.raleys.com/store/602,37.0144,-121.5850776,,,n_332112939,"shop=supermarket, brand=Nob Hill Foods"
"Gilroy, CA",,retail,452210,Sears Hometown,"835 1st Street, Gilroy, CA, 95020",,,37.0144226,-121.5880736,,,n_332115052,"shop=department_store, brand=Sears Hometown"
"Gilroy, CA",,retail,445120,Frinds Food N Liquor,"343 East 10th Street, Gilroy, CA, 95020",,,37.0023836,-121.5622614,,,n_332492334,"shop=convenience, operator=Ashapuri Inc"
"Gilroy, CA",,retail,445120,Quik Stop,"8400 Church Street, Gilroy, CA, 95020",,,37.0197636,-121.576822,,,n_340311739,"shop=convenience, brand=Quik Stop"
"Gilroy, CA",,retail,445110,Pass Farmers Market,,,,36.9709942,-121.4195769,,,n_386843084,shop=supermarket
"Gilroy, CA",,retail,452210,Burlington,"6900 Chestnut Street, Gilroy, CA, 95020",,https://stores.burlington.com/ca/gilroy/741/,37.0004496,-121.559197,,,n_386909017,"shop=department_store, brand=Burlington"
"Gilroy, CA",,retail,445120,Los Lomas Market,,,,36.8651453,-121.7344735,,,n_392774069,shop=convenience
"Gilroy, CA",,retail,445110,Staff of Life,,,,36.9805889,-122.0082911,,,n_400699340,shop=supermarket
"Gilroy, CA",,retail,445120,DJ's Mini Mart,,,,36.9818496,-122.0141975,,,n_409452170,shop=convenience
"Gilroy, CA",,retail,445310,Ernie's Liquor's,,,,36.9782257,-122.0132517,,,n_409452366,shop=alcohol
"Gilroy, CA",,retail,445120,Deke's Market,,,,36.9656703,-121.998181,,,n_431407465,shop=convenience
"Gilroy, CA",,retail,445310,Garden Liquors & Deli,,,,36.9893852,-121.9801273,,,n_431420730,shop=alcohol
"Gilroy, CA",,retail,445120,7-Eleven,"1875 Soquel Drive, Santa Cruz, CA, 95065-1837",+1 831-475-9599,https://www.7-eleven.com/locations/ca/santa-cruz/1875-soquel-dr-14294,36.9892227,-121.979801,,,n_431420732,"shop=convenience, brand=7-Eleven"
"Gilroy, CA",,retail,445110,Live Oak Super,,,,36.975642,-121.983443,,,n_431699198,shop=supermarket
"Gilroy, CA",,retail,445110,Lucky,"430 Blossom Hill Road, San Jose, CA, 95123",,,37.2501724,-121.829265,,,n_431891127,"shop=supermarket, brand=Lucky"
"Gilroy, CA",,retail,445292,Mackenzies Chocolates,1492 Soquel Avenue,,https://www.mackenzieschocolates.com/,36.9813483,-122.0050891,,,n_436631693,shop=confectionery
"Gilroy, CA",,retail,446110,CVS Pharmacy,,,https://www.cvs.com/store-locator/salinas-ca-pharmacies/17579-vierra-canyon-rd-salinas-ca-93907/storeid=3051,36.7931551,-121.664241,,,n_440299847,"shop=chemist, brand=CVS Pharmacy"
"Gilroy, CA",,retail,445110,Grocery Outlet,"7925 San Miguel Canyon Road, Salinas, CA, 93907",,,36.8021003,-121.665448,,,n_440393776,"shop=supermarket, brand=Grocery Outlet"
"Gilroy, CA",,retail,445310,101 Wine Press,"8049 San Miguel Canyon Road, Prunedale, CA, 93907",,,36.801393,-121.6648354,,,n_440394105,shop=wine
"Gilroy, CA",,retail,445110,El Patio,,,,36.9371467,-121.8627937,,,n_442197491,shop=supermarket
"Gilroy, CA",,retail,445110,Safeway,"16 Rancho Del Mar, Aptos, CA, 95003",+1 831-688-2775,https://local.safeway.com/safeway/ca/aptos/16-rancho-del-mar.html,36.9785814,-121.9086088,,,n_453738678,"shop=supermarket, brand=Safeway"
"Gilroy, CA",,retail,445120,Rio Market,"139 Esplanade, Aptos, CA, 95003",,,36.9693866,-121.9051841,,,n_453822227,shop=convenience
"Gilroy, CA",,retail,445120,,,,,37.2601474,-121.8856417,,,n_461674885,shop=convenience
"Gilroy, CA",,retail,452210,Macy's,,,https://www.macys.com/stores/ca/capitola/capitola-mall_364.html,36.9767851,-121.9688942,,,n_490229776,"shop=department_store, brand=Macy's"
"Gilroy, CA",,retail,452210,Kohl's,"1855 41st Avenue, Capitola, CA, 95010",+1 831-462-6120,https://www.kohls.com/stores/ca/capitola-1358.shtml,36.9770194,-121.9669202,,,n_490229780,"shop=department_store, brand=Kohl's"
"Gilroy, CA",,retail,452210,Sears,,,,36.9748149,-121.9667457,,,n_490229783,"shop=department_store, brand=Sears"
"Gilroy, CA",,retail,445110,Scotts Valley Market,"14 Victor Square, Scotts Valley, 95066",,,37.0607155,-122.0065764,,,n_493853276,shop=supermarket
"Gilroy, CA",,retail,445110,Star Market,"1275 South Main Street, Salinas, CA, 93901",+1 831 422 3961,https://www.starmkt.com/,36.655854,-121.6589113,,,n_529122561,shop=supermarket
"Gilroy, CA",,retail,445110,Nob Hill Foods,"1320 South Main Street, Salinas, CA, 93901",,,36.6554358,-121.661813,,,n_529123311,shop=supermarket
"Gilroy, CA",,retail,445110,Lucky,"1150 South Main Street, Salinas, CA, 93901",+1 831 758 8233,,36.6591354,-121.6606848,,,n_529126578,"shop=supermarket, brand=Lucky"
"Gilroy, CA",,retail,453991,,,,,36.9875761,-121.9584157,,,n_588036404,shop=tobacco
"Gilroy, CA",,retail,445120,Quik Mart,,,,36.7041256,-121.6319922,,,n_687177727,shop=convenience
"Gilroy, CA",,retail,445310,,,,,36.9800779,-121.9654066,,,n_709775795,shop=alcohol
"Gilroy, CA",,retail,445110,Whole Foods Market,"1710 41st Avenue, Capitola, CA, 95010",+1 831-464-2900,https://www.wholefoodsmarket.com/stores/capitola,36.9742625,-121.963582,,,n_709777197,"shop=supermarket, brand=Whole Foods Market"
"Gilroy, CA",,retail,445310,BevMo!,,,,36.9756923,-121.9637483,,,n_715990913,"shop=alcohol, brand=BevMo!"
"Gilroy, CA",,retail,445110,Region Market,,,,37.1288726,-121.6597076,,,n_721776350,shop=supermarket
"Gilroy, CA",,retail,445110,Hollister Super Market,,,,36.8531594,-121.401266,,,n_796667253,shop=supermarket
"Gilroy, CA",,retail,446120,Creative Nails,"191 San Felipe Road, Hollister, CA, 95023",,,36.8590177,-121.4002695,,,n_796669173,shop=beauty
"Gilroy, CA",,retail,445110,Hollister Super Mercado,,,,36.8535456,-121.4205793,,,n_823705021,shop=supermarket
"Gilroy, CA",,retail,445110,Cactus Corner Grocery,,,,36.9712258,-121.8196011,,,n_863676731,shop=supermarket
"Gilroy, CA",,retail,445110,Lucky,"565 West Capitol Expressway, San Jose, CA, 95136",,,37.2759836,-121.8537896,,,n_922296124,"shop=supermarket, brand=Lucky"
"Gilroy, CA",,retail,445310,Cheers Liquor,"7051 Monterey Street, Gilroy, CA, 95020",,,37.0013875,-121.566499,,,n_934133140,shop=alcohol
"Gilroy, CA",,retail,445310,Diaz Liquors,"Airline Highway, Hollister, CA, 95023",,,36.8375453,-121.388576,,,n_1019434947,shop=alcohol
"Gilroy, CA",,retail,453110,Brunetto Florist & Gifts,,,,37.2346466,-121.8027365,,,n_1038703031,shop=florist
"Gilroy, CA",,retail,446110,Rite Aid,"6091 Meridian Avenue, San Jose, CA, 95120",,https://www.riteaid.com/locations/ca/san-jose/6091-meridian-avenue.html,37.2296921,-121.885784,,,n_1048736785,"shop=chemist, brand=Rite Aid, operator=Thrifty Payless Incorporated"
"Gilroy, CA",,retail,446120,Beauty Salon,,,,37.0114199,-121.570472,,,n_1072324759,shop=beauty
"Gilroy, CA",,retail,445120,El Charitto Market,"7638 Monterey Street, Gilroy, CA, 95020",+1-408-842-3659,,37.0103962,-121.570032,,,n_1072352759,"shop=convenience, operator=El Charitto Market Gilroy Incorporated"
"Gilroy, CA",,retail,445310,,"4645 Cherry Avenue, San Jose, 95118",,,37.259977,-121.885492,,,n_1078379443,shop=alcohol
"Gilroy, CA",,retail,445310,Clos Tita Winery,,,,37.0585816,-121.9909937,,,n_1096438828,shop=alcohol
"Gilroy, CA",,retail,445310,Vine Hill Winery,,,,37.0744303,-121.9604372,,,n_1102646788,shop=alcohol
"Gilroy, CA",,retail,445310,Windy Oaks Estate Winery,,,,37.018139,-121.7607178,,,n_1102646793,shop=alcohol
"Gilroy, CA",,retail,445292,See's Candies,"5353 Almaden Expressway, San Jose, CA, 95118",,https://chocolateshops.sees.com/ca/sanjose/chocolate_shops_san-jose_ca_2ca027.html,37.2520584,-121.876884,,,n_1108467963,"shop=confectionery, brand=See's Candies"
"Gilroy, CA",,retail,445110,Kachy Produce,,,,37.022562,-121.5769649,,,n_1113795573,shop=supermarket
"Gilroy, CA",,retail,446120,Stranded Beauty Bar,"417 Seabright Avenue, Santa Cruz, CA, 95062",+1-831-477-8080,https://strandedbeautybar.com/,36.9668545,-122.0079991,,,n_1125628309,shop=beauty
"Gilroy, CA",,retail,453110,Almaden Valley Florist,"1173 Redmond Avenue, San Jose, 95120",,,37.2299225,-121.8722633,,,n_1146634937,shop=florist
"Gilroy, CA",,retail,445120,La Flor de Jalisco,,,,37.0099485,-121.5681115,,,n_1156874591,shop=convenience
"Gilroy, CA",,retail,445110,FoodMaxx,"5510 Monterey Road, San Jose, 95138",,,37.2554708,-121.7982197,,,n_1161981912,"shop=supermarket, brand=FoodMaxx"
"Gilroy, CA",,retail,452319,Dollar Tree,"5536 Monterey Road, San Jose, CA, 95138",,https://www.dollartree.com/locations/ca/san-jose/1270/,37.2540925,-121.7976882,,,n_1161992083,"shop=variety_store, brand=Dollar Tree"
"Gilroy, CA",,retail,446110,CVS Pharmacy,"5407 Camden Avenue, San Jose, CA, 95124",408-267-9680,,37.2400235,-121.90552,,,n_1180092208,"shop=chemist, brand=CVS Pharmacy"
"Gilroy, CA",,retail,446120,Cosmo Proof,,,,37.1243069,-121.6518277,,,n_1181885533,shop=beauty
"Gilroy, CA",,retail,453991,Morgan Hill Smoke & Vape,,,,37.1241098,-121.6517144,,,n_1181890710,shop=tobacco
"Gilroy, CA",,retail,446120,Salina Nails,,,,37.124037,-121.6516729,,,n_1181891481,shop=beauty
"Gilroy, CA",,retail,445310,Water Outlet,,,,37.123969,-121.6516318,,,n_1181892987,shop=beverages
"Gilroy, CA",,retail,452319,Dollar Tree,,,https://www.dollartree.com/locations/ca/morgan-hill/2785/,37.1237298,-121.6514451,,,n_1181894213,"shop=variety_store, brand=Dollar Tree"
"Gilroy, CA",,retail,445120,7-Eleven,"5745 Camden Avenue, San Jose, CA, 95124",+1 408-267-1150,https://www.7-eleven.com/locations/ca/san-jose/5745-camden-avenue-14262,37.2326337,-121.904177,,,n_1194968192,"shop=convenience, brand=7-Eleven"
"Gilroy, CA",,retail,445110,El Rancho Foods,"211 1st Street, Gilroy, CA, 95020",,,37.0142606,-121.575073,,,n_1199539316,shop=supermarket
"Gilroy, CA",,retail,445110,Lucky,"129 Bernal Road, San Jose, CA, 95119",,,37.2327524,-121.774455,,,n_1234939402,"shop=supermarket, brand=Lucky"
"Gilroy, CA",,retail,452210,Ross,"121 Bernal Road, San Jose, CA, 95119",+1 408-629-1107,http://rosstores.com,37.2315949,-121.7755926,,,n_1234939406,"shop=department_store, brand=Ross"
"Gilroy, CA",,retail,445110,Farm Fresh Produce,,,,36.9360488,-121.7443663,,,n_1332464781,shop=supermarket
"Gilroy, CA",,retail,452319,Ashford's Heirloom,,,,37.0090349,-121.5699277,,,n_1347184501,shop=variety_store
"Gilroy, CA",,retail,452319,Joyeria,,,,37.0092609,-121.5700121,,,n_1347189340,shop=variety_store
"Gilroy, CA",,retail,452319,La Placita,"7822 Monterey Street, Gilroy, CA, 95020",,,37.0132864,-121.57139,,,n_1347303822,shop=variety_store
"Gilroy, CA",,retail,446120,hairdresser,,,,37.0128624,-121.571745,,,n_1347327491,shop=beauty
"Gilroy, CA",,retail,453110,Gilroy Flower Shop,"47 5th Street, Gilroy, CA, 95020",,,37.0083452,-121.5699775,,,n_1348880579,"shop=florist, operator=Gloria E. Anaya"
"Gilroy, CA",,retail,452319,Dollar Tree,"5540 Snell Avenue, San Jose, 95123",,https://www.dollartree.com/locations/ca/san-jose/2083/,37.2529496,-121.8299574,,,n_1366383419,"shop=variety_store, brand=Dollar Tree"
"Gilroy, CA",,retail,452210,Ross,"5353 Almaden Expressway, San Jose, CA, 95118-3640",+1 408-448-1175,,37.2523413,-121.877997,,,n_1368522728,"shop=department_store, brand=Ross"
"Gilroy, CA",,retail,445110,Old Fire House Market,,,,36.888773,-121.6433615,,,n_1371723190,shop=supermarket
"Gilroy, CA",,retail,445110,Marina Grocery,"4148 Monterey Road, San Jose, 95111",,,37.2787609,-121.8330073,,,n_1406268248,shop=supermarket
"Gilroy, CA",,retail,445120,7-Eleven,"4270 Senter Road, San Jose, CA, 95111",+1 408-225-5040,https://www.7-eleven.com/locations/ca/san-jose/4270-senter-rd-14292,37.2805187,-121.823185,,,n_1406279924,"shop=convenience, brand=7-Eleven"
"Gilroy, CA",,retail,445120,The Garlic Shoppe,,,,37.0274424,-121.5659807,,,n_1467602798,shop=convenience
"Gilroy, CA",,retail,446191,NHC Nutrition,,,,37.0274209,-121.5660558,,,n_1467603201,shop=health_food
"Gilroy, CA",,retail,445310,Pure Water,,,,37.0273224,-121.5663026,,,n_1467603910,shop=beverages
"Gilroy, CA",,retail,445110,Rocca's Market,"13335 Monterey Road, San Martin, CA, 95046",,,37.0853142,-121.6110542,,,n_1506099723,shop=supermarket
"Gilroy, CA",,retail,445110,Don Rafa's,,,,36.9069407,-121.7542756,,,n_1509351354,shop=supermarket
"Gilroy, CA",,retail,445120,Bridge Street Grocer,,,,36.9110499,-121.7474359,,,n_1509352930,shop=convenience
"Gilroy, CA",,retail,445120,129 General Store,,,,36.900695,-121.590001,,,n_1509358862,shop=convenience
"Gilroy, CA",,retail,452319,Disney Store Outlet,,(408) 842-3487,,37.0244523,-121.5631384,,,n_1509456712,shop=variety_store
"Gilroy, CA",,retail,445292,Jelly Belly,,(408) 848-8050,,37.025122,-121.5635411,,,n_1509456719,shop=confectionery
"Gilroy, CA",,retail,446120,Perfumania,,(408) 842-7062,,37.0249179,-121.563434,,,n_1509456722,"shop=perfumery, brand=Perfumania"
"Gilroy, CA",,retail,445120,,,,,37.1298146,-121.6370529,,,n_1512160307,shop=convenience
"Gilroy, CA",,retail,445120,Day's Market,,,,36.9677755,-122.007729,,,n_1520624610,shop=convenience
"Gilroy, CA",,retail,452210,Ross,"1955 41st Avenue, Capitola, CA, 95010",+1 831-479-4224,,36.9777891,-121.9669316,,,n_1542892314,"shop=department_store, brand=Ross"
"Gilroy, CA",,retail,446120,Miss Mae's,"527 Seabright Avenue, Santa Cruz, CA, 95062",+1-831-425-1744,https://www.missmaes.com/,36.9678133,-122.008043,,,n_1558633931,shop=beauty
"Gilroy, CA",,retail,453991,Star Zone Smoke Shop,,,,36.9680053,-122.0080528,,,n_1558633933,shop=tobacco
"Gilroy, CA",,retail,445110,Nob Hill Foods,"809 Bay Avenue, Capitola, 95010",+1-831-476-5600,https://www.raleys.com/store/615,36.9807021,-121.9560062,,,n_1674436116,"shop=supermarket, brand=Nob Hill Foods"
"Gilroy, CA",,retail,445110,Trader Joe's,"3555 Clares Street, Capitola, CA, 95010",+1 831-464-0115,https://locations.traderjoes.com/ca/capitola/64/,36.9778385,-121.970515,,,n_1742495877,"shop=supermarket, brand=Trader Joe's"
"Gilroy, CA",,retail,445110,Mercado California,"5302 Monterey Road, San Jose, CA, 95111",,,37.2592886,-121.8077654,,,n_1744636503,"shop=supermarket, operator=Ramon Luna Co"
"Gilroy, CA",,retail,446110,CVS Pharmacy,"525 West Capitol Expressway, San Jose, CA, 95136",,https://www.cvs.com/store-locator/san-jose-ca-pharmacies/525-w-capitol-expy-san-jose-ca-95136/storeid=9395,37.2760223,-121.8523442,,,n_1769274648,"shop=chemist, brand=CVS Pharmacy"
"Gilroy, CA",,retail,445310,,,,,37.2645806,-121.8649291,,,n_1769285355,shop=alcohol
"Gilroy, CA",,retail,445110,Arteagas Food Center (Gilroy),"6906 Automall Parkway, Gilroy, CA, 95020",,,37.0004773,-121.558171,,,n_1816505667,"shop=supermarket, operator=Lopez and Arteaga, Inc"
"Gilroy, CA",,retail,445110,Smart & Final,"250 East 10th Street, Gilroy, CA, 95020",,,37.0000075,-121.562162,,,n_1816572797,"shop=supermarket, brand=Smart & Final"
"Gilroy, CA",,retail,445120,,,,,36.7984521,-121.7836034,,,n_1912129706,shop=convenience
"Gilroy, CA",,retail,445230,,,,,36.7986547,-121.7835577,,,n_1912129734,shop=greengrocer
"Gilroy, CA",,retail,445120,Madrone Market,,,,37.1502427,-121.6707737,,,n_1961821818,shop=convenience
"Gilroy, CA",,retail,446120,Glamour Nails,"1740 Airline Highway, Hollister, CA, 95023",,,36.8365549,-121.3896764,,,n_2043354722,shop=beauty
"Gilroy, CA",,retail,445110,Palm Deli,,,,36.976468,-121.8865145,,,n_2047027777,shop=supermarket
"Gilroy, CA",,retail,446120,Pink Sassy Nails,"8021 Wayland Lane, Gilroy, CA, 95020",,,37.0144889,-121.5825372,,,n_2067795545,shop=beauty
"Gilroy, CA",,retail,446120,Looking Good Salon,"8031 Wayland Lane, Gilroy, CA, 95020",,https://website-825499360405546887240-hairsalon.business.site/?utm_source=gmb&utm_medium=referral,37.0145643,-121.582539,,,n_2067804617,shop=beauty
"Gilroy, CA",,retail,445110,Lucky,"6109 Meridian Avenue, San Jose, 95120",,https://www.luckysupermarkets.com/index.php?req=bins_view&id=39,37.2288852,-121.8858459,,,n_2068009989,"shop=supermarket, brand=Lucky"
"Gilroy, CA",,retail,446120,Lovely Nails,"6467 Almaden Expressway, San Jose, CA, 95120",,,37.2204402,-121.8621809,,,n_2091189223,shop=beauty
"Gilroy, CA",,retail,446120,Beauty Ave,,,,37.2205105,-121.8619852,,,n_2091189226,shop=beauty
"Gilroy, CA",,retail,445310,Ernie’s Liquor and Wine,"1153 Redmond Avenue, San Jose, CA, 95120",,,37.2301096,-121.871217,,,n_2091208071,shop=alcohol
"Gilroy, CA",,retail,445292,Charlie’s Cheesecake Works,"1179 Redmond Avenue, San Jose, CA, 95120",,https://www.charliescheesecakeworks.com/,37.2297359,-121.8722538,,,n_2091208078,"shop=confectionery, operator=McMajor Enterprises Incorporated"
"Gilroy, CA",,retail,445120,MJ Market,"1187 Redmond Avenue, San Jose, 95120",,,37.2295298,-121.872242,,,n_2091208084,shop=convenience
"Gilroy, CA",,retail,445310,Downer Square Bottle Shop,"402 Blossom Hill Road, San Jose, CA, 95123",,,37.250886,-121.8286424,,,n_2094321008,shop=alcohol
"Gilroy, CA",,retail,446120,Viva Nails,"5353 Almaden Expressway, San Jose, CA, 95118",,,37.2517571,-121.8779436,,,n_2107713040,shop=beauty
"Gilroy, CA",,retail,446120,Inspa,,,https://inspa.com/,37.2527363,-121.87827,,,n_2107743584,shop=beauty
"Gilroy, CA",,retail,445310,Grapes 'n' Grain,"385 Salinas Street, Salinas, CA, 93901",,https://grapesngrain.com/,36.6721697,-121.6553798,,,n_2117404877,shop=alcohol
"Gilroy, CA",,retail,446120,Veda Nails & Spa,"6845 Camino Arroyo, Gilroy, CA, 95020",,,37.0020062,-121.5521475,,,n_2128246861,shop=beauty
"Gilroy, CA",,retail,446120,Gilroy Nails,"220 East 10th Street, Gilroy, CA, 95020",,,37.0005256,-121.5625972,,,n_2151136312,shop=beauty
"Gilroy, CA",,retail,445120,7-Eleven,,,,36.9318655,-121.7868615,,,n_2236132668,"shop=convenience, brand=7-Eleven"
"Gilroy, CA",,retail,452210,Target,"1825 41st Avenue, Capitola, CA, 95010-2504",+1 831-227-2101,https://www.target.com/sl/capitola/2795,36.9750591,-121.9687431,,,n_2286420303,"shop=department_store, brand=Target"
"Gilroy, CA",,retail,445120,,,,,37.2666438,-121.8319601,,,n_2340806378,shop=convenience
"Gilroy, CA",,retail,445120,Sushi Market,,,,36.9653041,-121.9982249,,,n_2356520179,shop=convenience
"Gilroy, CA",,retail,445110,La Princesa Market,,,,36.9170034,-121.7708862,,,n_2369145056,shop=supermarket
"Gilroy, CA",,retail,452210,dd's Discounts,"North Main Street, Salinas, CA",,,36.7190543,-121.654531,,,n_2376686795,"shop=department_store, brand=dd's Discounts"
"Gilroy, CA",,retail,445120,7-Eleven,"370 Leavesley Road, Gilroy, CA, 95020-3607",+1 408-842-0680,https://www.7-eleven.com/locations/ca/gilroy/370-leavesley-rd-16422,37.0208092,-121.5699542,,,n_2401039921,"shop=convenience, brand=7-Eleven"
"Gilroy, CA",,retail,445310,Loma Prieta Winery Tasting Room,"26985 Loma Prieta Way, Los Gatos, 95033",1 408 353 2950,,37.1063955,-121.8807259,,,n_2406332949,shop=alcohol
"Gilroy, CA",,retail,445310,MJA Summit Tasting Room & Vineyards,"24900 Highland Way, Los Gatos, CA, 95033",+1-408 353-6000,https://www.mjavineyards.com/,37.1106287,-121.9118731,,,n_2416410812,shop=alcohol
"Gilroy, CA",,retail,445310,Heart O' the Mountain,"705 Canham Road, Scotts Valley",+1-831-406-1881,,37.0881929,-121.9840504,,,n_2416938847,shop=alcohol
"Gilroy, CA",,retail,445120,7-Eleven,"335 South Sanborn Road, Salinas, CA, 93905-3127",+1 831 422 1492,https://www.7-eleven.com/locations/ca/salinas/335-s-sanborn-rd-24340,36.6675603,-121.6273223,,,n_2466720756,"shop=convenience, brand=7-Eleven"
"Gilroy, CA",,retail,445310,BevMo!,"871 Blossom Hill Road, San Jose, CA, 95123",,,37.25167,-121.857736,,,n_2570748399,"shop=alcohol, brand=BevMo!, operator=Beverages & More, Inc."
"Gilroy, CA",,retail,452319,Sanrio,8155-3 Arroyo Circle,(408) 846-7632,,37.019275,-121.5637255,,,n_2570817981,shop=variety_store
"Gilroy, CA",,retail,446120,Beauty Outlet,8155-5 Arroyo Circle,(408) 846-4200,,37.0194484,-121.5637599,,,n_2570819169,shop=beauty
"Gilroy, CA",,retail,452319,Michael Kors,8155-15: Arroyo Circle,(408) 848-0241,,37.0204799,-121.5633917,,,n_2570824795,shop=variety_store
"Gilroy, CA",,retail,445110,Lucky,"844 Blossom Hill Road, San Jose, CA, 95123",,,37.2492618,-121.857317,,,n_2572195811,"shop=supermarket, brand=Lucky"
"Gilroy, CA",,retail,452319,Coach Men's,8375-59 Arroyo Circle,(408) 846-4819,,37.0215263,-121.5630168,,,n_2572329621,shop=variety_store
"Gilroy, CA",,retail,452319,Guess Factory Accessories,8375-51 Arroyo Circle,(408) 842-1000,,37.0223406,-121.5631153,,,n_2572329654,shop=variety_store
"Gilroy, CA",,retail,446120,Lancome-Designer Fragrances & Cosmetic Co.,8225-31 Arroyo Circle,(408) 848-5289,,37.021681,-121.564406,,,n_2572329678,shop=beauty
"Gilroy, CA",,retail,452319,Movado Company Store,8225-38 Arroyo Circle,(408) 846-7077,,37.0222546,-121.5642258,,,n_2572329696,shop=variety_store
"Gilroy, CA",,retail,446120,Perfumania,8375-47 Arroyo Circle,(408) 847-5272,,37.022849,-121.563365,,,n_2572329710,"shop=perfumery, brand=Perfumania"
"Gilroy, CA",,retail,446120,The Cosmetics Company Store,8375-52 Arroyo Circle,(408) 848-2591,,37.0222483,-121.5630451,,,n_2572329720,shop=beauty
"Gilroy, CA",,retail,452319,A & D Jewelry and Watch Repair,,(408) 833-0797,,37.0252311,-121.5636177,,,n_2572548864,shop=variety_store
"Gilroy, CA",,retail,446120,Bath & Body Works,B110 Arroyo Circle,(408) 846-9940,,37.0225718,-121.5614928,,,n_2572548866,"shop=cosmetics, brand=Bath & Body Works"
"Gilroy, CA",,retail,452319,Crabtree & Evelyn,B100 Arroyo Circle,(408) 846-9447,,37.0226626,-121.5615681,,,n_2572548872,shop=variety_store
"Gilroy, CA",,retail,446120,Fragrance Outlet,"8300 Arroyo Circle, Gilroy, CA, 95020",(408) 848-8524,https://www.fragranceoutlet.com/,37.0221304,-121.561156,,,n_2572548875,shop=beauty
"Gilroy, CA",,retail,452319,Totes/Sunglass World,B330 Arroyo Circle,(408) 846-8048,,37.0207895,-121.560145,,,n_2572548897,shop=variety_store
"Gilroy, CA",,retail,452319,iPhone Covers,B320 Arroyo Circle,(818) 421-5258,,37.0209187,-121.5602059,,,n_2572548900,shop=variety_store
"Gilroy, CA",,retail,445310,,,,,36.973313,-121.9519892,,,n_2604085626,shop=alcohol
"Gilroy, CA",,retail,446120,Skin Essence Day Spa,"16 Victor Square, Scotts Valley",,,37.0610918,-122.0062559,,,n_2605485625,shop=beauty
"Gilroy, CA",,retail,445110,Nob Hill Foods,"6061 Snell Avenue, San Jose, CA, 95123",+1 408-225-0546,https://www.raleys.com/store/635,37.2376501,-121.832311,,,n_2607378267,"shop=supermarket, brand=Nob Hill Foods"
"Gilroy, CA",,retail,445110,New Leaf Community Market,,,,36.9692871,-121.9635974,,,n_2623068683,shop=supermarket
"Gilroy, CA",,retail,445110,Save-Mart,,,,36.9717761,-121.9658793,,,n_2623071181,shop=supermarket
"Gilroy, CA",,retail,445292,See's Candies,,,,36.9733822,-121.966251,,,n_2623081744,"shop=confectionery, brand=See's Candies"
"Gilroy, CA",,retail,445310,,,,,36.9839539,-121.9564046,,,n_2713473923,shop=alcohol
"Gilroy, CA",,retail,446120,Nails 2 Envy,1622 Seabright Avenue,,,36.9793368,-122.0099995,,,n_2716417665,shop=beauty
"Gilroy, CA",,retail,446120,Tropical Nail Salon,"1626 Seabright Avenue, Santa Cruz, 95062",+1-831-458-9607,,36.9794356,-122.010033,,,n_2716417667,shop=beauty
"Gilroy, CA",,retail,453991,Ron & Bridgette's,"1114 Soquel Avenue, Santa Cruz, CA, 95060",,,36.979074,-122.0116367,,,n_2716421243,shop=tobacco
"Gilroy, CA",,retail,453991,Elite Cigar & Vapor,"1760 Airline Highway, Hollister, CA, 95023",,,36.8363436,-121.3908853,,,n_2960434997,shop=tobacco
"Gilroy, CA",,retail,445120,Steve's Good To Go,"1500 Soquel Drive, 95065-1711",,http://www.steves76.com,36.9877715,-121.9844062,,,n_3013760576,shop=convenience
"Gilroy, CA",,retail,445292,The Candy Parlour,,,,37.1288446,-121.6534828,,,n_3066073733,shop=confectionery
"Gilroy, CA",,retail,446120,Paradise Tanning,"Capitola, CA",,,36.9787651,-121.969585,,,n_3197912849,shop=beauty
"Gilroy, CA",,retail,446120,Westside Beauty Supply,,,,36.9787845,-121.969471,,,n_3197912857,shop=cosmetics
"Gilroy, CA",,retail,446120,Tropical Tanning & Spa,"351 San Felipe Road, Hollister, CA, 95023-3074",,,36.8615561,-121.4009198,,,n_3207166087,shop=beauty
"Gilroy, CA",,retail,445310,G & J Liquor Mart,"191 San Felipe Road, Hollister, CA, 95023",,,36.8595015,-121.4010274,,,n_3207166092,shop=alcohol
"Gilroy, CA",,retail,446120,Garcia's Nail Salon,,,,36.8609964,-121.4011387,,,n_3207166332,shop=beauty
"Gilroy, CA",,retail,446120,Stileto Nail,,,,36.8501953,-121.3971287,,,n_3207166363,shop=beauty
"Gilroy, CA",,retail,446120,Milady Nails Spa,,,,36.8614238,-121.4006857,,,n_3207166364,shop=beauty
"Gilroy, CA",,retail,453110,Barone's Florist,"191 San Felipe Road, Hollister, CA, 95023",+1 831 637 7343,https://www.baronesfloristonline.com/,36.8593383,-121.4002613,,,n_3207166988,shop=florist
"Gilroy, CA",,retail,446120,Star Hair & Nail,,,,36.8587095,-121.40201,,,n_3207166998,shop=beauty
"Gilroy, CA",,retail,446120,AM Salon & Spa,,,,36.840145,-121.3933923,,,n_3207288233,shop=beauty
"Gilroy, CA",,retail,445210,La Chaza Meat Market,,,,37.1344039,-121.6587055,,,n_3235757585,shop=butcher
"Gilroy, CA",,retail,446120,Styles Hair Salon,"17865 Monterey Road, Morgan Hill, CA, 95037",,,37.1342167,-121.6585524,,,n_3235757589,shop=beauty
"Gilroy, CA",,retail,452210,Macy's,,,https://www.macys.com/stores/ca/salinas/northridge-mall_363.html,36.7192013,-121.6585668,,,n_3333365421,"shop=department_store, brand=Macy's"
"Gilroy, CA",,retail,452210,Target,"1640 North Main Street, Salinas, CA, 93906",+1 831-442-0547,https://www.target.com/sl/salinas/676,36.7146272,-121.6526981,,,n_3333365870,"shop=department_store, brand=Target"
"Gilroy, CA",,retail,452210,Marshalls,,,,36.716108,-121.6527933,,,n_3333365871,"shop=department_store, brand=Marshalls"
"Gilroy, CA",,retail,445292,See's Candies,"1057 Cochrane Road, Morgan Hill, CA, 95037",+1 408-778-3672,https://chocolateshops.sees.com/ca/morganhill/chocolate_shops_morgan-hill_ca_2ca052.html,37.1566283,-121.652943,,,n_3383902426,"shop=confectionery, brand=See's Candies"
"Gilroy, CA",,retail,446120,Amour Nailz,"1053 Cochrane Road, Morgan Hill, CA, 95037",,,37.1565438,-121.652377,,,n_3383903153,shop=beauty
"Gilroy, CA",,retail,452210,Burlington,"1023 Cochrane Road, Morgan Hill, CA, 95037",+1 408-763-3316,https://stores.burlington.com/ca/morgan-hill/1484,37.1554969,-121.6528021,,,n_3383903155,"shop=department_store, brand=Burlington"
"Gilroy, CA",,retail,445310,M B Liquors,,,,36.9640817,-121.9900808,,,n_3542124970,shop=alcohol
"Gilroy, CA",,retail,452319,Dollar Tree,,,https://www.dollartree.com/locations/ca/santa-cruz/3689/,36.9643596,-121.9894001,,,n_3542124979,"shop=variety_store, brand=Dollar Tree"
"Gilroy, CA",,retail,445110,Lion Market,"1031 East Capitol Expressway, San Jose, CA, 95121",+1-408-225-9888,,37.3006195,-121.8238643,,,n_3579138983,shop=supermarket
"Gilroy, CA",,retail,445310,Paul's Liquors,,,,37.1212494,-121.6480441,,,n_3582257203,shop=alcohol
"Gilroy, CA",,retail,452319,PBNJ Boutique,,,,37.1152275,-121.6446328,,,n_3582257206,shop=variety_store
"Gilroy, CA",,retail,446120,Rumour Has It Salon,,408782588,,37.1188694,-121.6459067,,,n_3582259625,shop=beauty
"Gilroy, CA",,retail,446120,Majestic Beauty Supply,,,,37.1138804,-121.6440732,,,n_3582259630,shop=beauty
"Gilroy, CA",,retail,446120,Salon Centric,,,,37.1141558,-121.6428563,,,n_3582259631,shop=beauty
"Gilroy, CA",,retail,446120,Vy-Vy Nails,"16121 Monterey Road, Morgan Hill, CA, 95037",,,37.1140295,-121.644157,,,n_3582259632,shop=beauty
"Gilroy, CA",,retail,446120,Angelic Nail Spa,"16195 Monterey Road, Morgan Hill, CA, 95037",,,37.1151261,-121.644607,,,n_3582259633,shop=beauty
"Gilroy, CA",,retail,446120,Deja Vu Salon,"16295 Monterey Road, Morgan Hill, CA, 95037",,https://www.shelleysdejavusalon.com/,37.1167328,-121.645515,,,n_3582259634,shop=beauty
"Gilroy, CA",,retail,446110,Frank's Pharmacy,,,,36.9813943,-121.9104061,,,n_3645875847,shop=chemist
"Gilroy, CA",,retail,453110,Ace's Flowers,,,,36.9816381,-121.9105428,,,n_3645875851,shop=florist
"Gilroy, CA",,retail,445110,Aptos Natural Foods,,,,36.9817188,-121.9106418,,,n_3645875854,shop=supermarket
"Gilroy, CA",,retail,445110,Sprouts Farmers Market,"1771 East Capitol Expressway, San Jose, CA, 95121",+1 669-234-5260,https://www.sprouts.com/store/ca/san-jose/san-jose-capitol-expwy/,37.3094073,-121.810676,,,n_3711317169,"shop=supermarket, brand=Sprouts Farmers Market"
"Gilroy, CA",,retail,445110,Namaste Plaza,"1763 East Capitol Expressway, San Jose, CA, 95121",,,37.3091641,-121.811166,,,n_3711317174,shop=grocery
"Gilroy, CA",,retail,446110,Walgreens,"1795 East Capitol Expressway, San Jose, CA, 95121",,https://www.walgreens.com/locator/walgreens-1795+e+capitol+expy-san+jose-ca-95121/id=1179,37.310122,-121.810088,,,n_3711324788,"shop=chemist, brand=Walgreens"
"Gilroy, CA",,retail,445110,Nob Hill Foods,"1912 Main Street, Watsonville, CA, 95076",+1 831-728-9555,https://www.raleys.com/store/617,36.9192993,-121.780584,,,n_3722170350,"shop=supermarket, brand=Nob Hill Foods"
"Gilroy, CA",,retail,445310,Eagle Ridge Liquors,"1327 1st Street, Gilroy, CA, 95020",,,37.0137764,-121.5952125,,,n_3773562652,shop=alcohol
"Gilroy, CA",,retail,445310,Westside Market & Liquor,"1340 1st Street, Gilroy, CA, 95020",+1-408-842-6399,,37.0128875,-121.5959445,,,n_3773562654,shop=alcohol
"Gilroy, CA",,retail,452319,Dollar Tree,,,https://www.dollartree.com/locations/ca/gilroy/2274/,37.012357,-121.5948287,,,n_3773562656,"shop=variety_store, brand=Dollar Tree"
"Gilroy, CA",,retail,452319,Dollar City & More,,,,36.6732591,-121.6176458,,,n_3862258564,shop=variety_store
"Gilroy, CA",,retail,445110,La Princesa Market,,,,36.6794137,-121.6050655,,,n_3862258791,shop=supermarket
"Gilroy, CA",,retail,445110,El Rey Market,,,,36.6768911,-121.6123431,,,n_3862259102,shop=supermarket
"Gilroy, CA",,retail,445310,Quality Market & Liquors,,,,36.6753637,-121.6151383,,,n_3862259104,shop=alcohol
"Gilroy, CA",,retail,452319,Cork-n-Bottle Fastmart,,,,36.6768246,-121.6265409,,,n_3862259108,shop=variety_store
"Gilroy, CA",,retail,445110,Foods Co,,,,36.6715281,-121.625783,,,n_3862259110,"shop=supermarket, brand=Foods Co"
"Gilroy, CA",,retail,445120,Express Mart,"836 North Main Street, Salinas, CA, 93906",,,36.6897657,-121.6519309,,,n_3862259114,shop=convenience
"Gilroy, CA",,retail,445110,Oak Park Market,"340 San Juan Grade Road, Salinas, CA, 93906",,,36.7337604,-121.6370489,,,n_3862259119,shop=supermarket
"Gilroy, CA",,retail,453991,Morgan Hill Wine Shop & Cigar Co.,"16375 Monterey Road, Morgan Hill, CA, 95037",4087767667,https://www.morganhillcigar.com/,37.1176855,-121.6460832,,,n_3894047352,shop=tobacco
"Gilroy, CA",,retail,445120,7-Eleven,"4156 Monterey Road, San Jose, CA, 95111",+1 408-440-8271,https://www.7-eleven.com/locations/ca/san-jose/4156-monterey-hwy-34363,37.2778217,-121.8345885,,,n_3901666687,"shop=convenience, brand=7-Eleven"
"Gilroy, CA",,retail,446120,Trilogy Salon,"16375 Monterey Road, Morgan Hill, CA, 95037",,,37.1175334,-121.6464951,,,n_3901680762,shop=beauty
"Gilroy, CA",,retail,446120,NV Salon Services,,,,37.1173496,-121.6459755,,,n_3901681259,shop=beauty
"Gilroy, CA",,retail,446120,Natural Nails By Lisa,,,,37.1173405,-121.6460454,,,n_3901681439,shop=beauty
"Gilroy, CA",,retail,446120,Cara Bella,,,,37.1175176,-121.6465514,,,n_3901681519,shop=beauty
"Gilroy, CA",,retail,446120,Australian Tan,"109 Bernal Road, San Jose, 95119",,,37.231077,-121.773721,,,n_3911704758,shop=beauty
"Gilroy, CA",,retail,446120,JD Nails,"117 Bernal Road, San Jose, 95119",,,37.230642,-121.7754,,,n_3911828058,shop=beauty
"Gilroy, CA",,retail,446120,Ulta Beauty,"5650 Cottle Road, San Jose, CA, 95123",+1 408-229-2702,https://www.ulta.com/stores/san-jose-ca-796,37.2492934,-121.8019126,,,n_4029528415,"shop=cosmetics, brand=Ulta Beauty"
"Gilroy, CA",,retail,445310,Paul's Liquor,,,,37.1284732,-121.6590359,,,n_4077146719,shop=alcohol
"Gilroy, CA",,retail,446120,Modern Nails,,,,37.1285993,-121.6596722,,,n_4077146730,shop=beauty
"Gilroy, CA",,retail,452319,99 Cent+ Outlet,,,,37.128671,-121.6597245,,,n_4077146731,shop=variety_store
"Gilroy, CA",,retail,445110,Grocery Outlet Bargain Market,,,,37.1499802,-121.6542359,,,n_4077183215,shop=supermarket
"Gilroy, CA",,retail,446120,Lavish Nail Spa,"Cochrane Road, Morgan Hill, CA, 95037",,,37.1504008,-121.652919,,,n_4077183220,shop=beauty
"Gilroy, CA",,retail,446120,Mayfair Hair & Nails,,,,37.1504703,-121.6528121,,,n_4077183221,shop=beauty
"Gilroy, CA",,retail,446120,Natalie Nail Bar,"820 East Dunne Avenue, Morgan Hill, CA, 95037",,,37.1300961,-121.6363144,,,n_4083340881,shop=beauty
"Gilroy, CA",,retail,446120,Diva Spa,"17015 Walnut Grove Drive, Morgan Hill, CA, 95037",,,37.1304661,-121.6391977,,,n_4083389059,shop=beauty
"Gilroy, CA",,retail,452210,Ross,"16955 Monterey Road, Morgan Hill, CA, 95037",+1 408-782-7404,,37.1240601,-121.6501721,,,n_4083423007,"shop=department_store, brand=Ross"
"Gilroy, CA",,retail,445310,Morgan Hill Liquors,,,,37.1241927,-121.649822,,,n_4083423008,shop=alcohol
"Gilroy, CA",,retail,445210,Elite Meat Market,16915 Monterey Road,,,37.1241093,-121.6496115,,,n_4083423009,shop=butcher
"Gilroy, CA",,retail,445120,Chak's Place,,,,37.1243787,-121.6510538,,,n_4083423012,shop=convenience
"Gilroy, CA",,retail,445310,Larry's Liquors,,,,36.8401232,-121.3922099,,,n_4093396830,shop=alcohol
"Gilroy, CA",,retail,446120,Fancy Nails,"201 McCray Street, Hollister, CA, 95023",,,36.8538893,-121.3977563,,,n_4093403002,shop=beauty
"Gilroy, CA",,retail,446120,M&M Salon,,,,36.8540034,-121.3977621,,,n_4093403718,shop=beauty
"Gilroy, CA",,retail,445310,Water World,,,,36.8543471,-121.3978038,,,n_4093403720,shop=beverages
"Gilroy, CA",,retail,446191,Natural Wonder Health Food Store,"Third Street, San Juan Bautista, CA, 95045",,,36.844395,-121.5367285,,,n_4119868211,shop=health_food
"Gilroy, CA",,retail,446120,Creative Nails 2,"437 Vineyard Boulevard, Morgan Hill, CA, 95037",,,37.1106432,-121.6427029,,,n_4170062864,shop=beauty
"Gilroy, CA",,retail,453110,Stems Floral Boutique,,,,37.110885,-121.643029,,,n_4170062868,shop=florist
"Gilroy, CA",,retail,452210,TJ Maxx,,,,37.111438,-121.6431136,,,n_4170062874,"shop=department_store, brand=TJ Maxx"
"Gilroy, CA",,retail,446120,Vanda Day Spa,,,,37.1120191,-121.6433077,,,n_4170062884,shop=beauty
"Gilroy, CA",,retail,446120,Australian Tan,,,,37.1120817,-121.6433508,,,n_4170062885,shop=beauty
"Gilroy, CA",,retail,453991,Cigarland,"620 Tennant Station Way, Morgan Hill, CA, 95037",,,37.113388,-121.638545,,,n_4170124358,shop=tobacco
"Gilroy, CA",,retail,446120,Lucky Nails & Spa,"630 Tennant Station Way, Morgan Hill, CA, 95037",,,37.113479,-121.638254,,,n_4170124360,shop=beauty
"Gilroy, CA",,retail,446120,Mirror Mirror Beauty Salon,"1295 East Dunne Avenue, Morgan Hill, CA, 95037",,,37.1335927,-121.629475,,,n_4176810686,shop=beauty
"Gilroy, CA",,retail,446120,Tip N Toe Salon,,,,37.1335133,-121.6296185,,,n_4176810688,shop=beauty
"Gilroy, CA",,retail,453991,Cigarland,,,,37.1335616,-121.6303215,,,n_4176827691,shop=tobacco
"Gilroy, CA",,retail,445120,Paul's Market,,,,37.1335299,-121.6303838,,,n_4176827692,shop=convenience
"Gilroy, CA",,retail,446120,Christine's Salon,,,,37.1334998,-121.630453,,,n_4176827693,shop=beauty
"Gilroy, CA",,retail,445110,Santa Fe,,,,36.6941688,-121.6529657,,,n_4196371469,shop=supermarket
"Gilroy, CA",,retail,452319,Dollar General,,,https://www.dollargeneral.com/store-directory/ca/salinas/14263,36.6953942,-121.6529857,,,n_4196372278,"shop=variety_store, brand=Dollar General"
"Gilroy, CA",,retail,445110,Sprouts Farmers Market,"1130 Branham Lane, San Jose, CA, 95118",+1 408-833-1152,https://www.sprouts.com/store/ca/san-jose/san-jose-branham-ln/,37.2618898,-121.878148,,,n_4289326624,"shop=supermarket, brand=Sprouts Farmers Market"
"Gilroy, CA",,retail,446120,Bellagio Studio,"5885 Santa Teresa Boulevard, San Jose, CA, 95123",,,37.2362241,-121.831856,,,n_4295461191,shop=beauty
"Gilroy, CA",,retail,445120,International Express Market,"5899 Santa Teresa Boulevard, San Jose, CA, 95123",,,37.2359537,-121.831253,,,n_4295465790,shop=convenience
"Gilroy, CA",,retail,446120,Elite Nails,"666 Blossom Hill Road, San Jose, CA, 95123",,,37.2492654,-121.845712,,,n_4295520189,shop=beauty
"Gilroy, CA",,retail,445310,Six To Midnite,"5562 Monterey Road, San Jose, CA, 95138",,,37.2534391,-121.7970569,,,n_4297206190,"shop=alcohol, operator=Sunay Inc"
"Gilroy, CA",,retail,446120,Renu 21 Organic Facial Spa,"5353 Almaden Expressway, San Jose, CA, 95118",,,37.2525905,-121.8768951,,,n_4308004194,shop=cosmetics
"Gilroy, CA",,retail,445120,Capitola Produce,,,,36.9794025,-121.9534809,,,n_4313356769,shop=convenience
"Gilroy, CA",,retail,445120,,,,,36.9783186,-121.9529569,,,n_4336476831,shop=convenience
"Gilroy, CA",,retail,452319,Woodworm Party Store,"827 Bay Avenue, Capitola, 95010",+1-831-462-0455,https://www.woodwormpartystore.com,36.9818072,-121.9564819,,,n_4340583518,shop=variety_store
"Gilroy, CA",,retail,445120,Ăn Vặt Nhà DiemDiem,"3005 Silver Creek Road, San Jose, CA, 95121",+1-408-833-0476,https://anvatnhadiemdiemsj.com,37.308719,-121.813386,,,n_4360926921,shop=convenience
"Gilroy, CA",,retail,446120,Beauty Cuts,"5520 Monterey Road, San Jose, CA, 95138",,,37.2547624,-121.7979881,,,n_4379918290,shop=cosmetics
"Gilroy, CA",,retail,446120,Isabella's Hair Salon,,,,36.8530815,-121.4018417,,,n_4381516897,shop=beauty
"Gilroy, CA",,retail,446120,Ulta Beauty,"Salinas, CA, 93906",+1 831-444-0495,https://www.ulta.com/stores/salinas-ca-1127,36.7207974,-121.6574263,,,n_4582002147,"shop=beauty, brand=Ulta Beauty"
"Gilroy, CA",,retail,445110,Silver Creek Community Market,"5667 Silver Creek Valley Road, San Jose, CA, 95138",+1-408-513-8200,https://www.newleaf.com/our-stores/silver-creek-community-market/,37.2879333,-121.780682,,,n_4665149990,"shop=supermarket, brand=New Leaf, operator=New Leaf"
"Gilroy, CA",,retail,445110,Lucky,"3270 South White Road, San Jose, 95148",(408) 270-6120,http://luckysupermarket.com,37.315107,-121.7901923,,,n_4665254389,"shop=supermarket, brand=Lucky"
"Gilroy, CA",,retail,445310,Wrights Station Winery,"24250 Loma Prieta Avenue, Los Gatos, CA, 95033",,,37.1237536,-121.927963,,,n_4714425355,"shop=alcohol, operator=Lokteff Winery & Vineyards, LLC"
"Gilroy, CA",,retail,445310,,"3963 Snell Avenue, San Jose, 95136",,,37.2757807,-121.8415049,,,n_4819040661,shop=alcohol
"Gilroy, CA",,retail,445120,Mel's Market & Deli,,,,36.9885689,-121.975486,,,n_4880089221,shop=convenience
"Gilroy, CA",,retail,445310,Pleasure Point Liquor Grocery,,,,36.96316,-121.9651797,,,n_4880233226,shop=alcohol
"Gilroy, CA",,retail,446120,Skin Care Pleasure Point,871 41st Avenue,,,36.9645742,-121.9650538,,,n_4880233228,shop=beauty
"Gilroy, CA",,retail,446120,Dimon Nails,,,,36.9649536,-121.9652192,,,n_4880233235,shop=beauty
"Gilroy, CA",,retail,446120,Pink Salt,,,,36.9648881,-121.9652229,,,n_4880233239,shop=beauty
"Gilroy, CA",,retail,445210,Point Butcher Shop,3615 Portola Drive,,https://www.pointbutchershop.com/,36.963846,-121.969054,,,n_4880305838,shop=butcher
"Gilroy, CA",,retail,446120,Perfect Nails,3625 Portola Drive,,,36.9639029,-121.9686191,,,n_4880305842,shop=beauty
"Gilroy, CA",,retail,446120,Brasilia Bikini,3431 Portola Drive,,,36.9636343,-121.9708002,,,n_4880305846,shop=beauty
"Gilroy, CA",,retail,445310,Pleasure Point Wine & Spirits,3750 Portola Drive,,,36.9632459,-121.968053,,,n_4880305849,shop=alcohol
"Gilroy, CA",,retail,445120,Hernandez Market,3790 Portola Drive,,,36.9632032,-121.9677576,,,n_4880305861,shop=convenience
"Gilroy, CA",,retail,453991,Irie Motivations,3617 Portola Drive,,,36.9638424,-121.9689719,,,n_4880305865,shop=tobacco
"Gilroy, CA",,retail,446120,Pallacio Day Spa,,,,36.8506418,-121.4035641,,,n_4917628952,shop=beauty
"Gilroy, CA",,retail,446120,J.C. Nails,,,,36.9391203,-121.7770627,,,n_4917629385,shop=beauty
"Gilroy, CA",,retail,453991,Discount Cigarettes,,,,36.9391602,-121.7770396,,,n_4917629498,shop=tobacco
"Gilroy, CA",,retail,445120,Orchard Park Market,,,,36.9357515,-121.7437356,,,n_4917629499,shop=convenience
"Gilroy, CA",,retail,445120,Fast Stop Market,,,,37.1113217,-121.6400811,,,n_4917629503,shop=convenience
"Gilroy, CA",,retail,445120,Shell,"5422 Camden Avenue, San Jose, CA, 95124",,,37.2406745,-121.903439,,,n_4951933672,"shop=convenience, brand=Shell, operator=San Jose Petroleum Services Incorporated"
"Gilroy, CA",,retail,446120,Bella's Beauty Salon,"447 1st Street, Gilroy, CA, 95020",,,37.013638,-121.5785345,,,n_5118494164,shop=beauty
"Gilroy, CA",,retail,445310,U Save Liquor,,,,36.9346965,-121.7732178,,,n_5183012702,shop=alcohol
"Gilroy, CA",,retail,445292,The Rose Horse,,,,37.004792,-121.626878,,,n_5183012713,shop=confectionery
"Gilroy, CA",,retail,446120,Aveda,,,,37.0072613,-121.5690915,,,n_5183014328,shop=beauty
"Gilroy, CA",,retail,446110,CVS Pharmacy,"470 Blossom Hill Road, San Jose, CA, 95123",+1 408-578-4900,https://www.cvs.com/store-locator/san-jose-ca-pharmacies/470-blossom-hill-rd-san-jose-ca-95123/storeid=9808,37.250491,-121.833166,,,n_5243701162,"shop=chemist, brand=CVS Pharmacy, operator=CVS Health"
"Gilroy, CA",,retail,445310,Get n Go Market and Liquor,"1337 Blossom Hill Road, San Jose, 95118",,,37.2471554,-121.8868463,,,n_5821604156,shop=alcohol
"Gilroy, CA",,retail,446120,Elegance Spa,"1335 Blossom Hill Road, San Jose, 95118",,,37.2472096,-121.8866395,,,n_5821604157,shop=beauty
"Gilroy, CA",,retail,445310,The Epicenter Wine Room,,,,36.8500379,-121.4023565,,,n_5952582537,shop=wine
"Gilroy, CA",,retail,445110,El Super,,,,36.7145386,-121.6257986,,,n_6116710186,shop=supermarket
"Gilroy, CA",,retail,446120,Purity Salon,"920 Soquel Avenue, Santa Cruz, CA, 95062",+1-831-515-7807,https://www.puritysalonsc.com/,36.9781877,-122.0133281,,,n_6257126323,shop=beauty
"Gilroy, CA",,retail,446120,Diva Nails & Spa,"813 Soquel Avenue, Santa Cruz, CA",+1-831-420-8886,,36.9781196,-122.0146672,,,n_6468232912,shop=beauty
"Gilroy, CA",,retail,445310,Sante Archangeli Family Wines,,,,36.9778327,-121.9007331,,,n_6479596481,shop=wine
"Gilroy, CA",,retail,445110,New Leaf Market,161 Aptos Village Way,,,36.978451,-121.9004238,,,n_6479601177,shop=supermarket
"Gilroy, CA",,retail,445120,7-Eleven,"3036 Portola Drive, Santa Cruz, CA, 95062",+1 831-475-1711,https://www.7-eleven.com/locations/ca/santa-cruz/3036-portola-dr-14280,36.9630958,-121.9730685,,,n_6862205531,"shop=convenience, brand=7-Eleven"
"Gilroy, CA",,retail,445120,Bonfare Market #12,"2907 The Villages Parkway, San Jose, CA, 95135",,,37.2912497,-121.760722,,,n_7058008639,shop=convenience
"Gilroy, CA",,retail,446120,Villages Hair Gallery,"2911 The Villages Parkway, San Jose, 95135",,https://www.thevillageshairgallery.com/,37.2912578,-121.760635,,,n_7058012808,shop=beauty
"Gilroy, CA",,retail,445292,Sweet Retreat Ice Cream Shop,"97 Unit C2-1 East 3rd Street, Morgan Hill, 95037",,,37.1289401,-121.651108,,,n_7093927432,"shop=confectionery, amenity=ice_cream"
"Gilroy, CA",,retail,446120,CosmoProf,"962 Blossom Hill Road, San Jose, 95123",,,37.2496396,-121.8662856,,,n_7094862478,shop=beauty
"Gilroy, CA",,retail,445310,Mike's Liquors,"6027 Snell Avenue, San Jose, 95123",,,37.2381547,-121.8315033,,,n_7100399088,shop=alcohol
"Gilroy, CA",,retail,446120,Elite Salon and Spa,"6049 Snell Avenue, San Jose, CA, 95123",,,37.2381607,-121.832119,,,n_7100399089,shop=beauty
"Gilroy, CA",,retail,446120,Yen Nail Salon,"6045 Snell Avenue, San Jose, CA, 95123",,,37.2381594,-121.831991,,,n_7100399097,shop=beauty
"Gilroy, CA",,retail,445292,Snowee Rolls,30 East 3rd Street,,,37.1281594,-121.6519614,,,n_7106871246,"shop=confectionery, amenity=ice_cream"
"Gilroy, CA",,retail,452319,Dollar Tree,"1553 North Sanborn Road, Salinas, CA, 93905-4717",,https://www.dollartree.com/locations/ca/salinas/3632/,36.6949304,-121.5978704,,,n_7129220784,"shop=variety_store, brand=Dollar Tree"
"Gilroy, CA",,retail,446120,Gali & Co,"1557 North Sanborn Road, Salinas, CA, 93905-4717",,https://www.galicollection.com/store/c1/Featured_Products.html,36.6950573,-121.5979871,,,n_7129247885,shop=cosmetics
"Gilroy, CA",,retail,445210,La Vina # 4 Carniceria,"1567 North Sanborn Road, Salinas, CA, 93905-4717",,,36.6953939,-121.5979469,,,n_7129247889,shop=butcher
"Gilroy, CA",,retail,446120,Dolly Nail and Spa,"1583 North Sanborn Road, Salinas, CA, 93905-4717",,,36.6956283,-121.5974953,,,n_7133874336,shop=beauty
"Gilroy, CA",,retail,445120,Circle K,"1593 North Sanborn Road, Salinas, CA, 93905-4717",,,36.6953909,-121.5965865,,,n_7133957481,"shop=convenience, brand=Circle K"
"Gilroy, CA",,retail,445110,Food 4 Less,"1576 North Sanborn Road, Salinas, CA, 93905-4761",,,36.6931226,-121.5958593,,,n_7134331695,"shop=supermarket, brand=Food 4 Less"
"Gilroy, CA",,retail,453991,Illusion Smoke Shop,"1564 North Sanborn Road, Salinas, CA, 93905-4760",,,36.6929457,-121.5964427,,,n_7134331702,shop=tobacco
"Gilroy, CA",,retail,446120,kk ibrows Threading,"1562 North Sanborn Road, Salinas, CA, 93905-4760",,,36.6929909,-121.5964816,,,n_7134331703,shop=beauty
"Gilroy, CA",,retail,446120,Nails Unlimited,"1560 North Sanborn Road, Salinas, CA, 93905-4760",,https://www.facebook.com/pages/Nails-Unlimited/111772725553069,36.6930345,-121.5965116,,,n_7137651016,shop=beauty
"Gilroy, CA",,retail,445292,Fiesta Time,"1584 North Sanborn Road, Salinas, CA, 93905-4762",,https://sitios.entravision.com/fiesta-time/birthday-supply-store/salinas/,36.6934147,-121.594907,,,n_7139953882,shop=confectionery
"Gilroy, CA",,retail,446120,Classy Nails,,,,37.1112645,-121.6399974,,,n_7141364916,shop=beauty
"Gilroy, CA",,retail,446120,Tina Nails,"15750 Monterey Road, Morgan Hill, CA, 95037",,,37.110913,-121.6387379,,,n_7143079430,shop=beauty
"Gilroy, CA",,retail,445120,ampm,,,,36.7217009,-121.6640693,,,n_7165313499,"shop=convenience, brand=ampm"
"Gilroy, CA",,retail,446120,Happy Skin and Nails,"6952 Almaden Expressway, San Jose, 95120",,,37.2103813,-121.8451663,,,n_7360494843,shop=beauty
"Gilroy, CA",,retail,446110,CVS Pharmacy,"6910 Almaden Expressway, San Jose, CA, 95120",,https://www.cvs.com/store-locator/san-jose-ca-pharmacies/6910-almaden-expy-san-jose-ca-95120/storeid=9337,37.2109998,-121.846761,,,n_7360494848,"shop=chemist, brand=CVS Pharmacy"
"Gilroy, CA",,retail,446120,Bank of Beauty,,,,37.2204818,-121.8642877,,,n_7360494850,shop=beauty
"Gilroy, CA",,retail,446120,Ohlone Beauty Salon,"5330 Terner Way, San Jose, CA, 95136",+1-408-445-1295,https://booksy.com/en-us/570323_ohlone-beauty-salon_skin-care_134690_san-jose#ba_s=sgr_1,37.2574245,-121.860669,,,n_7696322375,shop=beauty
"Gilroy, CA",,retail,445120,Ohlone Chynoweth Mini Market,"5330 Terner Way, San Jose, CA, 95136",,,37.2574192,-121.861008,,,n_7696322377,shop=convenience
"Gilroy, CA",,retail,453991,831 Smoke Shop,,,,36.7646284,-121.7558879,,,n_7828184565,shop=tobacco
"Gilroy, CA",,retail,445110,Nick's Hi-Way Market,,,,36.760302,-121.7522599,,,n_7831208744,shop=supermarket
"Gilroy, CA",,retail,445110,Primavera Market,,,,36.7675325,-121.7602167,,,n_7831229811,shop=supermarket
"Gilroy, CA",,retail,445310,Mo's Liquor,,,,36.7653307,-121.7578308,,,n_7831229821,shop=alcohol
"Gilroy, CA",,retail,445210,Michoacan Meat Market,,,,36.764874,-121.7574821,,,n_7831229823,shop=butcher
"Gilroy, CA",,retail,445110,Santa Fe Foods,,,,36.7613637,-121.7541351,,,n_7831229846,shop=supermarket
"Gilroy, CA",,retail,446120,La Roux Salon,,,,36.9802525,-121.9655115,,,n_7939742704,shop=beauty
"Gilroy, CA",,retail,446120,La Bella Nail Spa,,,,36.6643516,-121.6569836,,,n_7972230345,shop=beauty
"Gilroy, CA",,retail,446120,,,,,37.2627829,-121.81332,,,n_8051957904,shop=beauty
"Gilroy, CA",,retail,445120,6 To Late Market,"5138 Monterey Road, San Jose, 95111",,,37.2628398,-121.8133893,,,n_8051957905,"shop=convenience, operator=Smrp Family Inc"
"Gilroy, CA",,retail,446120,Quee’s Beauty Salon,"3975 Senter Road, San Jose, CA, 95111",,,37.2832058,-121.824456,,,n_8052658028,shop=beauty
"Gilroy, CA",,retail,445310,Happy Liquor,"3975 Senter Road, San Jose, CA, 95111",,,37.283222,-121.824663,,,n_8052658029,shop=alcohol
"Gilroy, CA",,retail,445110,Senter Foods,"3975 Senter Road, San Jose, CA, 95111",,,37.2832264,-121.824838,,,n_8052658030,shop=supermarket
"Gilroy, CA",,retail,445110,Conasuper,"3826 Seven Trees Boulevard, San Jose, CA, 95111",,,37.284244,-121.8337228,,,n_8053207416,shop=grocery
"Gilroy, CA",,retail,446120,Mollywood Beauty,"3828 Seven Trees Boulevard, San Jose, CA, 95111",,,37.2840044,-121.8328338,,,n_8053207420,shop=beauty
"Gilroy, CA",,retail,445120,7-Eleven,"3861 Seven Trees Boulevard, San Jose, CA, 95111",+1 408-226-0923,https://www.7-eleven.com/locations/ca/san-jose/3861-seven-trees-blvd-20418,37.2834925,-121.8333514,,,n_8060461667,"shop=convenience, brand=7-Eleven"
"Gilroy, CA",,retail,445120,Familia Foods,"3851 Seven Trees Boulevard, San Jose, CA, 95111",,,37.2834936,-121.8338,,,n_8060461668,shop=convenience
"Gilroy, CA",,retail,445310,Total Wine,"5140 Cherry Avenue, San Jose, CA, 95118",+1 408-445-8750,https://www.totalwine.com/store-info/1120,37.257667,-121.8743183,,,n_8105872212,"shop=alcohol, brand=Total Wine"
"Gilroy, CA",,retail,445120,Capitol Chevron,"3939 Snell Avenue, San Jose, CA, 95136",,,37.276986,-121.8428476,,,n_8175644005,"shop=convenience, brand=Chevron"
"Gilroy, CA",,retail,445120,Chevron,"6096 Cottle Road, San Jose, CA, 95123",,,37.2374932,-121.803095,,,n_8175784394,"shop=convenience, brand=Chevron, operator=Santa Teresa Chevron"
"Gilroy, CA",,retail,445120,Morgan Hill Kwik Serv,"17015 Monterey Road, Morgan Hill, CA, 95037-3635",,,37.1253642,-121.650742,,,n_8175789475,"shop=convenience, brand=Kwik Serv, operator=Morgan Hill Kwik Serv"
"Gilroy, CA",,retail,445120,Almaden Center 76,"6499 Camden Avenue, San Jose, CA, 95120",,,37.2210688,-121.8623919,,,n_8178007061,"shop=convenience, brand=76, operator=Tala Fuel Incorporated"
"Gilroy, CA",,retail,445110,Super India,"2772 Aborn Road, San Jose, 95121",,,37.313363,-121.7924822,,,n_8178537930,"shop=supermarket, operator=Pandya LLC"
"Gilroy, CA",,retail,445110,Aborn Oriental Market,"3321 San Felipe Road, San Jose, CA, 95135",,,37.3126846,-121.7914141,,,n_8178632128,shop=grocery
"Gilroy, CA",,retail,445120,Bonfare Market #39,"5251 Camden Avenue, San Jose, CA, 95124",,,37.242376,-121.9059395,,,n_8180061617,"shop=convenience, operator=IIT Gate International Inc"
"Gilroy, CA",,retail,445110,Chavez Supermarket,"646 Blossom Hill Road, San Jose, CA, 95123",,,37.24927,-121.84509,,,n_8180652989,"shop=supermarket, operator=David & Esperanza Chavez Family Limited Partnership"
"Gilroy, CA",,retail,446110,Walgreens,"440 Blossom Hill Road, San Jose, CA, 95123",,https://www.walgreens.com/locator/walgreens-440+blossom+hill+rd-san+jose-ca-95123/id=2739,37.2501705,-121.830027,,,n_8193201516,"shop=chemist, brand=Walgreens, operator=Walgreens Corporation"
"Gilroy, CA",,retail,446110,Walgreens,"14100 Blossom Hill Road, Los Gatos, CA, 95032",,https://www.walgreens.com/locator/walgreens-14100+blossom+hill+rd-los+gatos-ca-95032/id=2786,37.2351973,-121.914143,,,n_8197667721,"shop=chemist, brand=Walgreens"
"Gilroy, CA",,retail,445120,Shell,,,,36.9727731,-121.9647511,,,n_8200403927,"shop=convenience, brand=Shell"
"Gilroy, CA",,retail,445120,7-Eleven,"6211 Santa Teresa Boulevard, San Jose, CA, 95119",,,37.2364919,-121.8034715,,,n_8201300351,"shop=convenience, brand=7-Eleven"
"Gilroy, CA",,retail,445120,Gene’s Liquors,"6173 Santa Teresa Boulevard, San Jose, CA, 95123",,,37.2365774,-121.8050469,,,n_8220687542,"shop=convenience, operator=B&Q Corporation"
"Gilroy, CA",,retail,445120,Chevron,"875 Blossom Hill Road, San Jose, CA, 95123",,,37.2507753,-121.8583604,,,n_8229478432,"shop=convenience, brand=Chevron, operator=Chevron Stations Incorporated"
"Gilroy, CA",,retail,445110,Grocery Outlet,"7076 Santa Teresa Boulevard, San Jose, CA, 95139",,,37.2273223,-121.774357,,,n_8232899155,"shop=supermarket, brand=Grocery Outlet, operator=Helo Family LLC"
"Gilroy, CA",,retail,453110,Forever Elegant Flowers,,,,37.3142044,-121.7885058,,,n_8238956638,shop=florist
"Gilroy, CA",,retail,445310,Al Liquors,"3319 San Felipe Road, San Jose, CA, 95135",,,37.3127181,-121.7915431,,,n_8238976618,shop=alcohol
"Gilroy, CA",,retail,446120,Sun Nail And Hair,"7116 Santa Teresa Boulevard, San Jose, CA, 95139",+1-408-629-4597,,37.2265354,-121.7732801,,,n_8253049467,shop=beauty
"Gilroy, CA",,retail,446120,Bella Nailspa,"1025 East Capitol Expressway, San Jose, CA, 95121",,,37.3001698,-121.8242692,,,n_8253115127,shop=beauty
"Gilroy, CA",,retail,446120,Anni's Nails,"3279 South White Road, San Jose, CA, 95148",,,37.3142961,-121.7943477,,,n_8253134525,shop=beauty
"Gilroy, CA",,retail,445120,,,,,37.2508624,-121.8303963,,,n_8254426241,shop=convenience
"Gilroy, CA",,retail,446120,Vienna Nails & Lashes,"5661 Snell Avenue, San Jose, CA, 95123",,,37.2493284,-121.8319004,,,n_8254426243,shop=beauty
"Gilroy, CA",,retail,446120,Expo Nails,"7036 Santa Teresa Boulevard, San Jose, CA, 95139",+1-408-224-3775,,37.2279577,-121.775282,,,n_8255740987,shop=beauty
"Gilroy, CA",,retail,446120,White Sands Spa,"7176 Santa Teresa Boulevard, San Jose, CA, 95139",,,37.2258521,-121.7728612,,,n_8255740990,shop=beauty
"Gilroy, CA",,retail,445120,Santa Teresa Bottle Shoppe,"7068 Santa Teresa Boulevard, San Jose, CA, 95139",,,37.2274533,-121.7747619,,,n_8288098808,"shop=convenience, operator=GNA Liquor Inc."
"Gilroy, CA",,retail,452319,Dollar Tree,"7122;7128 Santa Teresa Boulevard, San Jose, CA, 95139",,https://www.dollartree.com/locations/ca/san-jose/6337/,37.2264172,-121.773084,,,n_8288142255,"shop=variety_store, brand=Dollar Tree"
"Gilroy, CA",,retail,453991,Cigarette Plus,"7110 Santa Teresa Boulevard, San Jose, CA, 95139",,,37.2266265,-121.7734311,,,n_8288142257,shop=tobacco
"Gilroy, CA",,retail,446120,Fashion Nails,"5489 Snell Avenue, San Jose, CA, 95123",,,37.2534715,-121.8319584,,,n_8312343732,shop=beauty
"Gilroy, CA",,retail,453110,Toshi’s Flowers and Gifts,"5489 Snell Avenue, San Jose, CA, 95123",,,37.2535473,-121.831961,,,n_8312343735,shop=florist
"Gilroy, CA",,retail,445310,Bonfare Market,"5489 Snell Avenue, San Jose, CA, 95123",,,37.2539156,-121.8317465,,,n_8312343736,shop=alcohol
"Gilroy, CA",,retail,446120,Pure Bliss Day Spa and Float Center,"6055 Meridian Avenue, San Jose, CA, 95120",,,37.230334,-121.8852354,,,n_8356297897,shop=beauty
"Gilroy, CA",,retail,445120,V-Mart,"4108 Monterey Road, San Jose, 95111",,,37.2793766,-121.834148,,,n_8369829859,shop=convenience
"Gilroy, CA",,retail,446120,,"890 Renz Lane, Gilroy, CA, 95020",,,37.0053844,-121.551954,,,n_8376454699,shop=beauty
"Gilroy, CA",,retail,445120,World Express,"621 East Capitol Expressway, San Jose, CA, 95111",,,37.2942319,-121.8334578,,,n_8380311150,"shop=convenience, operator=Hari Mini Mart LLC"
"Gilroy, CA",,retail,445120,Gas N Go,"621 Blossom Hill Road, San Jose, CA, 95123",,,37.2510316,-121.8430165,,,n_8380340202,"shop=convenience, operator=Janix Incorporated"
"Gilroy, CA",,retail,453991,Puff-N-Pass,"1376 Soquel Avenue, Santa Cruz, 95062",+1-831-425-7811,,36.9810255,-122.0070535,,,n_8392445167,shop=tobacco
"Gilroy, CA",,retail,446120,Almaden Valley Aesthetics,"5965 Almaden Expressway, San Jose, CA, 95120",,https://avarejuvenation.com/,37.2347355,-121.8738332,,,n_8401530210,shop=beauty
"Gilroy, CA",,retail,446120,Golden Nail Lounge,"5965 Almaden Expressway, San Jose, CA, 95120",,,37.2347377,-121.8739459,,,n_8401530212,shop=beauty
"Gilroy, CA",,retail,453110,Bloomster’s,"5945 Almaden Expressway, San Jose, CA, 95120",,,37.2350879,-121.8742731,,,n_8401556717,"shop=florist, operator=KPR, Incorporated"
"Gilroy, CA",,retail,445310,Eaven Liquor Store,"5945 Almaden Expressway, San Jose, CA, 95120",,,37.2352961,-121.8742731,,,n_8401556718,shop=alcohol
"Gilroy, CA",,retail,446110,CVS Pharmacy,"4850 San Felipe Road, San Jose, CA, 95135",+1-408-532-2944,https://www.cvs.com/store-locator/san-jose-ca-pharmacies/4850-san-felipe-rd-san-jose-ca-95135/storeid=9534,37.3007387,-121.7711846,,,n_8404082816,"shop=chemist, brand=CVS Pharmacy, operator=CVS Health"
"Gilroy, CA",,retail,446120,Professionail,"4848 San Felipe Road, San Jose, CA, 95135",,,37.3006114,-121.7716633,,,n_8404091917,shop=beauty
"Gilroy, CA",,retail,445120,Stop 'N' Save,"1626 East Capitol Expressway, San Jose, CA, 95121",,,37.3052717,-121.8111856,,,n_8410254899,"shop=convenience, operator=Namita Devi Inc"
"Gilroy, CA",,retail,445310,Pacific Liquor,"5717 Cottle Road, San Jose, CA, 95123",,,37.2490934,-121.8047158,,,n_8416820320,shop=alcohol
"Gilroy, CA",,retail,446120,Ivy Nails & Spa,"6185 Santa Teresa Boulevard, San Jose, CA, 95123",,,37.2362417,-121.8045331,,,n_8423959915,shop=beauty
"Gilroy, CA",,retail,446120,Perfect Nails and Tan,"513 West Capitol Expressway, San Jose, CA, 95136",,,37.2753536,-121.8516018,,,n_8429898270,"shop=beauty, operator=Sunrise Nails Salon"
"Gilroy, CA",,retail,445310,Don's Liquor and Wine,"1053 East Capitol Expressway, San Jose, CA, 95121",,,37.3014914,-121.822781,,,n_8429903334,shop=alcohol
"Gilroy, CA",,retail,445120,Lil Grocer,"5807 Cottle Road, San Jose, CA, 95020",,,37.2456922,-121.8049771,,,n_8455764104,shop=convenience
"Gilroy, CA",,retail,445110,Mi Rancho Carniceria,"1383 Kooser Road, San Jose, CA, 95118",,,37.2466835,-121.8893598,,,n_8459372449,shop=supermarket
"Gilroy, CA",,retail,445120,7-Eleven,"617 Blossom Hill Road, San Jose, CA, 95123",+1 408-629-0784,https://www.7-eleven.com/locations/ca/san-jose/617-blossom-hill-rd-25561,37.2511002,-121.8424458,,,n_8459513484,"shop=convenience, brand=7-Eleven"
"Gilroy, CA",,retail,446120,Mimosa Essentials,"1773 East Capitol Expressway, San Jose, CA, 95121",,,37.3094037,-121.810406,,,n_8481174524,shop=beauty
"Gilroy, CA",,retail,446120,Brow Maester,"1773 East Capitol Expressway, San Jose, CA, 95121",,,37.3093976,-121.810424,,,n_8481174525,shop=beauty
"Gilroy, CA",,retail,446120,Wax Me Nezz,"1773 East Capitol Expressway, San Jose, CA, 95121",,,37.3094276,-121.810419,,,n_8481249385,shop=beauty
"Gilroy, CA",,retail,446120,Cute Nails & Spa,"4078 Monterey Road, San Jose, CA, 95111",,,37.278819,-121.8349034,,,n_8481317664,shop=beauty
"Gilroy, CA",,retail,446120,Valley Nail Care & Spa,"1666 East Capitol Expressway, San Jose, CA, 95121",+1-408-238-5555,,37.3062895,-121.8106703,,,n_8484123061,shop=beauty
"Gilroy, CA",,retail,445292,See's Candies,"1789 East Capitol Expressway, San Jose, CA, 95121",,,37.3097446,-121.8100889,,,n_8484439560,"shop=confectionery, brand=See's Candies"
"Gilroy, CA",,retail,446120,Redmond Nails & Skin Care,"1167 Redmond Avenue, San Jose, CA, 95120",,,37.2301126,-121.8722793,,,n_8498897556,shop=beauty
"Gilroy, CA",,retail,446120,Hue's Hair & Nail,"1944 North Main Street, Salinas, CA, 93906",,,36.7198869,-121.6544009,,,n_8561671356,shop=beauty
"Gilroy, CA",,retail,445120,76,"3295 South White Road, San Jose, CA, 95148",,,37.3142681,-121.7924723,,,n_8573333100,"shop=convenience, brand=76, operator=Satnam Petroleum, Incorporated"
"Gilroy, CA",,retail,446120,EM Lash & Brow,"5377 Camden Avenue, San Jose, CA, 95124",+1-650-488-1456,https://emlnb.com/,37.2411,-121.9056449,,,n_8619398047,shop=beauty
"Gilroy, CA",,retail,446120,Qtie Nail Lounge,"5415 Camden Avenue, San Jose, CA, 95124",,,37.2398238,-121.9046822,,,n_8619398054,shop=beauty
"Gilroy, CA",,retail,446120,Fashion Nail Spa,"5375 Camden Avenue, San Jose, CA, 95124",+1-408-694-0712,,37.2411027,-121.9056058,,,n_8619398057,shop=beauty
"Gilroy, CA",,retail,446120,Holly's Nail Design,"5310 Monterey Road, San Jose, CA, 95111",,,37.259738,-121.8076762,,,n_8619642385,shop=beauty
"Gilroy, CA",,retail,445310,Edenvale Liquors & Check Cashing,"5272 Monterey Road, San Jose, CA, 95111",,,37.2602473,-121.8088538,,,n_8619642394,shop=alcohol
"Gilroy, CA",,retail,446120,Glow by Helia,"1610 Blossom Hill Road, San Jose, CA, 95124",,,37.2360012,-121.9042713,,,n_8620406133,shop=beauty
"Gilroy, CA",,retail,446120,Silicon Valley Aesthetics,"1604 Blossom Hill Road, San Jose, CA, 95124",,,37.2360618,-121.9040652,,,n_8620406136,shop=beauty
"Gilroy, CA",,retail,446120,Emerald Nails Spa,"1183 Branham Lane, San Jose, CA, 95118",,,37.2627851,-121.879307,,,n_8648300407,shop=beauty
"Gilroy, CA",,retail,446120,,,,,36.987216,-121.9644439,,,n_8719970971,shop=beauty
"Gilroy, CA",,retail,446120,Escape Nails & Day Spa,,,,36.9871604,-121.964515,,,n_8719970972,shop=beauty
"Gilroy, CA",,retail,446120,Nail Art,"420 Blossom Hill Road, San Jose, CA, 95123",,,37.2502589,-121.8286233,,,n_8720782628,"shop=beauty, operator=JK Blossom Hill Incorporated"
"Gilroy, CA",,retail,445120,Tran Mini Mart & Deli,"3305 San Felipe Road, San Jose, CA, 95135",,,37.3131593,-121.791908,,,n_8759077368,shop=convenience
"Gilroy, CA",,retail,445110,Coconut Hill,"3325 San Felipe Road, San Jose, CA, 95135",,,37.3126803,-121.79125,,,n_8759077373,shop=grocery
"Gilroy, CA",,retail,446120,High Tech Hair & Nail,"3313 San Felipe Road, San Jose, CA, 95135",,,37.3127998,-121.791747,,,n_8759077375,shop=beauty
"Gilroy, CA",,retail,452319,Dollar Tree,"5041 Almaden Expressway, San Jose, CA, 95118",,https://www.dollartree.com/locations/ca/san-jose/3185/,37.2573565,-121.8773189,,,n_8769758007,"shop=variety_store, brand=Dollar Tree"
"Gilroy, CA",,retail,446120,Top Care Nails,"3280 South White Road, San Jose, CA, 95148",,,37.3146235,-121.7899281,,,n_8840857734,shop=beauty
"Gilroy, CA",,retail,446120,Hannah Nails Spa,"155 Blossom Hill Road, San Jose, CA, 95123",,,37.2528465,-121.8068856,,,n_8866489217,shop=beauty
"Gilroy, CA",,retail,446120,Lynn Nails,"874 Blossom Hill Road, San Jose, CA, 95123",,,37.2480289,-121.8585329,,,n_8893821733,shop=beauty
"Gilroy, CA",,retail,446120,Lucky Foot Relaxation,"4991 Cherry Avenue, San Jose, CA, 95118",,,37.2583538,-121.877466,,,n_8893933771,shop=beauty
"Gilroy, CA",,retail,446120,Blossom Nail Spa,"1122 Branham Lane, San Jose, CA, 95118",,,37.2620614,-121.8777393,,,n_8894022512,shop=beauty
"Gilroy, CA",,retail,446120,Gwen Nail Spa,"1375 Kooser Road, San Jose, CA, 95118",,,37.2465196,-121.8890464,,,n_8897151297,shop=beauty
"Gilroy, CA",,retail,446120,Perfect 10 Nail Spa,"5045 Almaden Expressway, San Jose, CA, 95118",,,37.2571723,-121.8773052,,,n_8902854566,shop=beauty
"Gilroy, CA",,retail,446120,Sola Salons,"866 Blossom Hill Road, San Jose, CA, 95123",,https://www.solasalonstudios.com/locations/blossom-hill1?utm_source=gmb&utm_medium=organic,37.2482901,-121.857922,,,n_8912049623,"shop=beauty, operator=Gateway VI Investments"
"Gilroy, CA",,retail,445120,Shell,"5801 Silver Creek Valley Road, San Jose, CA, 95138",+1-408-238-7348,https://find.shell.com/us/fuel/12616028-5801-silver-creek-valley-rd/en_US,37.2563648,-121.7918899,,,n_8912145185,"shop=convenience, brand=Shell"
"Gilroy, CA",,retail,446120,Best Nails,"6139 Camino Verde Drive, San Jose, CA, 95119",,,37.2356408,-121.8015976,,,n_8912760278,shop=beauty
"Gilroy, CA",,retail,446120,Kitchen Nail Bar,"486 Blossom Hill Road, San Jose, CA, 95123",,,37.2500379,-121.832859,,,n_8918220650,shop=beauty
"Gilroy, CA",,retail,446120,Lavish Nails & Lashes,"5589 Snell Avenue, San Jose, CA, 95123",,,37.2521554,-121.8313547,,,n_8918228752,shop=beauty
"Gilroy, CA",,retail,446120,Luxury Day Spa,"705 1st Street, Gilroy, CA, 95020",,,37.0140077,-121.5820302,,,n_8921354865,shop=beauty
"Gilroy, CA",,retail,446120,Luxury Nails Spa,"956 Blossom Hill Road, San Jose, CA, 95123",,,37.2495816,-121.865988,,,n_8929704955,shop=beauty
"Gilroy, CA",,retail,446120,Royal Nails Spa,"1130 1st Street, Gilroy, CA, 95020",,,37.0132034,-121.5927908,,,n_8931402684,shop=beauty
"Gilroy, CA",,retail,446120,Apple Nail Spa,"675 1st Street, Gilroy, CA, 95020",,,37.0139426,-121.5812026,,,n_8931437592,shop=beauty
"Gilroy, CA",,retail,446120,Q Beauty Spa,"895 1st Street, Gilroy, CA, 95020",,,37.0143698,-121.5885105,,,n_8931468424,shop=beauty
"Gilroy, CA",,retail,446120,Diva Nail Salon,"5770 Cottle Road, San Jose, CA, 95123",,,37.2465695,-121.8035056,,,n_8934727653,shop=beauty
"Gilroy, CA",,retail,446120,K3 Nails & Spa,"5623 Cottle Road, San Jose, CA, 95123",,,37.2510903,-121.8052946,,,n_8936918413,shop=beauty
"Gilroy, CA",,retail,446120,Ynot Nails Spa,"1008 Blossom Hill Road, San Jose, CA, 95123",,,37.2494337,-121.869219,,,n_8943323518,shop=beauty
"Gilroy, CA",,retail,446120,Protip Nails Spa,"1080 Blossom Hill Road, San Jose, CA, 95123",,,37.2500765,-121.8724067,,,n_8943348532,shop=beauty
"Gilroy, CA",,retail,446120,Splendor Nails,"1345 Blossom Hill Road, San Jose, CA, 95118",,,37.2467466,-121.887146,,,n_8944464725,shop=beauty
"Gilroy, CA",,retail,446120,PK Hair & Nails,"1379 Kooser Road, San Jose, CA, 95118",,,37.2465522,-121.889238,,,n_8944478203,"shop=beauty, operator=PK Hair & Nails LLC"
"Gilroy, CA",,retail,445110,Etminan Market,"1373 Kooser Road, San Jose, 95118",+14086226778,,37.2465661,-121.888854,,,n_8944478206,shop=supermarket
"Gilroy, CA",,retail,446120,Aborn Nail,"2758 Aborn Road, San Jose, CA, 95121",,,37.313329,-121.7929825,,,n_8981826512,shop=beauty
"Gilroy, CA",,retail,446120,Vivian Luxurious Nail Spa,"4652 Pearl Avenue, San Jose, CA, 95136",,,37.2643124,-121.8648585,,,n_8999776981,shop=beauty
"Gilroy, CA",,retail,446120,Chi Chi Nails & Spa,"4474 Pearl Avenue, San Jose, CA, 95136",,,37.2664504,-121.8653365,,,n_8999783271,shop=beauty
"Gilroy, CA",,retail,446120,La Queen Nails Spa,"445 Blossom Hill Road, San Jose, CA, 95123",,,37.2520745,-121.8299435,,,n_9000020785,shop=beauty
"Gilroy, CA",,retail,446120,Lovely Design Nail Spa,"4750 Almaden Expressway, San Jose, CA, 95118",,,37.2614102,-121.875948,,,n_9005413906,shop=beauty
"Gilroy, CA",,retail,446120,Elegant Nails,"6081 Meridian Avenue, San Jose, CA, 95120",,,37.2299013,-121.8848424,,,n_9005868038,shop=beauty
"Gilroy, CA",,retail,446120,Fancy Nails,"353 East 10th Street, Gilroy, CA, 95020",,,37.0028005,-121.5619057,,,n_9008691106,shop=beauty
"Gilroy, CA",,retail,446120,L'amour Nails,"7660 Monterey Street, Gilroy, CA, 95020",,,37.0112171,-121.570355,,,n_9008750779,shop=beauty
"Gilroy, CA",,retail,446120,Q Nail Spa,"6970 Automall Parkway, Gilroy, CA, 95020",,,37.0015449,-121.5580004,,,n_9008754619,shop=beauty
"Gilroy, CA",,retail,446120,Jenasis Organic Nail Spa,"16795 Monterey Road, Morgan Hill, CA, 95037",,,37.122061,-121.6485,,,n_9008815135,shop=beauty
"Gilroy, CA",,retail,446120,M Pedicure & Spa,"6945 Monterey Road, Gilroy, CA, 95020",,,36.9991747,-121.566115,,,n_9012871423,shop=beauty
"Gilroy, CA",,retail,446120,Blink Blink Nails,"8401 Church Street, Gilroy, CA, 95020",,,37.019562,-121.5779389,,,n_9012917162,shop=beauty
"Gilroy, CA",,retail,446120,Chanails Spa,"255 West Main Avenue, Morgan Hill, CA, 95037",,,37.1277366,-121.6594552,,,n_9021854893,shop=beauty
"Gilroy, CA",,retail,446120,His and Hers Hair Bar,"7026 Santa Teresa Boulevard, San Jose, CA, 95139",,http://hisandhershairbar.com/,37.2267255,-121.7755899,,,n_9025767915,shop=beauty
"Gilroy, CA",,retail,446120,Melissa’s Nail Spa,"14174 Blossom Hill Road, Los Gatos, CA, 95032",,,37.235754,-121.9146123,,,n_9036921845,shop=beauty
"Gilroy, CA",,retail,446120,Paradise Nails,"1095 Branham Lane, San Jose, CA, 95136",,,37.2635296,-121.8761027,,,n_9039506835,shop=beauty
"Gilroy, CA",,retail,445120,,"1902 Freedom Boulevard, Freedom, CA, 95019",,,36.9356591,-121.7735115,,,n_9181283278,shop=convenience
"Gilroy, CA",,retail,445310,BevMo!,,,,36.7180364,-121.6669038,,,n_9214861895,"shop=alcohol, brand=BevMo!"
"Gilroy, CA",,retail,445110,Safeway,"591 Tres Pinos Road, Hollister, CA, 95023",+1 831-638-3240,https://local.safeway.com/safeway/ca/hollister/591-tres-pinos-rd.html,36.8384479,-121.39204,,,n_9321280974,"shop=supermarket, brand=Safeway"
"Gilroy, CA",,retail,446120,European Wax Center,"5638 Cottle Road, San Jose, CA, 95123",+1 408-972-5000,https://locations.waxcenter.com/ca/sanjose/san-jose-village-oaks-0571.html,37.2496796,-121.8036827,,,n_9363077501,"shop=beauty, brand=European Wax Center"
"Gilroy, CA",,retail,445230,Hi5 Produce Fresh Fruit Delivery,"17700 Serene Drive, Morgan Hill, CA, 95037",+1 408 778 6476,https://www.hi5produce.com/,37.141888,-121.6450827,,,n_9391348771,"shop=greengrocer, operator=Hi5 Health Network Incorporated"
"Gilroy, CA",,retail,446120,Naturals Boutique Spa & Salon,"13295 Monterey Road, San Martin, CA, 95046",,https://www.naturalsboutiquespa.com/home,37.0846271,-121.6107425,,,n_9548849987,shop=beauty
"Gilroy, CA",,retail,446120,Colleen's Hair & Nails,"5450 Thornwood Drive, San Jose, CA, 95123",,,37.2533434,-121.859477,,,n_9576065860,shop=beauty
"Gilroy, CA",,retail,446120,Rita Ballantyne Advanced Skin Care,"17705 Hale Avenue, Morgan Hill, CA, 95037",,https://rbadvancedskincare.com/,37.1307126,-121.6609974,,,n_9584029338,shop=beauty
"Gilroy, CA",,retail,446120,Casa Blue Salon,"17765 Monterey Road, Morgan Hill, CA, 95037",,https://casabluesalon.com/,37.133122,-121.6573093,,,n_9584064385,shop=beauty
"Gilroy, CA",,retail,446120,Sabai Beauty & Wellness,"18585 Monterey Road, Morgan Hill, CA, 95037",,,37.1441142,-121.664407,,,n_9592520310,shop=beauty
"Gilroy, CA",,retail,445120,Tres Pinos Market,,,,36.7905796,-121.3218879,,,n_9592698356,shop=convenience
"Gilroy, CA",,retail,446120,TH Spring Cut Hair Salon,"155 Blossom Hill Road, San Jose, CA, 95123",,,37.2528216,-121.8069452,,,n_9602322843,shop=beauty
"Gilroy, CA",,retail,445310,Camden Liquors,"5837 Camden Avenue, San Jose, CA, 95124",,,37.2315318,-121.9041423,,,n_9603790766,shop=alcohol
"Gilroy, CA",,retail,446120,Onyx Beauty Studio,"866 Blossom Hill Road, San Jose, CA, 95123",,https://onyxbeautystudio.glossgenius.com/,37.248255,-121.857829,,,n_9604319572,"shop=beauty, operator=Onyx Beauty Studio Incorporated"
"Gilroy, CA",,retail,446120,Feel Like You Wax and Beauty,"866 Blossom Hill Road, San Jose, CA, 95123",,https://www.feellikeyouwaxandbeauty.com/,37.2482574,-121.857868,,,n_9604330702,shop=beauty
"Gilroy, CA",,retail,446110,CVS Pharmacy,"800 1st Street, Gilroy, CA, 95020",+1-408-842-0373,https://www.cvs.com/store-locator/gilroy-ca-pharmacies/800-first-st-gilroy-ca-95020/storeid=9945,37.0131606,-121.587279,,,n_9604551384,"shop=chemist, brand=CVS Pharmacy"
"Gilroy, CA",,retail,445110,99 Ranch Market,"925 Blossom Hill Road, San Jose, CA, 95123",+1 408-539-8899,,37.2528526,-121.8646412,,,n_9609939408,"shop=supermarket, brand=99 Ranch Market"
"Gilroy, CA",,retail,446120,Glow Hair & Beauty Salon,"8025 Kern Avenue, Gilroy, CA, 95020",,,37.0144202,-121.5921454,,,n_9622353357,shop=beauty
"Gilroy, CA",,retail,446120,Gallegos Sala de Belleza,"7897 Eigleberry Street, Gilroy, CA, 95020",,,37.0140241,-121.573896,,,n_9622376969,shop=beauty
"Gilroy, CA",,retail,446120,BeautyMarks,"20 Martin Street, Gilroy, CA, 95020",,,37.008048,-121.5688933,,,n_9625396352,shop=beauty
"Gilroy, CA",,retail,446120,Luxe Beauty Bar,"7433 Monterey Road, Gilroy, CA, 95020",,https://www.facebook.com/Luxe-Beauty-Bar-Gilroy-980826842111965/,37.0072587,-121.5691298,,,n_9627655135,shop=beauty
"Gilroy, CA",,retail,446120,Lash Rebel,"60 4th Street, Gilroy, CA, 95020",,https://www.lashrebelextensions.com/,37.0093874,-121.5710055,,,n_9629953211,"shop=beauty, operator=Lash Rebel LLC"
"Gilroy, CA",,retail,446120,Heidi's Beauty Salon,"7671 Monterey Street, Gilroy, CA, 95020",,,37.0109988,-121.5708175,,,n_9630120705,shop=beauty
"Gilroy, CA",,retail,446120,Genessis Beauty Salon,"7598 Monterey Road, Gilroy, CA, 95020",,https://www.facebook.com/GenessisBeautySalon/,37.0095836,-121.5695642,,,n_9630134604,shop=beauty
"Gilroy, CA",,retail,446120,Salon Evon,"309 1st Street, Gilroy, CA, 95020",,,37.0138302,-121.5763545,,,n_9641236131,shop=beauty
"Gilroy, CA",,retail,446120,Hair & Nails Experts,"193 Welburn Avenue, Gilroy, CA, 95020",,,37.0198603,-121.576422,,,n_9641316103,shop=beauty
"Gilroy, CA",,retail,446120,A Visionary Salon,"16270 Monterey Road, Morgan Hill, CA, 95037",,http://www.avisionarysalon.com/,37.1164601,-121.6445865,,,n_9649677187,shop=beauty
"Gilroy, CA",,retail,446120,Adieu Salon,"109 West Main Avenue, Morgan Hill, CA, 95037",,,37.1291954,-121.6568397,,,n_9659715878,shop=beauty
"Gilroy, CA",,retail,446120,Cristina's Esthetics,"6110 Camino Verde Drive, San Jose, CA, 95119",,https://cristinasesthetics.glossgenius.com/,37.2365229,-121.8008895,,,n_9666961786,shop=beauty
"Gilroy, CA",,retail,446120,Amazing Lash Studio,"5700 Village Oaks Drive, San Jose, CA, 95123",,,37.2471694,-121.8021168,,,n_9666968219,"shop=beauty, operator=Sei Bella Incorporated"
"Gilroy, CA",,retail,446120,Envy Hair & Skin Salon,"124 Blossom Hill Road, San Jose, CA, 95123",,,37.2520629,-121.8062966,,,n_9667068970,shop=beauty
"Gilroy, CA",,retail,446120,David Hair and Nail Salon,"461 Blossom Hill Road, San Jose, CA, 95123",,https://pr.business/david-hair-and-nail-salon-san-jose-california,37.2520168,-121.8322743,,,n_9678163070,shop=beauty
"Gilroy, CA",,retail,446120,Kim’s Hair and Nails Tech,"463 Blossom Hill Road, San Jose, CA, 95123",,https://www.facebook.com/Kims-Hair-Nail-Tech-928130054185870/,37.2516095,-121.8329224,,,n_9678289820,shop=beauty
"Gilroy, CA",,retail,446120,Hair & Nail Club,"4128 Monterey Road, San Jose, CA, 95111",,,37.2793766,-121.8329458,,,n_9680991450,shop=beauty
"Gilroy, CA",,retail,446120,Suite Meraki,"3851 Charter Park Drive, San Jose, CA, 95136",,https://suitemeraki.com/,37.2773396,-121.8520446,,,n_9695595994,shop=beauty
"Gilroy, CA",,retail,446120,Hair 2000,"1008 Blossom Hill Road, San Jose, CA, 95123",,,37.2493215,-121.8687485,,,n_9696333845,"shop=beauty, operator=Future Haie & Nails"
"Gilroy, CA",,retail,446120,Doll House Salon,"4991 Cherry Avenue, San Jose, CA, 95118",,https://dollhousesalon.com/,37.2583189,-121.8776301,,,n_9696433227,shop=beauty
"Gilroy, CA",,retail,446120,Unique Hair & Nails,"1107 Branham Lane, San Jose, CA, 95118",,,37.2637003,-121.8778057,,,n_9696463155,shop=beauty
"Gilroy, CA",,retail,446120,Naomi’s Beauty Salon,"1095 Branham Lane, San Jose, CA, 95136",,,37.2635472,-121.8760463,,,n_9710480670,shop=beauty
"Gilroy, CA",,retail,446120,Jessica’s Beauty Salon,"1095 Branham Lane, San Jose, CA, 95136",,,37.2635598,-121.8759989,,,n_9710530534,shop=beauty
"Gilroy, CA",,retail,446120,Polished Salon,"4035 Evergreen Village Square, San Jose, CA, 95135",,,37.3130782,-121.7736238,,,n_9770822965,shop=beauty
"Gilroy, CA",,retail,446110,CVS Pharmacy,110 East Laurel Drive,,https://www.cvs.com/store-locator/salinas-ca-pharmacies/110-e-laurel-dr-salinas-ca-93906/storeid=9186,36.6981603,-121.6498922,,,n_9791517977,"shop=chemist, brand=CVS Pharmacy"
"Gilroy, CA",,retail,452319,Dollar Tree,"East Laurel Drive, Salinas, CA, 93906",,,36.6982276,-121.6507872,,,n_9791517980,"shop=variety_store, brand=Dollar Tree"
"Gilroy, CA",,retail,445310,Bozzos Liquor,,,,36.6996265,-121.6511428,,,n_9791517994,shop=alcohol
"Gilroy, CA",,retail,453991,Smokin Up Smoke Shop,,,,36.7001799,-121.6518582,,,n_9791518005,shop=tobacco
"Gilroy, CA",,retail,445210,Ron's Meat Market,"North Main Street, Salinas, CA, 93906",,,36.7016062,-121.6519959,,,n_9791528040,shop=butcher
"Gilroy, CA",,retail,446120,Wayne's College of Beauty Inc,,,,36.7006363,-121.6526237,,,n_9791528093,shop=beauty
"Gilroy, CA",,retail,446120,A1 Indian Beauty Parlor,"2750 Aborn Road, San Jose, CA, 95121",,,37.3132756,-121.7932609,,,n_9795519491,shop=beauty
"Gilroy, CA",,retail,445120,,,,,36.8948852,-121.7781208,,,n_9818910728,shop=convenience
"Gilroy, CA",,retail,453991,Tobacco 4 Less,"3282 South White Road, San Jose, CA, 95148",,,37.314633,-121.789866,,,n_9864761852,shop=tobacco
"Gilroy, CA",,retail,445110,Marshall's Market,,,,36.8888983,-121.6428367,,,n_9985317450,shop=supermarket
"Gilroy, CA",,retail,446120,MY SALON Suite,"1773 East Capitol Expressway, San Jose, CA, 95121",,https://www.mysalonsuite.com/san-jose-silver-creek/,37.3093531,-121.8103689,,,n_10269134467,shop=beauty
"Gilroy, CA",,retail,453110,Red Rose Flowers,"684 East Boronda Road, Salinas, CA, 93906",+1-831-444-9808,https://redroseflowers.net,36.7144852,-121.6247357,,,n_10289476700,"shop=florist, operator=owner"
"Gilroy, CA",,retail,446120,Faust Salon,,,,36.9755429,-121.9687844,,,n_10314206823,shop=beauty
"Gilroy, CA",,retail,445310,Paps Hecker Pass Liquor,"221 1st Street, Gilroy, CA, 95020",,https://paps-hecker-pass-liquors.business.site/?utm_source=gmb&utm_medium=referral,37.0140846,-121.575364,,,n_10666101187,shop=alcohol
"Gilroy, CA",,retail,445120,Circle K,,,,37.0204132,-121.5709173,,,n_11112533797,"shop=convenience, brand=Circle K"
"Gilroy, CA",,retail,446120,Aptos Nails,60 Rancho Del Mar,,,36.9776439,-121.9079168,,,n_11145455671,shop=beauty
"Gilroy, CA",,retail,446110,Rite Aid,80 Rancho Del Mar,,https://www.riteaid.com/locations/ca/aptos/80-rancho-del-mar.html,36.9773704,-121.9073714,,,n_11145489989,"shop=chemist, brand=Rite Aid"
"Gilroy, CA",,retail,453110,Susi Flowers,25 Rancho Del Mar,,,36.9776733,-121.9080953,,,n_11145537372,shop=florist
"Gilroy, CA",,retail,445120,,,,,36.8455415,-121.5439864,,,n_11289802817,"shop=convenience, brand=Valero"
"Gilroy, CA",,retail,445110,FoodMaxx,"1962 North Main Street, Salinas, CA",+1 831 442 3111,,36.7206052,-121.6543016,,,n_11328419067,"shop=supermarket, brand=FoodMaxx"
"Gilroy, CA",,retail,445120,,,,,36.6808203,-121.6546798,,,n_11328440138,"shop=convenience, brand=Mobil"
"Gilroy, CA",,retail,452210,Ross,"1419 North Davis Road, Salinas, CA, 93907",+1 831-751-2015,,36.7070766,-121.6677716,,,n_11328462802,"shop=department_store, brand=Ross"
"Gilroy, CA",,retail,445120,,,,,36.6592254,-121.6186497,,,n_11464495304,"shop=convenience, brand=Love's Travel Stops"
"Gilroy, CA",,retail,452319,Dollar Tree,"Salinas, CA",,https://www.dollartree.com/locations/ca/salinas/1389/,36.7068572,-121.6547978,,,n_11524223038,"shop=variety_store, brand=Dollar Tree"
"Gilroy, CA",,retail,446120,Ulta Beauty,"1260 East Park Street, Hollister, CA, 95023",+1 831-205-0573,https://www.ulta.com/stores/hollister-ca-1685,36.8421511,-121.3925877,,,n_11590419257,"shop=beauty, brand=Ulta Beauty"
"Gilroy, CA",,retail,452210,Ross,"1240 East Park Street, Hollister, CA, 95023-5199",+1 831-265-8671,,36.8424044,-121.3925931,,,n_11590419258,"shop=department_store, brand=Ross"
"Gilroy, CA",,retail,452210,T.J. Maxx,"East Park Street, Hollister, CA, 95023",,,36.842956,-121.3928291,,,n_11590419261,"shop=department_store, brand=T.J. Maxx"
"Gilroy, CA",,retail,452319,Dollar Tree,"North Davis Road, Salinas, CA, 93907",,https://www.dollartree.com/locations/ca/salinas/5852/,36.7008661,-121.6685924,,,n_11600735217,"shop=variety_store, brand=Dollar Tree"
"Gilroy, CA",,retail,446120,Sukh Beauty Spa,"1574 North Main Street, Salinas, CA, 93906",+1 831 800 3821,,36.7132005,-121.6529967,,,n_11633522272,shop=beauty
"Gilroy, CA",,retail,446120,Hollywood Nails,"1576 North Main Street, Salinas, CA, 93906",+1 831 443 1322,,36.713208,-121.6529129,,,n_11633522273,shop=beauty
"Gilroy, CA",,retail,445310,Daisy's Liquors,"Third Street, San Juan Bautista, CA, 95045",,,36.8443589,-121.5366477,,,n_11846316879,shop=alcohol
"Gilroy, CA",,retail,445310,Bear's Hideaway,"402 Third Street, San Juan Bautista, CA, 95045",,,36.8454937,-121.5379779,,,n_11846316886,shop=wine
"Gilroy, CA",,retail,445292,Sweets-N-Treats,"401 Third Street, San Juan Bautista, CA, 95045",,,36.8451868,-121.537893,,,n_11846316896,shop=confectionery
"Gilroy, CA",,retail,453991,,"5837 Camden Avenue, San Jose, CA, 95124",,,37.2316631,-121.9041719,,,n_11887612210,shop=tobacco
"Gilroy, CA",,retail,446120,Bree's Beauty Bar,"260 Tres Pinos Road, Hollister, CA, 95023",+1 831 313 2113,https://breesbeautybarservices.com/,36.8399348,-121.3973021,,,n_11899999554,shop=beauty
"Gilroy, CA",,retail,446120,Haylie's Beauty Creations,"260 Tres Pinos Road, Hollister, CA, 95023",+1 831 245 6000,,36.8398493,-121.3973054,,,n_11899999555,shop=beauty
"Gilroy, CA",,retail,446120,Blossom Nails & Spa,,,,36.8391418,-121.3961406,,,n_11901821627,shop=beauty
"Gilroy, CA",,retail,445110,FoodMaxx,"1465 Main Street, Watsonville, CA, 95076",+1 831 768 1483,,36.9153905,-121.7767471,,,n_11974704549,"shop=supermarket, brand=FoodMaxx"
"Gilroy, CA",,retail,445120,,,,,36.665196,-121.630092,,,n_12100213266,shop=convenience
"Gilroy, CA",,retail,445210,San Benito Meat Market,"1210 East Park Street, Hollister, CA, 95023",,,36.8429245,-121.391039,,,n_12143845061,shop=butcher
"Gilroy, CA",,retail,453991,Mi Fiesta Smoke Shop,"1403 North Main Street, Salinas, CA, 93906",,,36.7062734,-121.6536552,,,n_12145835313,shop=tobacco
"Gilroy, CA",,retail,452319,Daiso Japan,"925 Blossom Hill Road, San Jose, CA, 95123",+1 408-784-3214,,37.2521568,-121.8649682,,,n_12200471488,"shop=variety_store, brand=Daiso"
"Gilroy, CA",,retail,446120,Planet Beauty,,,,37.2521809,-121.8647136,,,n_12200471493,shop=beauty
"Gilroy, CA",,retail,445292,See's Candies,"925 Blossom Hill Road, San Jose, CA, 95123",+1 408-360-9029,https://chocolateshops.sees.com/ca/sanjose/chocolate_shops_san-jose_ca_sf-11.html,37.2525106,-121.8634458,,,n_12200481403,"shop=confectionery, brand=See's Candies"
"Gilroy, CA",,retail,446120,Lush,,+1 408-229-2530,,37.2524848,-121.8627146,,,n_12200481408,"shop=cosmetics, brand=Lush"
"Gilroy, CA",,retail,446120,Fantasy Nail Spa,,+1 408-972-8882,,37.2520683,-121.8611332,,,n_12200481421,shop=beauty
"Gilroy, CA",,retail,446120,Bath & Body Works,,+1 408-281-8919,,37.2521716,-121.8625283,,,n_12200481427,"shop=cosmetics, brand=Bath & Body Works"
"Gilroy, CA",,retail,446120,Sephora,,+1 408-224-7404,,37.2521775,-121.8627679,,,n_12200481428,"shop=cosmetics, brand=Sephora"
"Gilroy, CA",,retail,446120,Hollywood Eyebrow,,+1 408-224-7770,,37.2520047,-121.8632395,,,n_12200481434,shop=beauty
"Gilroy, CA",,retail,446120,Salon L,,+1 408-224-2888,,37.2520103,-121.8645246,,,n_12200481443,shop=beauty
"Gilroy, CA",,retail,446120,MAC Cosmetics,,,,37.2515698,-121.861784,,,n_12200481455,"shop=cosmetics, brand=MAC Cosmetics"
"Gilroy, CA",,retail,445292,Lolli and Pops,,,,37.251536,-121.8636542,,,n_12200481465,"shop=confectionery, brand=Lolli and Pops"
"Gilroy, CA",,retail,445292,See's Candies,"7181 Camino Arroyo Drive, Gilroy, CA, 95020",+1 408-430-0145,https://chocolateshops.sees.com/ca/gilroy/chocolate_shops_gilroy_ca_2ca097.html,37.0067481,-121.5550113,,,n_12241928346,"shop=confectionery, brand=See's Candies"
"Gilroy, CA",,retail,452319,Five Below,"5650 Cottle Road, San Jose, CA, 95123",+1 619-633-3206,https://locations.fivebelow.com/ca/san-jose/5650-cottle-rd,37.2494813,-121.8019233,,,n_12244768386,"shop=variety_store, brand=Five Below"
"Gilroy, CA",,retail,446110,Walgreens,"1376 Kooser Road, San Jose, CA, 95118",+1 408-448-2503,https://www.walgreens.com/locator/walgreens-1376+kooser+rd-san+jose-ca-95118/id=3378,37.2456387,-121.8895435,,,n_12244810570,"shop=chemist, brand=Walgreens"
"Gilroy, CA",,retail,445310,Fine Wines & More,"933 West Alisal Street, Salinas, CA, 93901",,,36.6678735,-121.6740319,,,n_12329765301,shop=alcohol
"Gilroy, CA",,retail,445120,7-Eleven,"6059 Cahalan Avenue, San Jose, CA, 95123-3863",+1 408-578-3641,https://www.7-eleven.com/locations/ca/san-jose/6059-cahalan-ave-15071,37.2399582,-121.8507688,,,n_12335364739,"shop=convenience, brand=7-Eleven"
"Gilroy, CA",,retail,446120,3D Brows,"5750 Santa Teresa Boulevard, San Jose, CA, 95123",,,37.2400029,-121.8516947,,,n_12335364745,shop=beauty
"Gilroy, CA",,retail,445110,Cardenas,"1437 Freedom Boulevard, Watsonville, CA, 95076",+1 831-763-7656,https://locations.cardenasmarkets.com/ll/us/ca/watsonville/1437-freedom-blvd,36.9270895,-121.7668113,,,n_12335612372,"shop=supermarket, brand=Cardenas"
"Gilroy, CA",,retail,446110,CVS Pharmacy,"1966 Main Street, Watsonville, CA, 95076",+1 831-722-1782,https://www.cvs.com/store-locator/watsonville-ca-pharmacies/1966-main-st-watsonville-ca-95076/storeid=3039,36.9194268,-121.781721,,,n_12335824475,"shop=chemist, amenity=pharmacy, brand=CVS Pharmacy"
"Gilroy, CA",,retail,445310,,,,,36.9188339,-121.7824456,,,n_12335824476,shop=alcohol
"Gilroy, CA",,retail,446120,Pro Top Nails,,,,36.9155227,-121.7775824,,,n_12335832563,shop=beauty
"Gilroy, CA",,retail,452210,Ross,"1455 Main Street, Watsonville, CA, 95076",+1 831-786-0289,,36.9152528,-121.7760668,,,n_12335832565,"shop=department_store, brand=Ross"
"Gilroy, CA",,retail,445110,La Princesa Market #14,,,,36.9264333,-121.7632376,,,n_12404425505,shop=supermarket
"Gilroy, CA",,retail,452319,98 cent Plus Super Store,,,,36.9228837,-121.7620973,,,n_12404425635,shop=variety_store
"Gilroy, CA",,retail,445310,Lulu's Fiesta Liquor & Deli,,,,36.9225219,-121.7611437,,,n_12404425638,shop=alcohol
"Gilroy, CA",,retail,446191,Vida y Energia,,,,36.922368,-121.7609583,,,n_12404425639,shop=health_food
"Gilroy, CA",,retail,446120,Angelita's Beauty Shop,,,,36.921932,-121.7611237,,,n_12404425642,shop=beauty
"Gilroy, CA",,retail,445292,Gorditas Maria Dulceria,,,,36.9217592,-121.7608845,,,n_12404425643,shop=confectionery
"Gilroy, CA",,retail,453110,Flowers By Toshi,,,,36.9218124,-121.7602576,,,n_12404425674,shop=florist
"Gilroy, CA",,retail,445110,Mi Ranchito Supermercado,,,,36.913524,-121.7593826,,,n_12404425709,shop=supermarket
"Gilroy, CA",,retail,445110,Marketa Oaxaca,,,,36.9128238,-121.7588544,,,n_12404425718,shop=supermarket
"Gilroy, CA",,retail,446120,Creative Nails,,,,36.9121187,-121.7591648,,,n_12404425727,shop=beauty
"Gilroy, CA",,retail,446191,Prime Time Nutrition,,,,36.9111898,-121.7588159,,,n_12404425739,shop=health_food
"Gilroy, CA",,retail,453991,Jack's Cigar Store & Lunchroom,,,,36.9112169,-121.7577694,,,n_12404425749,shop=tobacco
"Gilroy, CA",,retail,446110,CVS Pharmacy,,,,36.91028,-121.7593382,,,n_12404425753,"shop=chemist, brand=CVS Pharmacy"
"Gilroy, CA",,retail,445292,Maria's Dulceria & Party Supply,,,,36.9105909,-121.7566551,,,n_12404425758,shop=confectionery
"Gilroy, CA",,retail,453110,Carol’s Flowers and Gifts,,,,36.9110848,-121.7565377,,,n_12404425766,shop=florist
"Gilroy, CA",,retail,446110,The Fillerup Shop,"125 West Main Avenue, Morgan Hill, CA, 95037",4086759283,https://thefillerupshop.godaddysites.com/,37.1292274,-121.6571575,,,n_12437713601,shop=chemist
"Gilroy, CA",,retail,445120,7-Eleven,,,,36.9279289,-121.7665625,,,n_12458792174,"shop=convenience, brand=7-Eleven"
"Gilroy, CA",,retail,453991,831 Smoke Shop,,,,36.9290231,-121.7674378,,,n_12458792186,shop=tobacco
"Gilroy, CA",,retail,445210,Willies Meat Market,,,,36.9289504,-121.7675168,,,n_12458792187,shop=butcher
"Gilroy, CA",,retail,446120,Beauty Unlimited,,,,36.9287178,-121.7678561,,,n_12458792190,shop=beauty
"Gilroy, CA",,retail,446120,Botanica Esoteraca La Reina,,,,36.9286323,-121.7679419,,,n_12458792191,shop=cosmetics
"Gilroy, CA",,retail,445310,Cork N' Bottle,"North Main Street, Salinas, CA, 93906",,,36.7017177,-121.6519654,,,n_12539924964,shop=alcohol
"Gilroy, CA",,retail,445120,ampm,"5755 Camden Avenue, San Jose, CA, 95124",+1 408-269-7244,,37.2323559,-121.9040004,,,n_12540025603,"shop=convenience, brand=ampm, operator=Camden Gas & Mini Mart, Inc."
"Gilroy, CA",,retail,445120,ampm,"5498 Monterey Road, San Jose, CA, 95111",+1 408-224-8977,,37.256935,-121.8035787,,,n_12540029302,"shop=convenience, brand=ampm"
"Gilroy, CA",,retail,453991,,"8055 San Miguel Canyon Road, Prunedale, CA, 93907",,,36.8013902,-121.6646187,,,n_12695914168,shop=tobacco
"Gilroy, CA",,retail,446120,Simply Nails,"195 Meridian Street, Hollister, CA, 95023",,,36.8520535,-121.3979971,,,n_12771652770,shop=beauty
"Gilroy, CA",,retail,452319,BC 99 Store,"195 Meridian Street, Hollister, CA, 95023",,,36.8520664,-121.3980983,,,n_12771652771,shop=variety_store
"Gilroy, CA",,retail,445110,Trinethra Supermarket,"4436 Pearl Avenue, 95136",,,37.266854,-121.8657787,,,n_12798608303,shop=supermarket
"Gilroy, CA",,retail,446120,,,,,37.2364401,-121.8029547,,,n_12955163108,shop=beauty
"Gilroy, CA",,retail,445120,,,,,36.9205071,-121.7471543,,,n_13022393820,shop=convenience
"Gilroy, CA",,retail,452210,Target,"1790 Airline Highway, Hollister, CA, 95023-5621",+1 831-636-3722,https://www.target.com/sl/hollister/941,36.8350906,-121.389309,,,w_27589935,"shop=department_store, brand=Target"
"Gilroy, CA",,retail,445110,Walmart Supercenter,"170 Cochrane Plaza, Morgan Hill, CA, 95037",+1 408-779-8172,https://www.walmart.com/store/5766-morgan-hill-ca,37.1492317,-121.6552758,,,w_27629337,"shop=supermarket, brand=Walmart, operator=Walmart"
"Gilroy, CA",,retail,452210,Target,"6705 Camino Arroyo, Gilroy, CA, 95020",+1 408-848-6466,https://www.target.com/sl/gilroy/1851,36.9997959,-121.5546875,,,w_27712637,"shop=department_store, brand=Target"
"Gilroy, CA",,retail,452210,Kohl's,"6765 Camino Arroyo, Gilroy, CA, 95020",+1 408-848-2032,https://www.kohls.com/stores/ca/gilroy-737.shtml,37.0005805,-121.5506296,,,w_27712653,"shop=department_store, brand=Kohl's"
"Gilroy, CA",,retail,452210,dd's Discounts,"6735 Camino Arroyo, Gilroy, CA, 95020",,,36.9999635,-121.5526344,,,w_27712659,"shop=department_store, brand=dd's Discounts"
"Gilroy, CA",,retail,445110,Grocery Outlet,"333 East 10th Street, Gilroy, CA, 95020",,https://www.groceryoutlet.com/circulars/storeid/184?utm_source=extnet&utm_medium=yext,37.0018745,-121.561975,,,w_28051274,"shop=supermarket, brand=Grocery Outlet, operator=Sath Enterprises LLC"
"Gilroy, CA",,retail,445120,Country Store,"16390 Monterey Road, Morgan Hill, CA, 95037",,,37.1181314,-121.6455137,,,w_28073372,"shop=convenience, operator=The Saran Investments Incorporated"
"Gilroy, CA",,retail,445120,,"16995 Monterey Road, Morgan Hill, CA, 95037-5135",+1 408-782-7986,,37.1247869,-121.6503156,,,w_28073599,"shop=convenience, operator=Golden Eagle Gas LLC"
"Gilroy, CA",,retail,445120,76,"601 Leavesley Road, Gilroy, 95020",,,37.0236406,-121.5646153,,,w_28134431,"shop=convenience, brand=76"
"Gilroy, CA",,retail,445120,Shell,,,,37.0036985,-121.5516095,,,w_28206310,"shop=convenience, brand=Shell"
"Gilroy, CA",,retail,445120,ampm,,,,36.8616804,-121.4024407,,,w_28239314,"shop=convenience, brand=ampm"
"Gilroy, CA",,retail,445110,Los Cuates Meat Market,"220 San Felipe Road, Hollister, 95023-3018",,,36.8597144,-121.4021111,,,w_28239316,shop=supermarket
"Gilroy, CA",,retail,445120,Chevron,"7999 Westwood Drive, Gilroy, CA, 95020",,,37.013166,-121.5941813,,,w_28411737,"shop=convenience, brand=Chevron, operator=AM Fuel Services Incorporated"
"Gilroy, CA",,retail,445120,7-Eleven,"691 First Street, Gilroy, CA, 95020-5033",+1 408-842-3201,https://www.7-eleven.com/locations/ca/gilroy/691-first-st-14301,37.0138488,-121.5814336,,,w_28411762,"shop=convenience, brand=7-Eleven"
"Gilroy, CA",,retail,445120,7-Eleven,"162 West 10th Street, Gilroy, CA, 95020",+1 408-842-8648,https://www.7-eleven.com/locations/ca/gilroy/162-10th-st-16799,36.9995196,-121.567033,,,w_28510967,"shop=convenience, brand=7-Eleven"
"Gilroy, CA",,retail,445120,,,,,36.8397326,-121.3921606,,,w_28511127,"shop=convenience, operator=Chevron"
"Gilroy, CA",,retail,445120,7-Eleven,"915 San Benito Street, Hollister, CA, 95023-4840",+1 831-637-0850,https://www.7-eleven.com/locations/ca/hollister/915-san-benito-st-19600,36.8461207,-121.4017846,,,w_28511935,"shop=convenience, brand=7-Eleven"
"Gilroy, CA",,retail,453110,Precious Petals,,,,36.8473201,-121.4024814,,,w_28511982,shop=florist
"Gilroy, CA",,retail,445120,,,,,36.8569212,-121.4023917,,,w_28513852,"shop=convenience, brand=Quik Stop"
"Gilroy, CA",,retail,445310,Westside Liquors,,,,36.8532687,-121.4198613,,,w_28543121,shop=alcohol
"Gilroy, CA",,retail,445110,Nob Hill Foods,,,,36.8372762,-121.3913501,,,w_28543796,shop=supermarket
"Gilroy, CA",,retail,445120,Chevron,,,,37.1102955,-121.6408492,,,w_28659052,"shop=convenience, brand=Chevron"
"Gilroy, CA",,retail,445120,The Garlic Shoppe,,,,36.9622777,-121.5508305,,,w_28664175,shop=convenience
"Gilroy, CA",,retail,445310,Rapazzini Winery,,,http://rapazziniwinery.com/,36.9644707,-121.5511767,,,w_28664269,shop=alcohol
"Gilroy, CA",,retail,445120,Garlic World,,,,36.9714801,-121.5532326,,,w_28664338,shop=convenience
"Gilroy, CA",,retail,452210,Target,"1061 Cochrane Road, Morgan Hill, CA, 95037-9305",+1 408-310-4050,https://www.target.com/sl/morgan-hill/2252,37.1575306,-121.6545536,,,w_28714355,"shop=department_store, brand=Target"
"Gilroy, CA",,retail,445120,Cochrane Chevron,"851 Cochrane Road, Morgan Hill, CA, 95037",,,37.151535,-121.6554153,,,w_28714370,"shop=convenience, brand=Chevron, operator=Cochrane Company Brands Incorporated"
"Gilroy, CA",,retail,445120,ExtraMile,"5887 Monterey Road, Gilroy, CA, 95020",,,36.9844707,-121.5579342,,,w_28790351,"shop=convenience, brand=ExtraMile"
"Gilroy, CA",,retail,445120,Franco's Imports,"157 Old Gilroy Street, Gilroy, CA, 95020",,,37.0060993,-121.5661303,,,w_29056747,shop=convenience
"Gilroy, CA",,retail,445310,Righetti Liquors,"310 1st St, Hollister, 95023-3713",,,36.8558824,-121.4023594,,,w_29131461,shop=alcohol
"Gilroy, CA",,retail,445110,Trader Joe's,"17035 Laurel Road, Morgan Hill, CA, 95037",+1 408-778-6409,https://www.traderjoes.com/,37.1311833,-121.6382588,,,w_29688838,"shop=supermarket, brand=Trader Joe's"
"Gilroy, CA",,retail,445120,San Martin Market,,,,37.0857563,-121.6093867,,,w_30057626,shop=convenience
"Gilroy, CA",,retail,452210,Marshalls,"1664 Commercial Way, Santa Cruz, 95065",+1-831-462-2168,https://www.marshalls.com,36.986711,-121.9818186,,,w_34401879,"shop=department_store, brand=Marshalls"
"Gilroy, CA",,retail,445110,Whole Foods Market,"911 Soquel Avenue, Santa Cruz, CA, 95062",+1 831-426-9901,https://www.wholefoodsmarket.com/stores/santacruz,36.9789999,-122.0145707,,,w_34445819,"shop=supermarket, brand=Whole Foods Market"
"Gilroy, CA",,retail,445110,Safeway,"117 Morrissey Boulevard, Santa Cruz, CA, 95062",+1 831-426-7489,https://local.safeway.com/safeway/ca/santa-cruz/117-morrissey-blvd.html,36.9820995,-122.0075043,,,w_34569098,"shop=supermarket, brand=Safeway"
"Gilroy, CA",,retail,445110,Grocery Outlet,"120 Morrissey Boulevard, Santa Cruz, 95062",+1-831-425-6533,https://groceryoutlet.com/,36.9819987,-122.0058577,,,w_34569113,"shop=supermarket, brand=Grocery Outlet"
"Gilroy, CA",,retail,446110,Walgreens,"1718 Soquel Avenue, Santa Cruz, 95062",+1-831-425-3911,https://www.walgreens.com/locator/walgreens-1718+soquel+ave-santa+cruz-ca-95062/id=3158,36.9806697,-122.0020606,,,w_35127306,"shop=chemist, brand=Walgreens"
"Gilroy, CA",,retail,445110,Safeway,"2010 Freedom Boulevard, Freedom, CA, 95019-2834",+1 831-728-2640,https://local.safeway.com/safeway/ca/freedom/2010-freedom-blvd.html,36.9400788,-121.7754054,,,w_35263622,"shop=supermarket, brand=Safeway"
"Gilroy, CA",,retail,445120,7-Eleven,"1461 Main Street, Watsonville, CA, 95076",,https://www.7-eleven.com/locations/ca/watsonville/1461-main-street-32323,36.9165924,-121.7766243,,,w_35263862,"shop=convenience, brand=7-Eleven"
"Gilroy, CA",,retail,452210,Target,"3155 Silver Creek Road, San Jose, CA, 95121",+1 408-238-7800,https://www.target.com/sl/san-jose-east/2238,37.3072511,-121.81333,,,w_35677963,"shop=department_store, brand=Target"
"Gilroy, CA",,retail,446110,Walgreens,"1810 Freedom Boulevard, Freedom, CA, 95019",,https://www.walgreens.com/locator/walgreens-1810+freedom+blvd-freedom-ca-95019/id=2810,36.9350475,-121.7718153,,,w_36983019,"shop=chemist, brand=Walgreens"
"Gilroy, CA",,retail,445120,ExtraMile,"825 East Dunne Avenue, Morgan Hill, CA, 95037",,,37.1307811,-121.6367414,,,w_37079926,"shop=convenience, brand=ExtraMile, operator=Chevron Stations Incorporated"
"Gilroy, CA",,retail,452210,Kohl's,"890 Blossom Hill Road, San Jose, CA, 95123",+1 408-224-7010,https://www.kohls.com/stores/ca/sanjose-983.shtml,37.2485992,-121.8603973,,,w_38045025,"shop=department_store, brand=Kohl's"
"Gilroy, CA",,retail,452319,Dollar Tree,"4095 Evergreen Village Square, San Jose, 95135",,https://www.dollartree.com/locations/ca/san-jose/8281/,37.3145385,-121.773961,,,w_38882924,"shop=variety_store, brand=Dollar Tree"
"Gilroy, CA",,retail,445120,FastLane,,,,37.2513196,-121.8746951,,,w_39019746,shop=convenience
"Gilroy, CA",,retail,445120,ExtraMile,,,,36.9176294,-121.7805132,,,w_42117955,"shop=convenience, brand=ExtraMile"
"Gilroy, CA",,retail,445110,Casalegno's,,,,37.0327086,-121.9467332,,,w_42784694,shop=supermarket
"Gilroy, CA",,retail,445120,7-Eleven,"4630 Pearl Avenue, San Jose, CA, 95136",+1 408-265-6761,https://www.7-eleven.com/locations/ca/san-jose/4630-pearl-ave-14302,37.2648663,-121.865146,,,w_44198428,"shop=convenience, brand=7-Eleven"
"Gilroy, CA",,retail,445120,City Gas & Liquor,"23 San Benito Street, Hollister, CA, 95023-4014",,,36.8563074,-121.401557,,,w_46590889,shop=convenience
"Gilroy, CA",,retail,445120,Casa de 17,,,,37.133313,-121.9809653,,,w_47017026,shop=convenience
"Gilroy, CA",,retail,445110,Corralitos Market & Sausage Company,"569 Corralitos Road, 95076",,https://www.facebook.com/corralitosmarket,36.988531,-121.8072674,,,w_48778045,shop=supermarket
"Gilroy, CA",,retail,445120,Bradley's Store,CA,,,37.1076693,-121.7318757,,,w_48786989,shop=convenience
"Gilroy, CA",,retail,445110,Summit Store,"24197 Summit Road, Los Gatos, CA, 95033",+1 408-353-2186,,37.1204245,-121.9286434,,,w_49214680,shop=supermarket
"Gilroy, CA",,retail,445120,Village Market,,,,36.8468636,-121.3738823,,,w_53334529,shop=convenience
"Gilroy, CA",,retail,445120,,,,,36.9848756,-121.9902146,,,w_56716637,shop=convenience
"Gilroy, CA",,retail,445120,,,,,36.9847529,-121.9893441,,,w_56716643,shop=convenience
"Gilroy, CA",,retail,446120,Tranquility Day Spa,,,,36.8501707,-121.4029483,,,w_64889202,shop=beauty
"Gilroy, CA",,retail,445310,Silver Mountain Winery,,,,37.1103216,-121.9340646,,,w_66024881,shop=alcohol
"Gilroy, CA",,retail,445120,,"1300 4th Street, Hollister, CA, 95023-3437",,,36.8535324,-121.4216984,,,w_68514443,"shop=convenience, operator=Quik Stop"
"Gilroy, CA",,retail,445120,7-Eleven,"295 West Main Avenue, Morgan Hill, CA, 95037-4552",+1 408-779-4077,https://www.7-eleven.com/locations/ca/morgan-hill/295-west-main-ave-14306,37.1277002,-121.6601019,,,w_77691826,"shop=convenience, brand=7-Eleven"
"Gilroy, CA",,retail,445310,Pacheco's Liquor & Market,,,,36.8482046,-121.4018252,,,w_78136591,shop=alcohol
"Gilroy, CA",,retail,445120,Casa de Fruta Chevron,"10011 Pacheco Pass Highway, Hollister, CA, 95023",,,36.9904512,-121.3808373,,,w_78283658,"shop=convenience, brand=Chevron, operator=CDF Parkway LLC"
"Gilroy, CA",,retail,445120,,,,,36.853981,-121.4022571,,,w_85934228,"shop=convenience, operator=BMF Racing Co."
"Gilroy, CA",,retail,445120,Speedway Express,"1365 Kooser Road, San Jose, CA, 95118",,,37.2463406,-121.8879862,,,w_90760618,"shop=convenience, brand=Speedway Express, operator=N.M.S.O. Incorporated"
"Gilroy, CA",,retail,445110,Deluxe Foods,,,,36.974354,-121.8894939,,,w_97641479,shop=supermarket
"Gilroy, CA",,retail,445120,Chevron,"16455 Almaden Expressway, San Jose, 95120",,,37.2297193,-121.8712784,,,w_99135843,"shop=convenience, brand=Chevron"
"Gilroy, CA",,retail,445120,76,"7022 Santa Teresa Boulevard, San Jose, CA, 95139",,,37.2269954,-121.7759806,,,w_99656998,"shop=convenience, brand=76, operator=Apro, LLC"
"Gilroy, CA",,retail,445120,Casserly Store,,,,36.9759984,-121.7424182,,,w_114694862,shop=convenience
"Gilroy, CA",,retail,445120,7-Eleven,"1413 Kooser Road, San Jose, CA, 95118",+1 408-266-9539,https://www.7-eleven.com/locations/ca/san-jose/1413-kooser-rd-14255,37.2465056,-121.8908076,,,w_117226435,"shop=convenience, brand=7-Eleven"
"Gilroy, CA",,retail,445120,Safeway Convenience Store,"100 Tennant Avenue, Morgan Hill, CA, 95307",,,37.1127596,-121.6418723,,,w_137365586,"shop=convenience, brand=Safeway"
"Gilroy, CA",,retail,445120,ampm,"400 Leavesley Road, Gilroy, CA, 95020-3609",+1-408-842-5227,,37.0211518,-121.5685041,,,w_137584848,"shop=convenience, brand=ampm"
