Location,Search Keyword,Segment,NAICS Code,Business Name,Address,Phone Number,Website,Latitude,Longitude,Rating,User Ratings,Place ID,Types
"Sleepy Hollow, CA",,retail,445110,Trader Joe's,"5727 College Avenue, Oakland, CA, 94618",+1 510-923-9428,https://locations.traderjoes.com/ca/oakland/231/,37.8455422,-122.252612,,,n_212435197,"shop=supermarket, brand=Trader Joe's"
"Sleepy Hollow, CA",,retail,445120,Shattuck Market,"2441 Shattuck Avenue, Berkeley, CA, 94704",+1 510-703-0314,,37.8650305,-122.267112,,,n_286081303,shop=convenience
"Sleepy Hollow, CA",,retail,445110,Safeway,"298 King Street, San Francisco, CA, 94107",+1 415-633-1001,https://local.safeway.com/safeway/ca/san-francisco/298-king-st.html,37.7767776,-122.3940709,,,n_293632937,"shop=supermarket, brand=Safeway"
"Sleepy Hollow, CA",,retail,445120,7-Eleven,"1555 Lincoln Avenue, Alameda, CA, 94501",+1-510-865-4381,https://www.7-eleven.com/locations/ca/alameda/2301-lincoln-ave-24003,37.7673947,-122.242103,,,n_310973094,"shop=convenience, brand=7-Eleven"
"Sleepy Hollow, CA",,retail,445299,The Cheese Board Collective,"1504 Shattuck Avenue, Berkeley, CA, 94709",+1 510-549-3183,https://cheeseboardcollective.coop/,37.8799793,-122.2694793,,,n_314115470,shop=cheese
"Sleepy Hollow, CA",,retail,453991,Lucky 7,1525 Shattuck Avenue,,,37.8792818,-122.2689835,,,n_314115503,shop=tobacco
"Sleepy Hollow, CA",,retail,446120,Modena Salon,"Berkeley, CA, 94709",+1 510-524-9944,,37.8779763,-122.2692412,,,n_314115508,shop=beauty
"Sleepy Hollow, CA",,retail,445310,K&L Wine Merchants,"855 Harrison Street, San Francisco, CA, 94107",(415) 896-1734,https://www.klwines.com/,37.7795817,-122.4008528,,,n_317124818,shop=wine
"Sleepy Hollow, CA",,retail,445120,7Palms,Euclid Avenue,,,37.8759462,-122.2601951,,,n_318886219,shop=convenience
"Sleepy Hollow, CA",,retail,445110,Calmart,,,,37.786265,-122.4528047,,,n_332787306,shop=supermarket
"Sleepy Hollow, CA",,retail,445110,Trader Joe's,"225 El Cerrito Plaza, El Cerrito, CA, 94530",+1 510-524-7609,https://locations.traderjoes.com/ca/el-cerrito/108/,37.8988539,-122.2995747,,,n_343317788,"shop=supermarket, brand=Trader Joe's"
"Sleepy Hollow, CA",,retail,445292,Xocolate,"1709 Solano Avenue, 94707-2216",+1 510-525-9626,https://www.thexocolatebar.com,37.891347,-122.2823425,,,n_343610937,shop=chocolate
"Sleepy Hollow, CA",,retail,445310,Max's Liquors,,,,37.8904405,-122.2987584,,,n_343611000,shop=alcohol
"Sleepy Hollow, CA",,retail,445310,Solano Cellars,,+15105259463,https://www.solanocellars.com/,37.8909448,-122.2846981,,,n_343611044,shop=wine
"Sleepy Hollow, CA",,retail,453110,Orchid Florist,,,,37.891151,-122.280618,,,n_343611061,shop=florist
"Sleepy Hollow, CA",,retail,445120,Angel's Deli & Market,,,,37.7482363,-122.4336596,,,n_360462977,shop=convenience
"Sleepy Hollow, CA",,retail,445120,Modern Market,"1401 Church Street, San Francisco",,,37.7484143,-122.4269955,,,n_360463705,shop=convenience
"Sleepy Hollow, CA",,retail,446110,Chinese Medicine Works,,,,37.749733,-122.4315471,,,n_360950342,shop=chemist
"Sleepy Hollow, CA",,retail,445110,Trader Joe's,"3250 Lakeshore Avenue, Oakland, CA, 94610",+1 510-238-9076,https://locations.traderjoes.com/ca/oakland/203/,37.8099099,-122.2443754,,,n_363915431,"shop=supermarket, brand=Trader Joe's"
"Sleepy Hollow, CA",,retail,445120,The Den,,,,37.8669533,-122.2563906,,,n_366352409,shop=convenience
"Sleepy Hollow, CA",,retail,445120,Stinson Beach Market,,(415) 868-1923,http://www.stinsonbeachmarket.net/,37.8987196,-122.6399319,,,n_375960001,shop=convenience
"Sleepy Hollow, CA",,retail,445120,Star Market,689 Geary Street,,,37.7864444,-122.4146585,,,n_384359194,shop=convenience
"Sleepy Hollow, CA",,retail,445120,North Point Market,"3098 Polk Street, San Francisco",,,37.8052324,-122.4235144,,,n_387227570,shop=convenience
"Sleepy Hollow, CA",,retail,452210,Ross,"799 Market Street, San Francisco, CA, 94103",+1 415-957-9222,,37.7857172,-122.4055238,,,n_389391020,"shop=department_store, brand=Ross"
"Sleepy Hollow, CA",,retail,445110,Whole Foods Market,"399 4th Street, San Francisco, CA, 94107",+1 415-618-0066,https://www.wholefoodsmarket.com/stores/soma,37.7811499,-122.3997789,,,n_389404007,"shop=supermarket, brand=Whole Foods Market"
"Sleepy Hollow, CA",,retail,445110,Nature's Best Food,,,,37.8027213,-122.264995,,,n_410243509,shop=grocery
"Sleepy Hollow, CA",,retail,445310,Vino,"6319 College Avenue, Oakland, 94618",,https://vinoeastbay.com/,37.8506823,-122.2525651,,,n_412212695,shop=wine
"Sleepy Hollow, CA",,retail,445230,Yasai Market,,+15106554880,,37.8504283,-122.2525355,,,n_412212696,shop=greengrocer
"Sleepy Hollow, CA",,retail,446120,Felicia Gelardi Skin Care,,,,37.7999565,-122.4438742,,,n_416669140,shop=beauty
"Sleepy Hollow, CA",,retail,453110,Hani Ichi Flowers,,,,37.7999756,-122.4437361,,,n_416669340,shop=florist
"Sleepy Hollow, CA",,retail,446120,Flip Salon,2414 Chestnut Street,,,37.8000419,-122.4431635,,,n_416669853,shop=beauty
"Sleepy Hollow, CA",,retail,445310,United Liquor & Deli,"2401 Chestnut Street, San Francisco, CA",,,37.7998457,-122.4429997,,,n_416670014,shop=alcohol
"Sleepy Hollow, CA",,retail,446120,Nails n Beauty,"2385 Lombard Street, San Francisco, CA",,,37.7998973,-122.4425947,,,n_416670075,shop=beauty
"Sleepy Hollow, CA",,retail,453110,,,,,37.8002639,-122.4415005,,,n_416779636,shop=florist
"Sleepy Hollow, CA",,retail,445110,Marina Supermarket,"2323 Chestnut Street, San Francisco, CA",,,37.8000223,-122.4416127,,,n_416779714,shop=supermarket
"Sleepy Hollow, CA",,retail,453991,The Humidor,"2050 Chestnut Street, San Francisco",,,37.800788,-122.437428,,,n_416781959,shop=tobacco
"Sleepy Hollow, CA",,retail,446120,Ciao Bella Nail Salon,"2277 Chestnut Street, San Francisco, CA",,,37.8001445,-122.4407763,,,n_416783985,shop=beauty
"Sleepy Hollow, CA",,retail,446120,The New Nails,"2291 Chestnut Street, San Francisco, CA",,,37.8001322,-122.4408741,,,n_416784124,shop=beauty
"Sleepy Hollow, CA",,retail,445120,Marina Deli & Liquor,"2299 Chestnut Street, San Francisco, CA",,,37.8001107,-122.4410436,,,n_416784221,shop=convenience
"Sleepy Hollow, CA",,retail,445120,Cedar Market,"1601 California Street, Berkeley, CA",,,37.876869,-122.2803493,,,n_417709342,shop=convenience
"Sleepy Hollow, CA",,retail,445120,7 Up Town Market,,,,37.8062477,-122.274255,,,n_428114273,shop=convenience
"Sleepy Hollow, CA",,retail,445120,Smart Market,"1343 Martin Luther King Jr Way, Berkeley, CA",,,37.8817119,-122.2739556,,,n_435049430,shop=convenience
"Sleepy Hollow, CA",,retail,445210,Magnanis,"1576 Hopkins Street, Berkeley, CA",,,37.881639,-122.2817677,,,n_440605035,shop=butcher
"Sleepy Hollow, CA",,retail,453110,Freshly Cut,"1301 California Street, Berkeley, CA",,,37.881533,-122.2817836,,,n_440605057,shop=florist
"Sleepy Hollow, CA",,retail,445310,Healthy Spirits,"300 Valencia Street, San Francisco, CA, 94103",+1 415 341 0051,https://healthyspiritssf.com/,37.7680395,-122.4223506,,,n_442258118,shop=alcohol
"Sleepy Hollow, CA",,retail,445120,7-Eleven,"2887 College Avenue, Berkeley, CA, 94705-2113",+1 510-841-6291,https://www.7-eleven.com/locations/ca/berkeley/2887-college-ave-16192,37.858767,-122.253055,,,n_444644977,"shop=convenience, brand=7-Eleven"
"Sleepy Hollow, CA",,retail,453110,Ashby Flowers,,(510) 849-3121,https://www.ashbyflowers.com/,37.8560178,-122.25991,,,n_446235110,shop=florist
"Sleepy Hollow, CA",,retail,445310,Healthy Spirits,"1042 Clement Street, San Francisco, 94118",,http://healthy-spirits.blogspot.com,37.7828317,-122.4707224,,,n_448036304,shop=alcohol
"Sleepy Hollow, CA",,retail,445110,Mollie Stone's,4201 18th Street,(415) 255-8959,https://www.molliestones.com/,37.7606657,-122.436559,,,n_459504817,shop=supermarket
"Sleepy Hollow, CA",,retail,445110,99 Ranch Market,94804,+15107698899,https://www.99ranch.com/stores/richmond,37.8986536,-122.3071439,,,n_477131697,"shop=supermarket, brand=99 Ranch Market"
"Sleepy Hollow, CA",,retail,445120,E & M Market,"399 Valencia Street, San Francisco, 94103",,,37.76668,-122.4219156,,,n_497304181,shop=convenience
"Sleepy Hollow, CA",,retail,445120,Foodhall,"3100 16th Street, San Francisco, CA, 94103",,,37.7650583,-122.4220701,,,n_497304203,shop=convenience
"Sleepy Hollow, CA",,retail,445120,City Lee's Market,,(510) 981-1913,,37.8596252,-122.2718457,,,n_525851709,shop=convenience
"Sleepy Hollow, CA",,retail,445120,Fred's Liquor,200 Valencia Street,,,37.76976,-122.422503,,,n_527505796,shop=convenience
"Sleepy Hollow, CA",,retail,445120,K&D Market,,,,37.7646987,-122.4235801,,,n_529117813,shop=convenience
"Sleepy Hollow, CA",,retail,452210,Kohl's,"2201 South Shore Center, Alameda, CA, 94501",+1-510-263-0308,https://www.kohls.com/stores/ca/alameda-1324.shtml,37.7583943,-122.252605,,,n_533868356,"shop=department_store, brand=Kohl's"
"Sleepy Hollow, CA",,retail,445120,Annaher Grocery & Liquor,,+1 510-849-2502,,37.861241,-122.2893463,,,n_539155036,shop=convenience
"Sleepy Hollow, CA",,retail,445120,Sunbeam Market,1400 Adeline Street,,,37.809737,-122.2858454,,,n_558566895,shop=convenience
"Sleepy Hollow, CA",,retail,445120,Golden West Market,18th Street,,,37.8123138,-122.2843108,,,n_559822366,shop=convenience
"Sleepy Hollow, CA",,retail,445120,Good Life Grocery,1524 20th Street,+1-415-282-9204,https://www.goodlifegrocery.com/,37.7600939,-122.3968164,,,n_571457963,shop=convenience
"Sleepy Hollow, CA",,retail,445120,Harvest Market,"2285 Market Street, San Francisco, CA, 94114",,,37.764528,-122.432407,,,n_586704382,shop=convenience
"Sleepy Hollow, CA",,retail,445110,Raley's,"890 Southampton Road, Benicia, CA, 94510",707-746-1203,https://www.raleys.com/,38.0665187,-122.167967,,,n_598055156,"shop=supermarket, brand=Raley's"
"Sleepy Hollow, CA",,retail,452210,Target,"1400 Fitzgerald Drive, Pinole, CA, 94564-2250",+1 510-222-0558,https://www.target.com/sl/pinole/737,37.987691,-122.309059,,,n_599880223,"shop=department_store, brand=Target"
"Sleepy Hollow, CA",,retail,445110,JW & L Market,"1401 Stockton Street, San Francisco, CA",+1 415 3972668,,37.7986741,-122.4090015,,,n_612767884,shop=supermarket
"Sleepy Hollow, CA",,retail,445120,7-Eleven,"2000 Ocean Avenue, San Francisco, CA, 94127-2723",+1 415-584-7111,https://www.7-eleven.com/locations/ca/san-francisco/2000-ocean-ave-20643,37.7265162,-122.4645819,,,n_615143634,"shop=convenience, brand=7-Eleven"
"Sleepy Hollow, CA",,retail,446120,Sugarcoat Salon,"619 Post Street, San Francisco",+1 415 4411868,,37.7877235,-122.4120922,,,n_621793515,shop=beauty
"Sleepy Hollow, CA",,retail,445310,King Liquor,"693 Post Street, San Francisco",,,37.7875731,-122.4132116,,,n_621793543,shop=alcohol
"Sleepy Hollow, CA",,retail,445120,Mason Liquor & Deli,530 Mason Street,415-856-8976,,37.7886224,-122.4100569,,,n_621818319,shop=convenience
"Sleepy Hollow, CA",,retail,445120,MMC Wine & Spirit,"615 Sutter Street, San Francisco",415-474-4951,,37.7888877,-122.4105878,,,n_621851566,"shop=convenience, amenity=atm"
"Sleepy Hollow, CA",,retail,445230,West Portal Produce Market,"222 West Portal Avenue, San Francisco, CA, 94127",,,37.7387041,-122.4684835,,,n_632815535,shop=greengrocer
"Sleepy Hollow, CA",,retail,445310,Binu Bonu,"230 West Portal Avenue, San Francisco, CA, 94127",,,37.7386468,-122.4685481,,,n_632817679,"shop=wine, amenity=bar"
"Sleepy Hollow, CA",,retail,445120,Haight Fillmore Whole Foods Co.,"501 Haight Street, 94117",+1 415-552-6077,,37.7719921,-122.4305641,,,n_647656834,shop=convenience
"Sleepy Hollow, CA",,retail,453110,Solano Florist,"1877 Solano Avenue, Berkeley, CA",,https://www.solanoflorist.net/,37.8915947,-122.2779081,,,n_650083258,shop=florist
"Sleepy Hollow, CA",,retail,445110,Star Grocery,"3068 Claremont Avenue, Berkeley",+1 510-652-2490,https://m.facebook.com/stargroceryberkeley/,37.8547256,-122.2482299,,,n_661753960,shop=supermarket
"Sleepy Hollow, CA",,retail,445120,7-Eleven,"5741 Thornhill Drive, Oakland, CA, 94611-2144",+1 510-339-9123,https://www.7-eleven.com/locations/ca/oakland/5741-thornhill-dr-14170,37.8346561,-122.2124927,,,n_661906871,"shop=convenience, brand=7-Eleven"
"Sleepy Hollow, CA",,retail,445110,Safeway,"50 Solano Square, Benicia, CA, 94510",+1 707-745-4047,https://local.safeway.com/safeway/ca/benicia/50-solano-sq.html,38.0547702,-122.15572,,,n_698082170,"shop=supermarket, brand=Safeway, operator=Safeway"
"Sleepy Hollow, CA",,retail,446120,Crystal Spa,"577 Geary Street, San Francisco, CA",+1 415-829-7553,,37.7866814,-122.4127614,,,n_709858563,shop=beauty
"Sleepy Hollow, CA",,retail,445210,Wayland's Meat,,+1-510-530-3344,,37.7996971,-122.2165975,,,n_712646128,shop=butcher
"Sleepy Hollow, CA",,retail,445120,Sea Bee Liquors,"3000 Taraval Street, San Francisco, CA",+1 (415) 731-2373,,37.742187,-122.4983446,,,n_718375843,shop=convenience
"Sleepy Hollow, CA",,retail,445120,Amity Market,"3350 Taraval Street, San Francisco, CA",14157314500,,37.7420078,-122.5023245,,,n_724824664,shop=convenience
"Sleepy Hollow, CA",,retail,445120,Nick's Liquors,,,,37.8173328,-122.283537,,,n_728301693,shop=convenience
"Sleepy Hollow, CA",,retail,445120,Eureka Market,4151 17th Street,,,37.7621857,-122.4385594,,,n_734841519,"shop=convenience, amenity=atm"
"Sleepy Hollow, CA",,retail,445110,Trader Joe's,"265 Winston Drive, San Francisco, CA, 94132",+1 415-665-1835,https://locations.traderjoes.com/ca/san-francisco/236/,37.7265935,-122.4762074,,,n_761762694,"shop=supermarket, brand=Trader Joe's"
"Sleepy Hollow, CA",,retail,445110,Trader Joe's,"1885 University Avenue, Berkeley, CA, 94703",+1 510-204-9074,https://locations.traderjoes.com/ca/berkeley/186/,37.8717025,-122.2732154,,,n_775881481,"shop=supermarket, brand=Trader Joe's"
"Sleepy Hollow, CA",,retail,445120,Deena's Market,600 O'Farrell Street,+1 415-931-4647,,37.7856885,-122.4147799,,,n_830588349,shop=convenience
"Sleepy Hollow, CA",,retail,445110,Starco Mart,,,,37.7786169,-122.4088465,,,n_904141569,shop=grocery
"Sleepy Hollow, CA",,retail,445110,Milan Indian Grocery,9th Street,,,37.8683448,-122.29451,,,n_910883477,shop=supermarket
"Sleepy Hollow, CA",,retail,445110,Mi Tierra,San Pablo Avenue,+15105408946,,37.8679107,-122.2919929,,,n_910883497,shop=supermarket
"Sleepy Hollow, CA",,retail,453110,,,,,37.8235144,-122.2070892,,,n_957441753,shop=florist
"Sleepy Hollow, CA",,retail,445120,Arlington Market,94805,+15102369620,,37.9402357,-122.3106539,,,n_981839188,shop=convenience
"Sleepy Hollow, CA",,retail,445110,Colusa Market,406 Colusa Avenue,+15105277035,,37.8992663,-122.286681,,,n_992416904,shop=supermarket
"Sleepy Hollow, CA",,retail,445310,BevMo!,"1301 Van Ness Avenue, San Francisco, CA",,,37.7876786,-122.4220492,,,n_1002186184,"shop=alcohol, brand=BevMo!"
"Sleepy Hollow, CA",,retail,445110,Whole Foods Market,"1765 California Street, San Francisco, CA, 94109",+1 415-674-0500,https://www.wholefoodsmarket.com/stores/franklin,37.7900899,-122.4234142,,,n_1002186270,"shop=supermarket, brand=Whole Foods Market"
"Sleepy Hollow, CA",,retail,445120,Bevbox Market & Liquor,"1585 Madison Street, Oakland, 94612",,,37.8040509,-122.262678,,,n_1037993306,shop=convenience
"Sleepy Hollow, CA",,retail,445110,Nugget Markets,"5627 Paradise Drive, Corte Madera, CA, 94925",415-945-8855,https://www.nuggetmarket.com/locations/corte-madera/,37.919027,-122.5075218,,,n_1053535666,shop=supermarket
"Sleepy Hollow, CA",,retail,446120,Sephora,,,,37.9271644,-122.5167145,,,n_1053536948,"shop=cosmetics, brand=Sephora"
"Sleepy Hollow, CA",,retail,452210,Kohl's,"5010 Northgate Drive, San Rafael, CA, 94903",+1 415-507-9707,https://www.kohls.com/stores/ca/sanrafael-1379.shtml,38.0038554,-122.5458012,,,n_1053609171,"shop=department_store, brand=Kohl's, operator=Kohl's"
"Sleepy Hollow, CA",,retail,452210,Macy's,,,https://www.macys.com/stores/ca/sanrafael/northgate_327.html,38.0047204,-122.5435471,,,n_1053612077,"shop=department_store, brand=Macy's"
"Sleepy Hollow, CA",,retail,445120,1001 Castro Street,"1001 Castro Street, San Francisco, CA",,,37.7535913,-122.4341333,,,n_1060956195,shop=convenience
"Sleepy Hollow, CA",,retail,445120,Gourmet Market,,,,37.8043229,-122.2639785,,,n_1068441480,shop=convenience
"Sleepy Hollow, CA",,retail,445120,J & W Market,,,,37.7911541,-122.407672,,,n_1073821273,shop=convenience
"Sleepy Hollow, CA",,retail,445120,EM Deli & Catering,,+1-510-834-3651,https://emdelicatering.com/,37.8266034,-122.210125,,,n_1097204393,shop=convenience
"Sleepy Hollow, CA",,retail,445292,Le Bonbon,,,,37.8266696,-122.2093748,,,n_1097204458,shop=confectionery
"Sleepy Hollow, CA",,retail,445120,Sunrise Market,684 Haight Street,,,37.7718315,-122.4335053,,,n_1126947956,shop=convenience
"Sleepy Hollow, CA",,retail,445120,S & W market,399 Haight Street,,,37.7722466,-122.4286694,,,n_1126948195,shop=convenience
"Sleepy Hollow, CA",,retail,445120,Himalaya Playa / O'Looney's,Haight Street,,,37.7720318,-122.4318431,,,n_1126948245,shop=convenience
"Sleepy Hollow, CA",,retail,445310,Arlequin Wine Merchant,"372 Hayes Street, 94102",,https://www.arlequinwinemerchant.com/,37.7770321,-122.4225541,,,n_1127135639,"shop=wine, operator=Absinthe Group"
"Sleepy Hollow, CA",,retail,446120,Kala salon,"2008 Kala Bagai Way, Berkeley, CA, 94704",5107758040,,37.8717854,-122.2679462,,,n_1140526006,shop=beauty
"Sleepy Hollow, CA",,retail,445110,Lucky,,,,37.9904404,-122.302537,,,n_1140673872,"shop=supermarket, brand=Lucky"
"Sleepy Hollow, CA",,retail,445110,Grocery Outlet,,,,37.9902136,-122.308104,,,n_1140673927,"shop=supermarket, brand=Grocery Outlet"
"Sleepy Hollow, CA",,retail,445120,7-Eleven,"3080 San Jose Avenue, San Francisco, CA, 94112-3933",+1 650-994-9200,https://www.7-eleven.com/locations/ca/san-francisco/3080-san-jose-ave-23342,37.7098206,-122.4578886,,,n_1172744459,"shop=convenience, brand=7-Eleven"
"Sleepy Hollow, CA",,retail,445230,Mandela Grocery Cooperative,1430 7th Street,,https://www.mandelagrocery.coop/,37.8053283,-122.2941997,,,n_1186333561,shop=greengrocer
"Sleepy Hollow, CA",,retail,445120,,,,,37.9359504,-122.3689719,,,n_1195038546,shop=convenience
"Sleepy Hollow, CA",,retail,445120,j&s market,,,,37.9339472,-122.369097,,,n_1195042430,shop=convenience
"Sleepy Hollow, CA",,retail,445110,Super Save,,,,37.7367631,-122.3897193,,,n_1205120785,shop=supermarket
"Sleepy Hollow, CA",,retail,445110,Trader Joe's,"555 9th Street, San Francisco, CA, 94103",+1 415-863-1292,https://locations.traderjoes.com/ca/san-francisco/78/,37.7709988,-122.4077368,,,n_1213823254,"shop=supermarket, brand=Trader Joe's"
"Sleepy Hollow, CA",,retail,445230,Aguila de Oro,,,,37.7306288,-122.3920322,,,n_1221102760,shop=greengrocer
"Sleepy Hollow, CA",,retail,445110,Lucky,"3801 3rd Street, San Francisco, CA, 94124",,https://www.luckysupermarkets.com/bayview,37.7418624,-122.387192,,,n_1221413899,"shop=supermarket, brand=Lucky, operator=Lucky"
"Sleepy Hollow, CA",,retail,445120,,,,,37.7213718,-122.3914266,,,n_1229704788,shop=convenience
"Sleepy Hollow, CA",,retail,445120,7-Eleven,"2200 Bayshore Boulevard, San Francisco, CA, 94134-2348",+1 415-468-8646,https://www.7-eleven.com/locations/ca/san-francisco/2200-bayshore-blvd-21389,37.7123845,-122.4032164,,,n_1229779251,"shop=convenience, brand=7-Eleven"
"Sleepy Hollow, CA",,retail,445120,,,,,37.707757,-122.4551252,,,n_1229920627,shop=convenience
"Sleepy Hollow, CA",,retail,446110,Walgreens,"2494 San Bruno Avenue, San Francisco, CA, 94134",,https://www.walgreens.com/locator/walgreens-2494+san+bruno+ave-san+francisco-ca-94134/id=1626,37.7301338,-122.4048244,,,n_1230343390,"shop=chemist, brand=Walgreens"
"Sleepy Hollow, CA",,retail,445120,Tierra Santa Market,,,,37.7253138,-122.4028091,,,n_1230343414,shop=convenience
"Sleepy Hollow, CA",,retail,445120,Food Mart,,,,37.7320804,-122.4059665,,,n_1230343494,shop=convenience
"Sleepy Hollow, CA",,retail,445310,The Wine Mine,,,,37.8398397,-122.2624402,,,n_1232879234,shop=alcohol
"Sleepy Hollow, CA",,retail,445310,ASA Liquor Store,,,,37.8439529,-122.2753274,,,n_1237031710,shop=alcohol
"Sleepy Hollow, CA",,retail,445310,Starr Spirits,"499 Monterey Boulevard, San Francisco, CA, 94127",,,37.7313909,-122.446443,,,n_1238299664,shop=alcohol
"Sleepy Hollow, CA",,retail,445120,Hillcrest Market,,,,37.7289174,-122.4196089,,,n_1241673415,shop=convenience
"Sleepy Hollow, CA",,retail,445120,,4900 3rd Street,,,37.733976,-122.3912081,,,n_1241690521,shop=convenience
"Sleepy Hollow, CA",,retail,445120,Tazah Market,"2207 MacArthur Boulevard, Oakland, CA, 94602",510-531-9000,,37.8001844,-122.2159367,,,n_1244729027,shop=convenience
"Sleepy Hollow, CA",,retail,445120,25th and Clement Produce and Market,,,,37.7821273,-122.4847278,,,n_1277999546,shop=convenience
"Sleepy Hollow, CA",,retail,445110,Gateway Grocery,,,,37.8423296,-122.283254,,,n_1305397495,shop=supermarket
"Sleepy Hollow, CA",,retail,445310,Gateway Liquor,,,,37.8429762,-122.2835191,,,n_1305397507,shop=alcohol
"Sleepy Hollow, CA",,retail,445310,Scribe,"2300 Napa Road, Sonoma, 95476",,,38.2762673,-122.4153287,,,n_1316301025,shop=wine
"Sleepy Hollow, CA",,retail,445120,KD's Grog and Groceries,2416 Market Street,,,37.7627241,-122.4356465,,,n_1319206689,shop=convenience
"Sleepy Hollow, CA",,retail,445310,Flatiron Wines & Spirits,,,,37.7879266,-122.4012999,,,n_1320562890,shop=alcohol
"Sleepy Hollow, CA",,retail,445120,ExtraMile,,,,37.9958498,-122.2852402,,,n_1321091248,"shop=convenience, brand=ExtraMile"
"Sleepy Hollow, CA",,retail,445120,7-Eleven,"2601 Telegraph Avenue, Berkeley, CA, 94704",+1 510-841-8248,https://www.7-eleven.com/locations/ca/berkeley/2601-telegraph-ave-17582,37.8630178,-122.258423,,,n_1349552622,"shop=convenience, brand=7-Eleven"
"Sleepy Hollow, CA",,retail,445110,Le Beau Market,"1263 Leavenworth Street, 94109",4158853030,https://www.lebeaumarket.com/,37.7928844,-122.416234,,,n_1350484814,shop=supermarket
"Sleepy Hollow, CA",,retail,445120,7-Eleven,"7022 Stockton Avenue, El Cerrito, CA, 94530",+1 510-526-2524,https://www.7-eleven.com/locations/ca/el-cerrito/7022-stockton-ave-14192,37.9102342,-122.299513,,,n_1375234287,"shop=convenience, brand=7-Eleven"
"Sleepy Hollow, CA",,retail,446120,Fingertips,"1309 Sutter Street, San Francisco",+1 415-567-2092,,37.7873951,-122.4221744,,,n_1376212306,shop=beauty
"Sleepy Hollow, CA",,retail,445120,Oasis Food Market,,,,37.8198916,-122.26717,,,n_1377034082,shop=convenience
"Sleepy Hollow, CA",,retail,445110,Lakeshore Natural Foods,,+1-510-452-1079,https://lakeshorenatural.com/,37.8109894,-122.2439078,,,n_1378041461,shop=supermarket
"Sleepy Hollow, CA",,retail,445120,Happy Times Discount Shop,"2882 Telegraph Avenue, 94609",,,37.8180313,-122.267258,,,n_1388233468,shop=convenience
"Sleepy Hollow, CA",,retail,445310,GNG Liquors,,,,37.7833384,-122.4074933,,,n_1393986242,shop=beverages
"Sleepy Hollow, CA",,retail,453991,New City Plus Discount Shop,,,,37.8191146,-122.2669747,,,n_1395340513,shop=tobacco
"Sleepy Hollow, CA",,retail,453110,Flowers for Joy,,,,37.8082873,-122.2662418,,,n_1421088346,shop=florist
"Sleepy Hollow, CA",,retail,445120,7-Eleven,"3400 Mission Street, San Francisco, CA, 94110",+1 415-695-7711,https://www.7-eleven.com/locations/ca/san-francisco/3400-mission-st-39475,37.7421503,-122.4226138,,,n_1431426728,"shop=convenience, brand=7-Eleven"
"Sleepy Hollow, CA",,retail,445299,Cowgirl Creamery,,,,38.0681541,-122.807124,,,n_1437562644,shop=cheese
"Sleepy Hollow, CA",,retail,453110,L.V. Flowers,"8295 Old Redwood Highway, Cotati, CA, 94931",+1-707-794-9575,https://shoplvflowers.com,38.3248594,-122.7050636,,,n_1440595756,shop=florist
"Sleepy Hollow, CA",,retail,445310,Val de Cole Wines and Spirits,"906 Cole Street, San Francisco, CA, 94117",,,37.7655948,-122.4497632,,,n_1446653714,shop=alcohol
"Sleepy Hollow, CA",,retail,445292,See's Candies,"542 Market Street, San Francisco, CA, 94104",+1-415-362-1593,https://chocolateshops.sees.com/ca/sanfrancisco/chocolate_shops_san-francisco_ca_2ca047.html,37.7900899,-122.4006879,,,n_1454070929,"shop=confectionery, brand=See's Candies"
"Sleepy Hollow, CA",,retail,445110,Oliver's Market,"540 East Cotati Avenue, Cotati",,,38.3279016,-122.6983501,,,n_1455515190,shop=supermarket
"Sleepy Hollow, CA",,retail,452210,Ross,"Rohnert Park, CA, 94928",+1 707-585-3759,,38.3459738,-122.7063009,,,n_1458396305,"shop=department_store, brand=Ross"
"Sleepy Hollow, CA",,retail,445110,Bi-Rite Market,"2140 Polk Street, San Francisco, CA, 94109",+1-415-278-7800,https://biritemarket.com/,37.7965466,-122.4217072,,,n_1478520948,shop=supermarket
"Sleepy Hollow, CA",,retail,445120,Grant Mini Market,517 Bush Street,,,37.7904053,-122.4060032,,,n_1485975789,shop=convenience
"Sleepy Hollow, CA",,retail,445120,Food Fair Market Liquors,611 Bush Street,,,37.7902181,-122.4074048,,,n_1485988190,shop=convenience
"Sleepy Hollow, CA",,retail,445120,Bush Market,"820 Bush Street, San Francisco, CA, 94108",,,37.7900177,-122.410859,,,n_1486016637,shop=convenience
"Sleepy Hollow, CA",,retail,445310,Cottage Market Liquors,"798 Bush Street, San Francisco, CA, 94108",,,37.7900765,-122.410319,,,n_1486017176,shop=alcohol
"Sleepy Hollow, CA",,retail,445120,7-Eleven,"527 Sutter Street, San Francisco, CA, 94102",+1 415-398-5315,https://www.7-eleven.com/locations/ca/san-francisco/527-sutter-st-34977,37.7890489,-122.4090986,,,n_1486057725,"shop=convenience, brand=7-Eleven"
"Sleepy Hollow, CA",,retail,445210,Gateway Grocery Butcher,,,,37.842384,-122.2832671,,,n_1489304780,shop=butcher
"Sleepy Hollow, CA",,retail,445120,Jinny Beauty Supply,,,,37.8418278,-122.2831409,,,n_1489676337,shop=convenience
"Sleepy Hollow, CA",,retail,446120,Tips to Toes,,,,37.8380763,-122.2819475,,,n_1489746301,shop=beauty
"Sleepy Hollow, CA",,retail,445120,Emeryville Market,,+15102509053,,37.8341276,-122.280665,,,n_1490111108,shop=convenience
"Sleepy Hollow, CA",,retail,453110,Showers of Flowers,,,,37.829857,-122.2793082,,,n_1491017875,shop=florist
"Sleepy Hollow, CA",,retail,452210,Marshalls,"Emeryville, CA",,,37.8377648,-122.295315,,,n_1491021191,"shop=department_store, brand=Marshalls"
"Sleepy Hollow, CA",,retail,445310,BevMo!,"Emeryville, CA",,,37.8358415,-122.293462,,,n_1491021192,"shop=alcohol, brand=BevMo!"
"Sleepy Hollow, CA",,retail,446120,Lush,,,,37.8356387,-122.29247,,,n_1491094172,"shop=cosmetics, brand=Lush"
"Sleepy Hollow, CA",,retail,446120,Beauty Source Unlimited,,,,37.8365507,-122.2950952,,,n_1491645164,shop=beauty
"Sleepy Hollow, CA",,retail,446120,Central Nail Spa,"Emeryville, CA",,,37.8360974,-122.293346,,,n_1491645167,shop=beauty
"Sleepy Hollow, CA",,retail,452210,Ross,"5733 Christie Avenue, Emeryville, CA, 94608",+1 510-450-0183,,37.8356864,-122.294435,,,n_1491645220,"shop=department_store, brand=Ross"
"Sleepy Hollow, CA",,retail,452319,Daiso Japan,"Emeryville, CA",,,37.8356949,-122.293727,,,n_1491645221,"shop=variety_store, brand=Daiso"
"Sleepy Hollow, CA",,retail,453110,The Petaler,773 14th Street,,,37.7675452,-122.4305136,,,n_1511735164,shop=florist
"Sleepy Hollow, CA",,retail,445230,Courtney's Produce,101 Castro Street,,,37.767252,-122.4354725,,,n_1512000860,shop=greengrocer
"Sleepy Hollow, CA",,retail,445310,S & A Liquor,98 1/2 Sanchez Street,,,37.767701,-122.4313657,,,n_1514747746,shop=alcohol
"Sleepy Hollow, CA",,retail,445120,Dollars Market,,,,37.8421587,-122.2861615,,,n_1515933541,shop=convenience
"Sleepy Hollow, CA",,retail,445310,Premier Gru Wines,,,,37.8402757,-122.2944683,,,n_1515973580,shop=alcohol
"Sleepy Hollow, CA",,retail,452319,Daiso Japan,"7000 El Cerrito Plaza, El Cerrito, CA, 94530",,,37.899375,-122.301617,,,n_1529100862,"shop=variety_store, brand=Daiso"
"Sleepy Hollow, CA",,retail,445310,Tip Top Liquor and Deli,"3012 San Pablo Avenue, Berkeley, CA, 94702",,,37.8515905,-122.2867258,,,n_1531384699,shop=alcohol
"Sleepy Hollow, CA",,retail,445120,,"8492 Gravenstein Hwy, 94931",,,38.3314541,-122.7163478,,,n_1543286975,shop=convenience
"Sleepy Hollow, CA",,retail,445310,BevMo!,,,,37.7960108,-122.2790131,,,n_1556168730,"shop=alcohol, brand=BevMo!"
"Sleepy Hollow, CA",,retail,445120,7-Eleven,"11 Serravista Avenue, Daly City, CA, 94015",+1 650-878-9212,https://www.7-eleven.com/locations/ca/daly-city/11-serravista-ave-17908,37.6637017,-122.4686086,,,n_1573722791,"shop=convenience, brand=7-Eleven"
"Sleepy Hollow, CA",,retail,445120,65th Street Market,"6444 San Pablo Avenue, CA",,,37.8479731,-122.2851336,,,n_1612642986,shop=convenience
"Sleepy Hollow, CA",,retail,452210,Target,"4500 Macdonald Avenue, Richmond, CA, 94805-2307",+1 510-253-1000,https://www.target.com/sl/richmond/1507,37.9321318,-122.3279758,,,n_1630431886,"shop=department_store, brand=Target"
"Sleepy Hollow, CA",,retail,445110,Raley's,,,,38.2483898,-122.6285402,,,n_1640374730,"shop=supermarket, brand=Raley's"
"Sleepy Hollow, CA",,retail,445310,Healthy Spirits,"249 Cortland Avenue, San Francisco, CA, 94110",,,37.7394614,-122.4186904,,,n_1656944970,shop=alcohol
"Sleepy Hollow, CA",,retail,445120,Zara Supermarket Halal Meat and Grocery,"1920 San Pablo Avenue, Berkeley, CA, 94710",,,37.8699451,-122.2926427,,,n_1669812484,shop=convenience
"Sleepy Hollow, CA",,retail,446120,Judy Hair and Nails,"1112 University Avenue, Berkeley, CA, 94702",,,37.8690341,-122.2912954,,,n_1671198515,shop=beauty
"Sleepy Hollow, CA",,retail,445310,O'Farrell Liquors,405 O'Farrell Street,,,37.7858913,-122.4114666,,,n_1699076112,shop=alcohol
"Sleepy Hollow, CA",,retail,445210,The Local Butcher Shop,"1600 Shattuck Avenue, Berkeley, CA, 94709",+1 510 8456328,https://thelocalbutchershop.com/,37.8782363,-122.2696639,,,n_1706578055,shop=butcher
"Sleepy Hollow, CA",,retail,445110,Lucky,"1750 Fulton Street, San Francisco, CA, 94117",,,37.7761053,-122.4459793,,,n_1706618868,"shop=supermarket, brand=Lucky"
"Sleepy Hollow, CA",,retail,446120,Mani-Pedi Spa,"4106 24th Street, San Francisco",,,37.7513698,-122.434411,,,n_1713269540,shop=beauty
"Sleepy Hollow, CA",,retail,445310,St. Clair's Wine & Liquor,"3900 24th Street, San Francisco",,,37.7516395,-122.4298231,,,n_1713269577,shop=alcohol
"Sleepy Hollow, CA",,retail,445120,Shufat Market,"3807 24th Street, San Francisco",,,37.7515955,-122.4276745,,,n_1713269600,shop=convenience
"Sleepy Hollow, CA",,retail,445310,Noe Valley Wine & Spirits,"3821 24th Street, San Francisco",,,37.7515697,-122.4279801,,,n_1713269631,shop=alcohol
"Sleepy Hollow, CA",,retail,445120,7-Eleven,"1388 46th Avenue, San Francisco, CA, 94122-1113",+1 415-661-5577,https://www.7-eleven.com/locations/ca/san-francisco/1388-46th-ave-20450,37.7606933,-122.5057598,,,n_1743528308,"shop=convenience, brand=7-Eleven"
"Sleepy Hollow, CA",,retail,445110,Mollie Stone's,270 Bon Air Center,,,37.9457131,-122.5242641,,,n_1746210514,shop=supermarket
"Sleepy Hollow, CA",,retail,452210,Target,"100 Westlake Center, Daly City, CA, 94015-1407",+1 415-466-0506,https://www.target.com/sl/daly-city-westlake/3353,37.7012136,-122.484215,,,n_1747594982,"shop=department_store, brand=Target"
"Sleepy Hollow, CA",,retail,446110,Walgreens,,,https://www.walgreens.com/locator/walgreens-216+westlake+ctr-daly+city-ca-94015/id=324,37.7008346,-122.48406,,,n_1747594985,"shop=chemist, brand=Walgreens"
"Sleepy Hollow, CA",,retail,445120,Genki Crepes & Mini Mart,"330 Clement Street, San Francisco, 94118",+1 415 379 6414,,37.7831431,-122.4628435,,,n_1769223516,shop=convenience
"Sleepy Hollow, CA",,retail,445310,BevMo!,,+1 510 525-9582,https://www.bevmo.com/stores/albany,37.891091,-122.2995457,,,n_1779546073,"shop=alcohol, brand=BevMo!"
"Sleepy Hollow, CA",,retail,445110,Woodland Market,,,,37.8751977,-122.4598234,,,n_1779680166,shop=supermarket
"Sleepy Hollow, CA",,retail,445310,Vino!,"Berkeley, CA",,,37.8701735,-122.3011142,,,n_1798864786,shop=wine
"Sleepy Hollow, CA",,retail,445120,Best Food,,,,37.7975226,-122.4084387,,,n_1823917069,shop=convenience
"Sleepy Hollow, CA",,retail,445310,Sebastiani Vineyards and Winery,"389 Fourth Street East, Sonoma, 95476",+1 707 933 3230,,38.293364,-122.449264,,,n_1834642932,shop=alcohol
"Sleepy Hollow, CA",,retail,445120,Go Go Market & Deli,,,,37.7764144,-122.414717,,,n_1837284133,shop=convenience
"Sleepy Hollow, CA",,retail,445120,Jai Ho Indian Grocery Store,"1462 Fillmore Street, 94115",+1 415-567-1070,,37.7831231,-122.4322615,,,n_1854749247,shop=convenience
"Sleepy Hollow, CA",,retail,445120,Chevron,,,,38.0949246,-122.2288446,,,n_1861486372,"shop=convenience, brand=Chevron"
"Sleepy Hollow, CA",,retail,445120,Ben's Food & Liquor,,,,38.0946002,-122.2281094,,,n_1861493139,shop=convenience
"Sleepy Hollow, CA",,retail,452210,dd's Discounts,,,,38.1040392,-122.2307137,,,n_1861502515,"shop=department_store, brand=dd's Discounts"
"Sleepy Hollow, CA",,retail,445110,Cardenas,,,,38.1038261,-122.231081,,,n_1861502536,"shop=supermarket, brand=Cardenas"
"Sleepy Hollow, CA",,retail,446120,Orchid Nails and Spa,,,,38.1049112,-122.2311349,,,n_1862633028,shop=beauty
"Sleepy Hollow, CA",,retail,445120,Cigarettes 4 Less,,,,38.1048239,-122.2310622,,,n_1862633074,shop=convenience
"Sleepy Hollow, CA",,retail,445120,Diana Market #2,282 9th Street,,,37.7739007,-122.4120484,,,n_1880217801,shop=convenience
"Sleepy Hollow, CA",,retail,445120,,,,,37.8816698,-122.5250825,,,n_1901843089,shop=convenience
"Sleepy Hollow, CA",,retail,445120,Yogi Food Market,"908 Sutter Street, San Francisco, CA",,,37.7884667,-122.4154843,,,n_1901868627,shop=convenience
"Sleepy Hollow, CA",,retail,445110,Whole Foods Market,"790 De Long Avenue, Novato, CA, 94945",+1 415-878-0455,https://www.wholefoodsmarket.com/stores/novato,38.1058658,-122.566106,,,n_1908427786,"shop=supermarket, brand=Whole Foods Market"
"Sleepy Hollow, CA",,retail,445110,Whole Foods Market,"1150 Ocean Avenue, San Francisco, CA, 94112",+1 415-333-7400,https://www.wholefoodsmarket.com/stores/ocean,37.7237981,-122.4546813,,,n_1924130352,"shop=supermarket, brand=Whole Foods Market"
"Sleepy Hollow, CA",,retail,445110,Fairfax Market,2040 Sir Francis Drake Boulevard,,,37.9883736,-122.590597,,,n_1937575078,shop=supermarket
"Sleepy Hollow, CA",,retail,445110,United Market,"100 Red Hill Avenue, 94960",,https://www.unitedmarkets.com/,37.9769358,-122.5534189,,,n_1937605734,shop=supermarket
"Sleepy Hollow, CA",,retail,445120,Shell,,,,37.970825,-122.520772,,,n_1937623298,"shop=convenience, brand=Shell"
"Sleepy Hollow, CA",,retail,453110,Sumito's Floral Design,,,,37.8761961,-122.2690865,,,n_1944790708,shop=florist
"Sleepy Hollow, CA",,retail,445120,Church Street Groceteria,"300 Church Street, San Francisco, CA, 94114",,,37.7660309,-122.4289792,,,n_1960941273,shop=convenience
"Sleepy Hollow, CA",,retail,446110,Walgreens,"498 Castro Street, San Francisco, CA, 94114",+1 (415) 861-3136,https://www.walgreens.com/locator/walgreens-498+castro+st-san+francisco-ca-94114/id=1327,37.7610102,-122.435204,,,n_1966301828,"shop=chemist, brand=Walgreens"
"Sleepy Hollow, CA",,retail,445120,Transfer Market,"861 Divisadero Street, San Francisco, CA, 94117",+1 415-346-3031,,37.7776794,-122.4385135,,,n_1969279894,shop=convenience
"Sleepy Hollow, CA",,retail,445120,Fulton Food Shop,1801 Fulton Street,,,37.7756753,-122.4467198,,,n_1969282330,shop=convenience
"Sleepy Hollow, CA",,retail,445120,26th & Guerrero Market,"1400 Guerrero Street, San Francisco, CA, 94110",,http://www.26thandguerreromarket.com/,37.7486631,-122.4227133,,,n_1970075773,shop=convenience
"Sleepy Hollow, CA",,retail,445120,Cindy's Market,2084 Hayes Street,+1 415-221-7403,,37.7734424,-122.4508575,,,n_1980330799,shop=convenience
"Sleepy Hollow, CA",,retail,445120,McBaker Market,,,,37.7774463,-122.4419453,,,n_1981994718,shop=convenience
"Sleepy Hollow, CA",,retail,445120,Home Service Market,1700 Hayes Street,+1 415-346-7000,,37.7742525,-122.4446478,,,n_1990692292,shop=convenience
"Sleepy Hollow, CA",,retail,445120,ampm,,,,37.9904868,-122.3353295,,,n_2013493265,"shop=convenience, brand=ampm"
"Sleepy Hollow, CA",,retail,445120,Cool Guys,,,,37.7217291,-122.4621338,,,n_2035871772,shop=convenience
"Sleepy Hollow, CA",,retail,445110,Casa Guadalupe,,,,37.7492129,-122.4180336,,,n_2047570604,shop=supermarket
"Sleepy Hollow, CA",,retail,445110,Valencia Farmers Market,1299 Valencia Street,,,37.7522376,-122.4205268,,,n_2050131394,shop=supermarket
"Sleepy Hollow, CA",,retail,453110,Apple Blossom Florist,"2807 Telegraph Avenue, 94609",,https://www.floristinoaklandca.com/,37.8175962,-122.2677651,,,n_2050257371,shop=florist
"Sleepy Hollow, CA",,retail,445120,BART Liquor Store,3347 24th Street,,,37.7520991,-122.4194208,,,n_2050878746,shop=convenience
"Sleepy Hollow, CA",,retail,445120,Yicks Liquor,,,,37.7229089,-122.435887,,,n_2054075810,shop=convenience
"Sleepy Hollow, CA",,retail,445120,Frank's Market Liquor,,,,37.7216084,-122.4368714,,,n_2054075829,shop=convenience
"Sleepy Hollow, CA",,retail,445230,El Chico Produce,,,,37.7245595,-122.4351038,,,n_2054075845,shop=greengrocer
"Sleepy Hollow, CA",,retail,445230,Casa Lucas,,,,37.7253084,-122.4341382,,,n_2054109940,shop=greengrocer
"Sleepy Hollow, CA",,retail,445120,Mission Silver Market,,,,37.7286093,-122.431617,,,n_2054130279,shop=convenience
"Sleepy Hollow, CA",,retail,445120,New College Hill Market,,,,37.736053,-122.4246298,,,n_2054130284,shop=convenience
"Sleepy Hollow, CA",,retail,445310,Mike's Discount Liquors,,,,37.7171128,-122.4407612,,,n_2057396833,shop=alcohol
"Sleepy Hollow, CA",,retail,445120,United Liquor Market,,,,37.7147704,-122.4427139,,,n_2057396845,shop=convenience
"Sleepy Hollow, CA",,retail,446110,CVS Pharmacy,"365 East Washington Street, Petaluma, CA, 94952",,https://www.cvs.com/store-locator/petaluma-ca-pharmacies/365-e-washington-st-petaluma-ca-94952/storeid=9480,38.2386173,-122.6377987,,,n_2059143287,"shop=chemist, amenity=pharmacy, brand=CVS Pharmacy"
"Sleepy Hollow, CA",,retail,445110,San Bruno Supermarket,,,,37.7303902,-122.4051055,,,n_2059226347,shop=supermarket
"Sleepy Hollow, CA",,retail,445230,La Loma Produce,,,,37.7278468,-122.4034662,,,n_2059477223,shop=greengrocer
"Sleepy Hollow, CA",,retail,445120,ampm,,,,37.7092884,-122.452827,,,n_2059587307,"shop=convenience, brand=ampm"
"Sleepy Hollow, CA",,retail,446110,Walgreens,"22 San Pedro Road, Daly City, CA, 94014",,https://www.walgreens.com/locator/walgreens-22+san+pedro+rd-daly+city-ca-94014/id=1807,37.6894646,-122.4664148,,,n_2059601686,"shop=chemist, brand=Walgreens"
"Sleepy Hollow, CA",,retail,445120,Mr Liquor,"1200 Valencia Street, San Francisco",,,37.7536039,-122.4209734,,,n_2060252755,shop=convenience
"Sleepy Hollow, CA",,retail,445120,Valencia Grocery,1300 Valencia Street,,,37.7519723,-122.4208323,,,n_2066866627,shop=convenience
"Sleepy Hollow, CA",,retail,445120,Dolores Deluxe,,,,37.7551098,-122.4257529,,,n_2069103495,shop=convenience
"Sleepy Hollow, CA",,retail,445110,Valencia Whole Foods,999 Valencia Street,,,37.7570365,-122.4209796,,,n_2069159598,shop=supermarket
"Sleepy Hollow, CA",,retail,445120,ABC Supermarket Inc,,,,37.7976247,-122.4076211,,,n_2071294620,shop=convenience
"Sleepy Hollow, CA",,retail,445120,Kin Tat Co.,,,,37.7974117,-122.4084311,,,n_2071294646,shop=convenience
"Sleepy Hollow, CA",,retail,445230,Kum Luen,,,,37.7974827,-122.4087315,,,n_2071312174,shop=greengrocer
"Sleepy Hollow, CA",,retail,445230,Sun Sun Produce,,,,37.7985247,-122.4103536,,,n_2072581631,shop=greengrocer
"Sleepy Hollow, CA",,retail,445230,7th and Clement Market,538 Clement Street,+1 415-539-7700,,37.7830595,-122.4650796,,,n_2074158419,shop=greengrocer
"Sleepy Hollow, CA",,retail,445120,Food 24 Market,,,,37.7830743,-122.4645995,,,n_2074158443,shop=convenience
"Sleepy Hollow, CA",,retail,445110,Buddies Market,,,,37.7346227,-122.4337115,,,n_2078333126,shop=supermarket
"Sleepy Hollow, CA",,retail,445120,Searchlight Market,,,,37.7991456,-122.4189266,,,n_2129859148,shop=convenience
"Sleepy Hollow, CA",,retail,445120,Harvest Hills Market,,,,37.7467436,-122.4137155,,,n_2130160676,shop=convenience
"Sleepy Hollow, CA",,retail,445110,Trader Joe's,"401 Bay Street, San Francisco, CA, 94133",+1 415-351-1013,https://locations.traderjoes.com/ca/san-francisco/19/,37.8054807,-122.4137896,,,n_2130264969,"shop=supermarket, brand=Trader Joe's"
"Sleepy Hollow, CA",,retail,445310,Bing's Liquors,,,,37.871576,-122.292694,,,n_2131559019,shop=alcohol
"Sleepy Hollow, CA",,retail,445310,St Helena Liquors,"2198 San Pablo Avenue, Berkeley, CA",,,37.866447,-122.291603,,,n_2131576873,shop=alcohol
"Sleepy Hollow, CA",,retail,445310,Lo-Cost Liquors,,,,37.864527,-122.290435,,,n_2131580277,shop=alcohol
"Sleepy Hollow, CA",,retail,445210,BullsHead Restaurant,,+1-415-665-4350,https://www.bullsheadsf.com/,37.7408551,-122.4654894,,,n_2131859543,"shop=butcher, amenity=restaurant"
"Sleepy Hollow, CA",,retail,445120,Mayflower Market,,,,37.7924108,-122.4344435,,,n_2133322197,shop=convenience
"Sleepy Hollow, CA",,retail,445120,Gino's,,,,37.7925919,-122.4344765,,,n_2133322244,shop=convenience
"Sleepy Hollow, CA",,retail,445120,Dogpatch Biofuels,,,,37.7564805,-122.3927992,,,n_2148537238,"shop=convenience, amenity=fuel, brand=Independent"
"Sleepy Hollow, CA",,retail,446120,Cascade Spa,,,http://www.lavandenailspa.com/,37.7964878,-122.4221125,,,n_2167562320,shop=beauty
"Sleepy Hollow, CA",,retail,445110,Nijiya Market,"1737 Post Street, San Francisco, CA, 94115",+1 415 5631901,https://www.nijiya.com/,37.7852546,-122.4310324,,,n_2184767720,shop=supermarket
"Sleepy Hollow, CA",,retail,445110,Trader Joe's,"1095 Hyde Street, San Francisco, CA, 94109",+1 415-292-7665,https://locations.traderjoes.com/ca/san-francisco/200/,37.7907686,-122.4179305,,,n_2184790554,"shop=supermarket, brand=Trader Joe's"
"Sleepy Hollow, CA",,retail,452319,The Campus Store,"1804 Euclid Avenue, Berkeley",,,37.8758877,-122.2604503,,,n_2195113984,shop=general
"Sleepy Hollow, CA",,retail,445120,Shattuck Convenience,"1778 Shattuck Avenue, CA",,,37.875225,-122.2689372,,,n_2215236857,shop=convenience
"Sleepy Hollow, CA",,retail,446120,Polished Nail Salon,"1792 Shattuck Avenue, CA",+1 510-644-4975,,37.8749518,-122.2689045,,,n_2215240008,shop=beauty
"Sleepy Hollow, CA",,retail,445110,New Russian Hill Market,"Jones Street, San Francisco",,,37.7959769,-122.4149018,,,n_2220082604,shop=supermarket
"Sleepy Hollow, CA",,retail,445310,A & M,,,,37.7870317,-122.4268824,,,n_2220968869,shop=alcohol
"Sleepy Hollow, CA",,retail,445120,E-Z Stop Deli,"2233 Shattuck Avenue, Berkeley, 94704",+1 510 5489544,http://www.ezstopdeli.com/,37.868756,-122.267607,,,n_2235910278,shop=convenience
"Sleepy Hollow, CA",,retail,445292,Chocolatiere,"1964 University Avenue, Berkeley, CA",,,37.8715985,-122.2714298,,,n_2247185874,shop=chocolate
"Sleepy Hollow, CA",,retail,445120,First Korean Market,4625 Geary Boulevard,,,37.7806174,-122.4689908,,,n_2248273325,shop=convenience
"Sleepy Hollow, CA",,retail,445120,Food Mart,,,,38.2357321,-122.6217565,,,n_2253307419,shop=convenience
"Sleepy Hollow, CA",,retail,445120,Dino Mart,"3701 Cutting Boulevard, CA, 94804",,,37.9257544,-122.3339636,,,n_2253307451,shop=convenience
"Sleepy Hollow, CA",,retail,445120,Valero Food Shop,,,,38.3318402,-122.7146382,,,n_2253307453,shop=convenience
"Sleepy Hollow, CA",,retail,445110,FoodMaxx,,,,38.1234059,-122.236462,,,n_2264170931,"shop=supermarket, brand=FoodMaxx"
"Sleepy Hollow, CA",,retail,445310,Reno's,"728 22nd Street, San Francisco, 94107",,,37.7580217,-122.3888309,,,n_2296063874,shop=alcohol
"Sleepy Hollow, CA",,retail,445210,Olivier's,"1074 Illinois Street, San Francisco, 94107",,,37.7583845,-122.3874845,,,n_2297205771,shop=butcher
"Sleepy Hollow, CA",,retail,453991,Magic Dragon,"35 Cambon Drive, San Francisco, CA, 94132",+1 (415) 452-0962,https://www.magicdragonsf.com/,37.7180039,-122.4742299,,,n_2304346682,shop=tobacco
"Sleepy Hollow, CA",,retail,446120,Castro Nail Salon,"431 Castro Street, 94114",+1 (415) 252-1657,http://castronailsalon.com,37.7619032,-122.434958,,,n_2318141873,shop=beauty
"Sleepy Hollow, CA",,retail,453991,Castro Smoke House,"409 Castro Street, 94114",+1 (415) 552-7411,https://www.castrosmokehouse.com/,37.7622757,-122.434994,,,n_2318141912,shop=tobacco
"Sleepy Hollow, CA",,retail,445230,Buffalo Whole Food,"598 Castro Street, 94114",+1 (415) 626-7038,https://www.buffalowholefoods.com/,37.7593854,-122.4350485,,,n_2321299134,shop=greengrocer
"Sleepy Hollow, CA",,retail,446120,Hand Job Nails & Spa,"565 Castro Street, 94114",+1 (415) 863-2243,https://www.handjobspa.com/,37.7598606,-122.4347631,,,n_2321299139,shop=beauty
"Sleepy Hollow, CA",,retail,445292,Aegean Delights,"545 Castro Street, 94114",,,37.760169,-122.4347926,,,n_2321299144,shop=confectionery
"Sleepy Hollow, CA",,retail,445310,Swirl,"572 Castro Street, 94114",+1 (415) 864-2262,https://www.swirloncastro.com/,37.7597429,-122.4350828,,,n_2321299175,shop=alcohol
"Sleepy Hollow, CA",,retail,445310,Bottle Bacchanal,"4126 18th Street, 94114",,,37.7609419,-122.435711,,,n_2321383089,shop=alcohol
"Sleepy Hollow, CA",,retail,445120,QuikStop Liquor,"Merritt Avenue, Oakland, CA, 94610",,,37.8051337,-122.2498803,,,n_2328648583,shop=convenience
"Sleepy Hollow, CA",,retail,453110,Dream World Floral & Gifts,,,https://www.dreamworldfloralandgifts.com,37.9010475,-122.3007251,,,n_2338316033,shop=florist
"Sleepy Hollow, CA",,retail,445120,7-Eleven,"371 Shoreline Highway, Mill Valley, CA, 94941-3825",+1 415-388-7361,https://www.7-eleven.com/locations/ca/mill-valley/371-shoreline-highway-14154,37.878897,-122.533226,,,n_2338347983,"shop=convenience, brand=7-Eleven"
"Sleepy Hollow, CA",,retail,445120,Sherman Market,,,,37.798471,-122.425542,,,n_2338785260,shop=convenience
"Sleepy Hollow, CA",,retail,445110,Green Earth,"860 Divisadero Street, San Francisco, CA, 94117",,http://www.greenearthnaturalfoods.com/,37.777716,-122.43816,,,n_2338835471,shop=supermarket
"Sleepy Hollow, CA",,retail,445120,Superette Market,901 Haight Street,,,37.771113,-122.43719,,,n_2338836918,shop=convenience
"Sleepy Hollow, CA",,retail,446120,Union Nails,,+1 415-931-0414,,37.7948774,-122.4217274,,,n_2341054068,shop=beauty
"Sleepy Hollow, CA",,retail,453110,Lila B. Design,"2124 Folsom Street, San Francisco, 94110",,http://www.lilabdesign.com,37.7632805,-122.4155018,,,n_2341493662,shop=florist
"Sleepy Hollow, CA",,retail,446120,Nail Image,"2031 University Avenue, Berkeley, CA",,,37.8721195,-122.2699503,,,n_2350153428,shop=beauty
"Sleepy Hollow, CA",,retail,445120,East Bay Liquors,,,,37.8387592,-122.2690555,,,n_2352103113,shop=convenience
"Sleepy Hollow, CA",,retail,446120,Fashion Nails,"1821 University Avenue, Berkeley, CA",,,37.8715365,-122.2743689,,,n_2362497544,shop=beauty
"Sleepy Hollow, CA",,retail,445120,Grand Market,"1702 Lincoln Avenue, Alameda, CA, 94501",+1-510-263-8250,,37.7725514,-122.2551727,,,n_2390987804,shop=convenience
"Sleepy Hollow, CA",,retail,445120,State Market Liquor,,,,37.8069846,-122.301296,,,n_2405775321,shop=convenience
"Sleepy Hollow, CA",,retail,445110,hk outlets,"178 10th Street, 94607",,,37.7991623,-122.2664057,,,n_2412716300,shop=supermarket
"Sleepy Hollow, CA",,retail,445110,Hometown Grocery,241 10th Street,,,37.7994307,-122.267846,,,n_2416941915,shop=supermarket
"Sleepy Hollow, CA",,retail,445110,LG Supermarket,325 10th Street,,,37.8002901,-122.2700186,,,n_2416945139,shop=supermarket
"Sleepy Hollow, CA",,retail,445310,Haight Bourbon Shop,"378 Fillmore Street, San Francisco, 94117",,,37.772945,-122.430492,,,n_2430288254,shop=alcohol
"Sleepy Hollow, CA",,retail,453110,wallflower,"593 Guerrero Street, San Francisco, 94110",+1 415 658 7399,https://wallflowersanfrancisco.com/,37.7618166,-122.4236956,,,n_2430411630,"shop=florist, operator=Eleanor Gerber-Siff"
"Sleepy Hollow, CA",,retail,445120,Jim's Smoke Shop & Deli,"600 20th Street, San Francisco, CA, 94107",,,37.7606346,-122.387782,,,n_2453601864,shop=convenience
"Sleepy Hollow, CA",,retail,445210,Barons Meats,"1706 Church Street, San Francisco, 94131",(415) 654-5449,http://www.baronsmeats.com,37.7434738,-122.4268364,,,n_2454879430,shop=butcher
"Sleepy Hollow, CA",,retail,446110,MAC,,,,37.868968,-122.300491,,,n_2475985371,shop=chemist
"Sleepy Hollow, CA",,retail,446120,AÃ©sop,"Berkeley, CA",,,37.869043,-122.300157,,,n_2475985459,shop=beauty
"Sleepy Hollow, CA",,retail,446120,Benefit San Francisco,"Berkeley, CA",,,37.869081,-122.300181,,,n_2475985489,shop=beauty
"Sleepy Hollow, CA",,retail,445310,Vino!,"1786 Fourth Street, Berkeley, CA, 94710",+1-510-559-8870,,37.8700382,-122.3014417,,,n_2475998127,shop=wine
"Sleepy Hollow, CA",,retail,446120,Aveda,"Berkeley, CA",,,37.869031,-122.300469,,,n_2476002678,shop=beauty
"Sleepy Hollow, CA",,retail,446110,Kiehl's,"Berkeley, CA",,,37.868986,-122.300455,,,n_2476002854,shop=chemist
"Sleepy Hollow, CA",,retail,445110,Whole Foods Market,"2001 Market Street, San Francisco, CA, 94114",+1 415-626-1430,https://www.wholefoodsmarket.com/stores/2001marketstreet,37.7687435,-122.4270651,,,n_2479681841,"shop=supermarket, brand=Whole Foods Market"
"Sleepy Hollow, CA",,retail,445110,Bolinas Market,"14 12180142, Bolinas, CA, 94924",(415) 868-1441,,37.9097842,-122.6850941,,,n_2481944214,"shop=supermarket, operator=Nassrah family"
"Sleepy Hollow, CA",,retail,445292,Christopher Elbow Chocolates,"401 Hayes Street, San Francisco, CA, 94102",+1 415-355-1105,https://www.elbowchocolates.com,37.7767562,-122.423118,,,n_2482675929,shop=chocolate
"Sleepy Hollow, CA",,retail,445110,Safeway,"6310 College Avenue, Oakland, CA, 94618",+1 510-985-0012,https://local.safeway.com/safeway/ca/oakland/6310-college-ave.html,37.8506081,-122.25203,,,n_2487652502,"shop=supermarket, brand=Safeway"
"Sleepy Hollow, CA",,retail,452210,Target,"2675 Geary Boulevard, San Francisco, CA, 94118",+1-415-796-5280,https://www.target.com/sl/san-francisco-west/2768,37.782036,-122.447148,,,n_2509799835,"shop=department_store, brand=Target"
"Sleepy Hollow, CA",,retail,445120,Van Ness Vallejo Market,"2301 Van Ness Avenue, San Francisco, 94123",,,37.7968023,-122.4238896,,,n_2525724761,shop=convenience
"Sleepy Hollow, CA",,retail,445120,Derby Food Center,"2707 College Avenue, Berkeley",,,37.8618,-122.253404,,,n_2557860419,shop=convenience
"Sleepy Hollow, CA",,retail,445310,Eddie's Liquor Video,,,,37.841915,-122.251726,,,n_2557916490,shop=alcohol
"Sleepy Hollow, CA",,retail,453110,Wildflower & Fern,,,,37.8438068,-122.252025,,,n_2559452988,shop=florist
"Sleepy Hollow, CA",,retail,446120,Elegant Nails,5406 College Avenue,,,37.8403621,-122.251227,,,n_2565002738,shop=beauty
"Sleepy Hollow, CA",,retail,446120,Bing's Salon,5408 College Avenue,,,37.8404099,-122.251233,,,n_2565002742,shop=beauty
"Sleepy Hollow, CA",,retail,445310,Lake Merritt Super,"364 Grand Avenue, Oakland, 94610",,,37.8091778,-122.2562101,,,n_2611106499,shop=alcohol
"Sleepy Hollow, CA",,retail,445310,Grand Express,"363 Grand Avenue, Oakland, 94610",,,37.8087217,-122.2555194,,,n_2611523808,shop=alcohol
"Sleepy Hollow, CA",,retail,453110,Trolley-bus Flowers,,,,37.7935404,-122.3956629,,,n_2616668270,shop=florist
"Sleepy Hollow, CA",,retail,446120,Organicare Spa,"1413 Martin Luther King Jr Way, Berkeley, CA",,https://organicarespa.com/,37.8811128,-122.2739023,,,n_2622567610,shop=beauty
"Sleepy Hollow, CA",,retail,446120,Green Twig Salon,"1299 Church Street, San Francisco",,,37.7502064,-122.4271561,,,n_2625069266,shop=beauty
"Sleepy Hollow, CA",,retail,445120,Chevron Extra Mile,"2399 Market Street, San Francisco, 94114",1-415-621-2570,,37.7627767,-122.4344896,,,n_2625276230,shop=convenience
"Sleepy Hollow, CA",,retail,445120,Golden Market,"2899 Mission Street, San Francisco",,,37.7507677,-122.4181695,,,n_2626609168,shop=convenience
"Sleepy Hollow, CA",,retail,445120,R Image Market,"2898 Folsom Street, San Francisco, 94110",,,37.7510149,-122.4141343,,,n_2627661184,shop=convenience
"Sleepy Hollow, CA",,retail,452210,Marshalls,,,,38.1337123,-122.2196958,,,n_2638103317,"shop=department_store, brand=Marshalls"
"Sleepy Hollow, CA",,retail,452210,Ross,"133 Plaza Drive, Vallejo, CA, 94591",+1 707-552-9565,,38.1326326,-122.2203904,,,n_2638103319,"shop=department_store, brand=Ross"
"Sleepy Hollow, CA",,retail,445110,Grocery Outlet,"355 Bayshore Boulevard, San Francisco, 94124",,,37.7415785,-122.405368,,,n_2641796593,"shop=supermarket, brand=Grocery Outlet"
"Sleepy Hollow, CA",,retail,445120,17th & Balboa Market,"1601 Balboa Street, San Francisco, 94121",,,37.7765595,-122.4760759,,,n_2655541785,shop=convenience
"Sleepy Hollow, CA",,retail,445310,The Wine Club,"953 Harrison Street, San Francisco, 94107",(415) 512-9086,https://www.thewineclub.com/,37.7778613,-122.4028906,,,n_2655597049,shop=alcohol
"Sleepy Hollow, CA",,retail,446120,La Tira Wax Studio,"1301 Church Street, San Francisco",,,37.750018,-122.4271407,,,n_2667413557,shop=beauty
"Sleepy Hollow, CA",,retail,445110,Five Markets,"2824 24th Street, San Francisco, 94110",+1 415-282-6838,,37.7529431,-122.408716,,,n_2667574537,shop=supermarket
"Sleepy Hollow, CA",,retail,446120,Episode Salon and Spa,"1360 Church Street, San Francisco",+1 415-641-1138,,37.7490643,-122.4273609,,,n_2687343234,shop=beauty
"Sleepy Hollow, CA",,retail,446120,Kensington Nail Spa,,,https://www.yelp.com/biz/kensington-nail-spa-kensington,37.9043528,-122.2781536,,,n_2689052977,shop=beauty
"Sleepy Hollow, CA",,retail,445110,Frank's Liquors,1699 Haight Street,,,37.7694214,-122.4505453,,,n_2693004231,shop=supermarket
"Sleepy Hollow, CA",,retail,445110,Golden Farmer Market,"1475 Polk Street, San Francisco, 94109",(415) 771-9099,,37.7902045,-122.420782,,,n_2698387925,shop=supermarket
"Sleepy Hollow, CA",,retail,445120,Blue Fog Market,"2568 Gough Street, San Francisco, 94123",(415)931-9331,https://bluefogmarket.com/,37.7970779,-122.4272116,,,n_2704703748,shop=convenience
"Sleepy Hollow, CA",,retail,446120,Lisa's Beauty Salon,"1448 Cesar Chavez Street, San Francisco",,,37.7478087,-122.4272404,,,n_2707373844,shop=beauty
"Sleepy Hollow, CA",,retail,452210,Target,"789 Mission Street, San Francisco, CA, 94103",+1-415-343-6272,https://www.target.com/sl/san-francisco-central/2766,37.7846295,-122.403758,,,n_2730487173,"shop=department_store, brand=Target, operator=Target"
"Sleepy Hollow, CA",,retail,453110,Oakland Flower Market,"821 Jefferson Street, Oakland",,,37.8020707,-122.2772765,,,n_2735584619,shop=florist
"Sleepy Hollow, CA",,retail,446120,Stript Wax Bar,"1211 Church Street, San Francisco",,,37.7514864,-122.4272861,,,n_2786114656,shop=beauty
"Sleepy Hollow, CA",,retail,452319,Broadway Market,"Sonoma, 95476",,,38.275435,-122.460743,,,n_2792019738,shop=general
"Sleepy Hollow, CA",,retail,445110,Whole Foods Market,"201 West Napa Street, Sonoma, CA, 95476",+1 707-938-8500,https://www.wholefoodsmarket.com/stores/sonoma,38.291356,-122.462555,,,n_2793710092,"shop=supermarket, brand=Whole Foods Market"
"Sleepy Hollow, CA",,retail,445230,Watmaugh Strawberry Stand,"Sonoma, 95476",,,38.261237,-122.482478,,,n_2793898368,shop=greengrocer
"Sleepy Hollow, CA",,retail,445310,Anaba Winery,Sonoma,,,38.236552,-122.462365,,,n_2793899645,shop=wine
"Sleepy Hollow, CA",,retail,445120,Bonneau Market,Sonoma,,,38.235947,-122.461675,,,n_2793899760,shop=convenience
"Sleepy Hollow, CA",,retail,445310,Gloria Ferrer ,Sonoma,,,38.223907,-122.471311,,,n_2793900062,"shop=wine, brand=Frexinet"
"Sleepy Hollow, CA",,retail,445310,Jacuzzi Family Winery,Sonoma,,,38.214709,-122.45398,,,n_2793907100,shop=wine
"Sleepy Hollow, CA",,retail,445310,Viansa Winery,Sonoma,,,38.208406,-122.451795,,,n_2794039180,shop=wine
"Sleepy Hollow, CA",,retail,445310,Ram's Gate,,,,38.1741237,-122.4504414,,,n_2794072011,shop=wine
"Sleepy Hollow, CA",,retail,445310,Envolve Winery,,+1 (707) 939-5385,http://envolvewinery.com,38.291373,-122.457177,,,n_2795258469,shop=alcohol
"Sleepy Hollow, CA",,retail,445310,Sonoma Enoteca,"35 East Napa Street, Sonoma, CA, 95476",+1 (707) 935-1200,http://www.sonoma-enoteca.com/,38.291698,-122.456943,,,n_2795259169,shop=alcohol
"Sleepy Hollow, CA",,retail,445310,Nicholson Ranch,Sonoma,,,38.255065,-122.391245,,,n_2795277969,shop=wine
"Sleepy Hollow, CA",,retail,445310,Domaine Carneros,,,,38.255478,-122.351414,,,n_2795282869,"shop=wine, brand=Tattinger"
"Sleepy Hollow, CA",,retail,445310,Cuvaison ,,,,38.250786,-122.34732,,,n_2795290369,shop=wine
"Sleepy Hollow, CA",,retail,445310,Madonna Winery,,,,38.255822,-122.341286,,,n_2795292869,shop=wine
"Sleepy Hollow, CA",,retail,445299,Vella Cheese Co.,"315 2nd Street East, Sonoma, 95476",+1 800 848-0505,https://vellacheese.com/,38.2950362,-122.454065,,,n_2795641535,shop=cheese
"Sleepy Hollow, CA",,retail,445310,Westwood Winery,"East Napa Street, Sonoma, 95476",+1 707 933-7837,https://westwoodwine.com/,38.2917561,-122.4574483,,,n_2796493911,shop=alcohol
"Sleepy Hollow, CA",,retail,445310,Valley of the Moon Winery,Sonoma,,,38.340479,-122.506519,,,n_2797582871,shop=wine
"Sleepy Hollow, CA",,retail,445110,Sonoma Market,"Sonoma, 95476",,,38.293324,-122.468686,,,n_2797601769,shop=supermarket
"Sleepy Hollow, CA",,retail,445310,Valley Wine Shack,"Sonoma, 95476",,,38.292803,-122.469228,,,n_2797606669,shop=wine
"Sleepy Hollow, CA",,retail,445310,Ledger's Liquor,"1399 University Avenue, Berkeley, CA",+1 510 5409243,,37.870238,-122.284468,,,n_2802320401,shop=alcohol
"Sleepy Hollow, CA",,retail,445120,Town Market,,,,38.1044143,-122.2380254,,,n_2805280721,shop=convenience
"Sleepy Hollow, CA",,retail,445120,7-Eleven,"2835 Georgia Street, Vallejo, CA, 94591-6503",+1 707-648-2805,https://www.7-eleven.com/locations/ca/vallejo/2835-georgia-st-14133,38.0996339,-122.2239494,,,n_2805280723,"shop=convenience, brand=7-Eleven"
"Sleepy Hollow, CA",,retail,445110,Mulberries' Market,,,,37.825051,-122.232837,,,n_2810181541,shop=supermarket
"Sleepy Hollow, CA",,retail,445120,Oak Fair Market,999 Oak Street,,,37.773267,-122.435627,,,n_2819256151,shop=convenience
"Sleepy Hollow, CA",,retail,446120,Femi Macus Nails,,,,37.8073427,-122.222816,,,n_2820916479,shop=beauty
"Sleepy Hollow, CA",,retail,446120,La Soleil Nail Spa,,,,37.8074711,-122.2225617,,,n_2820916481,shop=beauty
"Sleepy Hollow, CA",,retail,445120,7-Eleven,"150 Bolinas Road, Fairfax, CA, 94930-1902",+1 415-457-2282,https://www.7-eleven.com/locations/ca/fairfax/150-bolinas-rd-15957,37.9850455,-122.591197,,,n_2823083001,"shop=convenience, brand=7-Eleven"
"Sleepy Hollow, CA",,retail,445230,Saetern Strawberry Field,,,,38.261251,-122.482459,,,n_2823987402,shop=greengrocer
"Sleepy Hollow, CA",,retail,445310,Bump Wine Cellars,"Sonoma, 95476",+1 (707) 228-9214,http://bumpwine.com,38.29151,-122.458159,,,n_2827321202,shop=alcohol
"Sleepy Hollow, CA",,retail,445310,Moondance Cellars,"Arnold Drive, Glen Ellen",,,38.354191,-122.524229,,,n_2828175601,shop=wine
"Sleepy Hollow, CA",,retail,445310,Eric Ross Winery,,,,38.354119,-122.5248,,,n_2828176401,shop=wine
"Sleepy Hollow, CA",,retail,445120,7-Eleven,"292 North San Pedro Road, San Rafael, CA, 94903-2857",+1 415-472-3579,https://www.7-eleven.com/locations/ca/san-rafael/292-n.-san-pedro-rd-14146,38.0057919,-122.5185748,,,n_2838230570,"shop=convenience, brand=7-Eleven"
"Sleepy Hollow, CA",,retail,445110,Monte Vista Food Center,"4000 Piedmont Avenue, Oakland, 94611",,,37.8254386,-122.2534898,,,n_2838479530,shop=supermarket
"Sleepy Hollow, CA",,retail,445230,South Berkeley Produce & Meat Market,"3120 Sacramento Street, Berkeley, CA, 94702",(510) 705-1733,,37.8509905,-122.278689,,,n_2849740423,shop=greengrocer
"Sleepy Hollow, CA",,retail,446120,Salon Novo,"651 1st Street West, Sonoma, 95476",,https://salonnovo.com/,38.2893674,-122.4596007,,,n_2854385631,shop=beauty
"Sleepy Hollow, CA",,retail,445310,Two Amigos Wines,,+1 (707) 799-7146,https://twoamigoswines.com/,38.2916365,-122.4572182,,,n_2854407167,shop=alcohol
"Sleepy Hollow, CA",,retail,445299,Epicurean Connection,"122 West Napa Street, Sonoma, 95476",+1 (707) 935-7960,http://theepicureanconnection.com,38.2921805,-122.4595554,,,n_2854410999,shop=cheese
"Sleepy Hollow, CA",,retail,445110,Safeway,"389 South McDowell Boulevard, Petaluma, CA, 94954",+1 707-766-9097,https://local.safeway.com/safeway/ca/petaluma/389-s-mcdowell-blvd.html,38.2489174,-122.6219218,,,n_2857441206,"shop=supermarket, brand=Safeway"
"Sleepy Hollow, CA",,retail,445310,Hawkes Vineyards and Winery,"383 1st Street West, Sonoma, 95476",+1 (707) 938-7620,https://www.hawkeswine.com/,38.2941916,-122.4587511,,,n_2857481366,shop=alcohol
"Sleepy Hollow, CA",,retail,445310,Spann Vineyards Tasting Room,,+1 (707) 933-8343,https://spannvineyards.com/,38.2916927,-122.4565077,,,n_2858533567,shop=alcohol
"Sleepy Hollow, CA",,retail,445310,Charles Creek Vineyard Tasting Room & Gallery,"483 1st Street West, Sonoma, 95476",+1 (707) 935-3848,http://charlescreek.com,38.2923805,-122.4590825,,,n_2858610176,shop=alcohol
"Sleepy Hollow, CA",,retail,445310,Kamen Estate Wines,,+1 (707) 938-7292,https://kamenwines.com/,38.2916706,-122.4564759,,,n_2858636999,shop=alcohol
"Sleepy Hollow, CA",,retail,445310,Bryter Estates,,+1 (707) 501-8757,https://bryter.com/,38.291511,-122.4572582,,,n_2858952947,shop=alcohol
"Sleepy Hollow, CA",,retail,445310,Adobe Road Winery,"481 1st Street West, Sonoma, 95476",+1-707-939-9099,https://www.adoberoadwines.com/,38.2925274,-122.4590637,,,n_2859092140,shop=alcohol
"Sleepy Hollow, CA",,retail,445310,Highway 12 Winery,"498 1st Street East, Sonoma, 95476",+1 (707) 938-8091,http://www.highway12wines.com/,38.2920058,-122.4564765,,,n_2859120357,shop=alcohol
"Sleepy Hollow, CA",,retail,445310,Haywood Estate Winery,,+1 (707) 933-3001,http://haywoodwinery.com,38.2917542,-122.4572489,,,n_2859249324,shop=alcohol
"Sleepy Hollow, CA",,retail,445310,MacLaren Tasting Lounge,,+1 (707) 938-7490,https://maclarenwine.com/,38.2913832,-122.4573041,,,n_2859254191,shop=alcohol
"Sleepy Hollow, CA",,retail,445310,Bedrock Wine Company,"554 Michael Drive, Sonoma, 95476",+1 (707) 364-8763,https://bedrockwineco.com/,38.3069768,-122.468844,,,n_2859368040,shop=alcohol
"Sleepy Hollow, CA",,retail,445310,Wine Country Connect,"1055 Broadway, Sonoma, 95476",+1 (707) 938-8485,https://www.winecountryconnect.com/,38.2820047,-122.4598573,,,n_2860207043,shop=alcohol
"Sleepy Hollow, CA",,retail,445120,Adel's Wine Cellar,"1400 Cole Street, San Francisco, 94117",,,37.7615674,-122.4489819,,,n_2869308732,shop=convenience
"Sleepy Hollow, CA",,retail,446120,The Spa at The Lodge Sonoma,"1325 Broadway, Sonoma, 95476",+1 (707) 931-3434,https://www.thespaatthelodge.com,38.2774674,-122.463173,,,n_2875670876,shop=beauty
"Sleepy Hollow, CA",,retail,446120,Grapevine Skin Care & Waxing,"461 7th Street West, Sonoma, 95476",+1 (707) 815-8914,,38.2939863,-122.471659,,,n_2875680939,shop=beauty
"Sleepy Hollow, CA",,retail,446120,Keri Halasz,"454 West Napa Street, Sonoma, 95476",+1 (707) 225-4683,http://healingartenergy.com,38.2931432,-122.4668807,,,n_2875693224,shop=beauty
"Sleepy Hollow, CA",,retail,446120,Amber Rose Advanced Skin Care,"500 West Spain Street, Sonoma, CA, 95476",+1 (707) 246-4397,https://amberroseskincare.com/,38.2941684,-122.468767,,,n_2875698463,shop=beauty
"Sleepy Hollow, CA",,retail,452319,The Dollar Store & Beyond,,,,37.8074769,-122.2218459,,,n_2877110039,shop=variety_store
"Sleepy Hollow, CA",,retail,446120,Catalina Skin and Body,"535 1st Street West, Sonoma, 95476",+1 (707) 933-3860,http://catalinasspa.com,38.2915968,-122.4593609,,,n_2877161342,shop=beauty
"Sleepy Hollow, CA",,retail,446120,Butterfly Kisses Beauty Studio,"21 Patten Street, Sonoma, 95476",+1 (707) 363-4512,http://butterflysonoma.com,38.2898453,-122.4574497,,,n_2877166893,shop=beauty
"Sleepy Hollow, CA",,retail,446120,Salon Sabrina,"702 Broadway, Sonoma, 95476",+1 (707) 996-2771,http://www.salonsabrinaonline.com/,38.2881989,-122.4580802,,,n_2877173239,shop=beauty
"Sleepy Hollow, CA",,retail,446120,Finger Paint,4220 Park Blvd,+1-510-530-0345,,37.8073985,-122.2220164,,,n_2880186298,shop=beauty
"Sleepy Hollow, CA",,retail,453110,La Nana Salon,,+1-510-482-2392,https://store.lananasalonflower.com/,37.8073818,-122.2219451,,,n_2880186299,shop=florist
"Sleepy Hollow, CA",,retail,446120,Blush A Day Spa,"561 Broadway, Sonoma, 95476",+1 (707) 935-0116,http://blushspasonoma.com,38.2908195,-122.458676,,,n_2882072920,shop=beauty
"Sleepy Hollow, CA",,retail,446120,Sonoma Holistic Spa,"525 3rd Street West, Sonoma, 95476",+1 (415) 717-3106,http://sonomaholisticspa.com,38.29185,-122.4638882,,,n_2882100459,shop=beauty
"Sleepy Hollow, CA",,retail,446120,Leticiaâs Salon,"21 Patten Street, Sonoma, 95476",+1 (707) 996-1063,,38.2898584,-122.4574984,,,n_2882129068,shop=beauty
"Sleepy Hollow, CA",,retail,446120,Personal Image Hair & Skin Care,"563 5th Street West, Sonoma, 95476",,,38.2916416,-122.4687309,,,n_2882359513,shop=beauty
"Sleepy Hollow, CA",,retail,446120,CC Beauty Salon,"18615 Sonoma Highway, Sonoma, 95476",+1 (707) 935-8329,http://ccbeautysalon.com,38.3084794,-122.4778248,,,n_2882365404,shop=beauty
"Sleepy Hollow, CA",,retail,446120,Body Karma,"19310 Sonoma Highway, Sonoma, 95476",+1 (707) 935-5855,http://www.bodykarma.biz/,38.2980984,-122.4743617,,,n_2882381387,shop=beauty
"Sleepy Hollow, CA",,retail,446120,Maxwell Nails Salon,"19205 Sonoma Highway, Sonoma, CA, 95476",+1 (707) 933-3838,https://maxwellnailssalonsonoma.com/,38.2991789,-122.4760752,,,n_2882761560,shop=beauty
"Sleepy Hollow, CA",,retail,446120,Nails Pro,"201 West Napa Street, Sonoma, 95476",+1 (707) 939-9753,,38.2921837,-122.4622284,,,n_2882768202,shop=beauty
"Sleepy Hollow, CA",,retail,446120,Bianchi Grazia Hair & Makeup Salon,"248 West Napa Street, Sonoma, 95476",+1 (707) 996-6002,http://bianchi-salon.com,38.29255,-122.4621884,,,n_2882775824,shop=beauty
"Sleepy Hollow, CA",,retail,446120,S. Cutright Salon,"686 West Napa Street, Sonoma, 95476",+1 (707) 939-1761,,38.293459,-122.4713693,,,n_2882784697,shop=beauty
"Sleepy Hollow, CA",,retail,446120,Amma Touch,"19343 Sonoma Highway, Sonoma, 95476",+1 (707) 367-2894,http://ammatouch.abmp.com/,38.2972416,-122.4758956,,,n_2882835687,shop=beauty
"Sleepy Hollow, CA",,retail,446120,Sonoma Nails,,,,38.3034775,-122.4756639,,,n_2882933844,shop=beauty
"Sleepy Hollow, CA",,retail,446120,Colleens Bodywork,"811 West Napa Street, Sonoma, 95476",+1 (707) 939-9156,http://sonomadeeptissuemassage.com,38.2931669,-122.4734424,,,n_2882938319,shop=beauty
"Sleepy Hollow, CA",,retail,446120,Healing Tree of Sonoma,"772 West Napa Street, Sonoma, 95476",+1 (707) 299-9655,http://healingtreeofsonoma.com,38.2936074,-122.4728751,,,n_2882941726,shop=beauty
"Sleepy Hollow, CA",,retail,446120,Kokoâs Of Sonoma,"678 Broadway, Sonoma, 95476",+1 (707) 933-9004,http://kokosofsonoma.com,38.2887558,-122.4579133,,,n_2882943158,shop=beauty
"Sleepy Hollow, CA",,retail,446120,Bohemian Boudoir,"461 7th Street West, Sonoma, 95476",+1 (415) 572-4745,http://thebohemianboudoir.com,38.2940847,-122.4716517,,,n_2882952807,shop=beauty
"Sleepy Hollow, CA",,retail,446120,Freedom Therapy Myofascial Release,"19343 Sonoma Highway, Sonoma, 95476",+1 (707) 933-7815,https://www.freedomtherapy.net/default.html,38.2972166,-122.4759366,,,n_2882958804,shop=beauty
"Sleepy Hollow, CA",,retail,446120,Beautiful Nails,"539 Broadway, Sonoma, 95476",+1 (707) 996-2417,http://beautifulnailsonoma.wix.com/beautifulnailsonoma,38.2911289,-122.4582544,,,n_2882963133,shop=beauty
"Sleepy Hollow, CA",,retail,446120,Happy Nails,"721 West Napa Street, Sonoma, 95476",+1 (707) 939-8262,,38.29315,-122.47216,,,n_2882965522,shop=beauty
"Sleepy Hollow, CA",,retail,446120,The Pampered Pout,"678 Broadway, Sonoma, 95476",+1 (707) 938-9396,,38.2887653,-122.4579649,,,n_2882971397,shop=beauty
"Sleepy Hollow, CA",,retail,446120,Cityâs Nails,"808 West Napa Street, Sonoma, 95476",+1 (707) 996-8182,,38.2938137,-122.4732788,,,n_2882993576,shop=beauty
"Sleepy Hollow, CA",,retail,446120,Trinity Day Spa,"27 East Napa Street, Sonoma, 95476",+1 (707) 326-2762,http://sonomadayspaandsalon.com,38.2912868,-122.4572351,,,n_2883001509,shop=beauty
"Sleepy Hollow, CA",,retail,446120,Sun Seekers,"595 5th Street West, Sonoma, 95476",+1 (707) 996-0317,,38.2913526,-122.4686049,,,n_2883003464,shop=beauty
"Sleepy Hollow, CA",,retail,445120,SMS Market,"1049 55th Street, Oakland, CA, 94608",,,37.8386443,-122.2798297,,,n_2924952137,shop=convenience
"Sleepy Hollow, CA",,retail,445310,Boisson,"333 Hayes Street, San Francisco, CA, 94102",+1 415 523 2030,https://boisson.co/pages/boisson-san-francisco,37.7769046,-122.4219558,,,n_2937297768,shop=beverages
"Sleepy Hollow, CA",,retail,445310,BevMo!,"401 Kenilworth Drive, Petaluma, 94952",+1-707-241-9705,https://bevmo.com/,38.2419672,-122.6233241,,,n_2946858342,"shop=alcohol, brand=BevMo!"
"Sleepy Hollow, CA",,retail,445120,Pine-Taylor Market,"996 Pine Street, San Francisco, 94108",+1 415 885 0414,,37.7908059,-122.4121671,,,n_2956812337,shop=convenience
"Sleepy Hollow, CA",,retail,446120,West Coast Nails,"1821 Larkin Street, San Francisco, 94109",415-928-1859,,37.7946407,-122.4199842,,,n_3001015522,shop=beauty
"Sleepy Hollow, CA",,retail,445299,24th St. Cheese Co.,"3893 24th Street, San Francisco",,,37.7514878,-122.4293961,,,n_3002990373,shop=cheese
"Sleepy Hollow, CA",,retail,445310,The Good Hop,"2421 Telegraph Avenue, Oakland",,,37.8136265,-122.2688131,,,n_3007872775,"shop=alcohol, amenity=bar"
"Sleepy Hollow, CA",,retail,445120,New Star Market,"269 14th Street, San Francisco, 94103",(415) 861-0723,,37.7682232,-122.4193356,,,n_3009487838,shop=convenience
"Sleepy Hollow, CA",,retail,445120,7-Eleven,"4000 San Pablo Avenue, Emeryville, CA, 94608",+1 510-338-3239,https://www.7-eleven.com/locations/ca/emeryville/4000-san-pablo-ave-35017,37.831245,-122.279769,,,n_3011004969,"shop=convenience, brand=7-Eleven"
"Sleepy Hollow, CA",,retail,453110,Mill Valley Flowers,,,,37.906662,-122.5473204,,,n_3066048533,shop=florist
"Sleepy Hollow, CA",,retail,445120,Lombard Heights Market,,,,37.803113,-122.4098541,,,n_3067864533,shop=convenience
"Sleepy Hollow, CA",,retail,445120,F & G Grocery,"3698 20th Street, San Francisco, CA, 94110",(415) 285-2542,,37.758486,-122.423328,,,n_3088435531,shop=convenience
"Sleepy Hollow, CA",,retail,445120,7-Eleven,"124 Petaluma Boulevard South, Petaluma, CA, 94952-3033",+1 707-778-3448,https://www.7-eleven.com/locations/ca/petaluma/124-petaluma-blvd-s-18019,38.2323665,-122.6374294,,,n_3121139941,"shop=convenience, brand=7-Eleven"
"Sleepy Hollow, CA",,retail,445120,3 Rings,,,,37.7981793,-122.2500792,,,n_3125407606,shop=convenience
"Sleepy Hollow, CA",,retail,446120,,,,,37.798814,-122.2508034,,,n_3125407618,shop=beauty
"Sleepy Hollow, CA",,retail,445120,Carriage Trade Liquors,,1-510-444-8356,,37.7994181,-122.2511467,,,n_3125416918,shop=convenience
"Sleepy Hollow, CA",,retail,446120,,,,,37.7995696,-122.2513841,,,n_3125416925,shop=beauty
"Sleepy Hollow, CA",,retail,446120,Noe Valley Nails,"1484 Church Street, San Francisco",,,37.7470148,-122.4271539,,,n_3133693828,shop=beauty
"Sleepy Hollow, CA",,retail,445110,Pang Kee Bargain Market,,,,37.7979062,-122.4085421,,,n_3148123214,shop=supermarket
"Sleepy Hollow, CA",,retail,445110,"Sun Kau Shing Co., Inc.",,,,37.798411,-122.4086385,,,n_3148123215,shop=supermarket
"Sleepy Hollow, CA",,retail,445292,XOX Truffles,,+1 510 5302999,https://www.chocolatepicture.com/,37.8017631,-122.4120752,,,n_3148249595,shop=chocolate
"Sleepy Hollow, CA",,retail,446120,Nail Arts,"1116 Irving Street, San Francisco, CA, 94122",+1 415-664-5728,,37.7640208,-122.4699255,,,n_3153355954,shop=beauty
"Sleepy Hollow, CA",,retail,445310,Shop and Save Liquors,"1501 Cutting Boulevard, Richmond, CA, 94804",,,37.9255301,-122.3547273,,,n_3159686137,shop=alcohol
"Sleepy Hollow, CA",,retail,446120,Tiptop Nails & Waxing,"1547 Church Street, San Francisco",,,37.7462189,-122.4267746,,,n_3166823796,shop=beauty
"Sleepy Hollow, CA",,retail,445120,Lee's Market,6342 Shattuck Avenue,,,37.8493782,-122.2655533,,,n_3167010068,shop=convenience
"Sleepy Hollow, CA",,retail,445310,Aiban Market,,,,37.8453598,-122.2684832,,,n_3169064970,shop=alcohol
"Sleepy Hollow, CA",,retail,445120,Chuck's Sun Valley Grocery,"1601 Church Street, San Francisco",,,37.7452193,-122.4266861,,,n_3183085927,shop=convenience
"Sleepy Hollow, CA",,retail,453110,Bell and Trunk Flowers,"1405 18th Street, San Francisco, CA, 94107",(415) 648-0519,https://bellandtrunk.com/,37.7624735,-122.396838,,,n_3186108657,shop=florist
"Sleepy Hollow, CA",,retail,445230,Hwa Lei Market,2970 16th Street,,,37.7652365,-122.419006,,,n_3188130235,shop=greengrocer
"Sleepy Hollow, CA",,retail,446120,Angel's Nails,"1602 Church Street, San Francisco",,,37.7451496,-122.42701,,,n_3188857554,shop=beauty
"Sleepy Hollow, CA",,retail,445120,Green Street Market,"1898 Green Street, San Francisco, CA, 94123",+1 (415) 567-6377,,37.7969094,-122.4302557,,,n_3189064943,shop=convenience
"Sleepy Hollow, CA",,retail,446120,California Salon,"4350 California Street, San Francisco",,,37.7851512,-122.4643888,,,n_3206599977,shop=beauty
"Sleepy Hollow, CA",,retail,446120,Plush Nails Spa,"1791 Church Street, San Francisco",,,37.7423892,-122.426414,,,n_3223701749,shop=beauty
"Sleepy Hollow, CA",,retail,445230,The Fruit Basket,,,,37.828279,-122.268659,,,n_3231995560,shop=greengrocer
"Sleepy Hollow, CA",,retail,445120,Larkin Corner Market,"1496 Larkin Street, San Francisco, CA, 94109",415-441-7619,,37.7916503,-122.4190711,,,n_3238659965,shop=convenience
"Sleepy Hollow, CA",,retail,445120,Van Ness Liquor Wine & Spirits,"1840 Van Ness Avenue, San Francisco, CA, 94109",,,37.7927384,-122.4225661,,,n_3243807462,shop=convenience
"Sleepy Hollow, CA",,retail,453991,Gazebo Smoke Shop,"499 O'Farrell Street, San Francisco, CA, 94102",+1 510-575-8776,,37.7857207,-122.412838,,,n_3284223894,shop=tobacco
"Sleepy Hollow, CA",,retail,453991,DC Smoke Shop,"6389 Mission Street, Daly City, CA, 94014",(650) 757-1747,https://yelp.com/biz/dc-smoke-shop-daly-city,37.7050555,-122.461902,,,n_3284303032,shop=tobacco
"Sleepy Hollow, CA",,retail,445310,New Star-Ell,"501 Divisadero Street, San Francisco, CA, 94117",+1-415-567-7900,,37.7741729,-122.4378406,,,n_3296984987,shop=alcohol
"Sleepy Hollow, CA",,retail,445120,7-Eleven,"2650 Mason Street, San Francisco, CA, 94133",+1 415-391-7499,https://www.7-eleven.com/locations/ca/san-francisco/2650-mason-st-33006,37.808049,-122.413948,,,n_3303358570,"shop=convenience, brand=7-Eleven"
"Sleepy Hollow, CA",,retail,446120,Union Street Apothecary,"1628 Union Street, San Francisco, CA, 94123",1-415-771-1207,https://www.usapothecary.com/,37.7983928,-122.4262035,,,n_3311578661,shop=beauty
"Sleepy Hollow, CA",,retail,445292,Socola,"535 Folsom Street, San Francisco",,,37.7866224,-122.39513,,,n_3315887613,shop=chocolate
"Sleepy Hollow, CA",,retail,445110,Sutter Fine Foods,"988 Sutter Street, San Francisco, CA, 94109",,,37.7884234,-122.4165679,,,n_3376135508,shop=supermarket
"Sleepy Hollow, CA",,retail,446120,Benefit Cosmetics Boutique,"2219 Chestnut Street, San Francisco, CA",+1 415-567-1173,https://www.benefitcosmetics.com/,37.8002448,-122.4399837,,,n_3380023321,shop=beauty
"Sleepy Hollow, CA",,retail,445210,Marina Meats,"2395 Chestnut Street, San Francisco, CA",+1 415-673-6700,http://www.marinameats.com,37.7998884,-122.4426644,,,n_3380825009,shop=butcher
"Sleepy Hollow, CA",,retail,452210,Target,"2187 Shattuck Avenue, Berkeley, CA, 94704",+1 510-982-3726,https://www.target.com/sl/berkeley-central/3202,37.8695816,-122.267687,,,n_3385127979,"shop=department_store, brand=Target, operator=Target"
"Sleepy Hollow, CA",,retail,445120,Choice Korner,,,,37.7992907,-122.2667377,,,n_3393092803,shop=convenience
"Sleepy Hollow, CA",,retail,446120,Atelier Emmanuel Salon and Day Spa,"415 Stockton Street, San Francisco, CA, 94108",+1-415-362-8063,https://atelieremmanuel.com/,37.7897276,-122.407184,,,n_3393355309,shop=beauty
"Sleepy Hollow, CA",,retail,445310,Liquor and Deli Mini Mart,,,,37.7899269,-122.4072115,,,n_3393356655,shop=alcohol
"Sleepy Hollow, CA",,retail,445310,Boba Guys,"429 Stockton Street, San Francisco, CA, 94108",+1 415 9672622,https://www.bobaguys.com/,37.7900012,-122.4072208,,,n_3393358381,shop=beverages
"Sleepy Hollow, CA",,retail,453991,Vapor Smoke Shop,"435 Stockton Street, San Francisco, CA, 94108",,,37.7900498,-122.4072286,,,n_3393360121,shop=tobacco
"Sleepy Hollow, CA",,retail,445310,Union Square Wine & Spirts,"522 Sutter Street, San Francisco, CA",,,37.7892862,-122.409065,,,n_3393447848,shop=alcohol
"Sleepy Hollow, CA",,retail,446120,Sutter Nails,"539 Sutter Street, San Francisco, CA",+1 415 3983939,,37.789034,-122.4093179,,,n_3393452323,shop=beauty
"Sleepy Hollow, CA",,retail,446120,Elite Spa,,,,37.7903977,-122.4060535,,,n_3393496210,shop=beauty
"Sleepy Hollow, CA",,retail,446120,OSO Salon,,,,37.7903961,-122.4077552,,,n_3394869136,shop=beauty
"Sleepy Hollow, CA",,retail,446120,Thi,"811 Mission Street, San Francisco, CA, 94103",+1 415 9398689,https://www.thi-spa.com/,37.7839519,-122.4046933,,,n_3397807646,shop=beauty
"Sleepy Hollow, CA",,retail,446120,Smoke & Mirrors Salon,"256 Sutter Street, San Francisco, CA, 94108",+1-415-249-0840,,37.7898226,-122.4048862,,,n_3408724048,shop=beauty
"Sleepy Hollow, CA",,retail,446120,Tailored Salon,"266 Sutter Street, San Francisco, CA, 94108",+1-415-501-9205,,37.7898024,-122.4050464,,,n_3408732351,shop=beauty
"Sleepy Hollow, CA",,retail,453110,BLOOMING ALLEY,"330 Sutter Street, San Francisco, CA, 94108",+1-415-391-6574,,37.7897205,-122.406065,,,n_3409657987,shop=florist
"Sleepy Hollow, CA",,retail,446120,Mani-Pedi Spa,"1545 Polk Street, San Francisco, CA, 94109",+1 415-872-9686,,37.7912037,-122.4209831,,,n_3415413129,shop=beauty
"Sleepy Hollow, CA",,retail,453991,510 Smoke & Head Shop,"412 14th Street, Oakland, CA, 94612",,,37.8041334,-122.2702862,,,n_3470332396,shop=tobacco
"Sleepy Hollow, CA",,retail,453991,California Tabacco Center,"1501 Polk Street, San Francisco, CA, 94109",,,37.7907084,-122.4208726,,,n_3487832245,shop=tobacco
"Sleepy Hollow, CA",,retail,445120,Save More Liquor and Grocery,"1598 McAllister Street, San Francisco, CA, 94117",,,37.7779289,-122.4382388,,,n_3489924891,shop=convenience
"Sleepy Hollow, CA",,retail,446120,SKH Beauty Salon,,,,37.8230575,-122.26674,,,n_3496213706,shop=beauty
"Sleepy Hollow, CA",,retail,445230,KJ Produce Market,"400 Irving Street, San Francisco, CA, 94122",,,37.7643657,-122.4622496,,,n_3522837920,shop=greengrocer
"Sleepy Hollow, CA",,retail,446110,Walgreens,"5260 Diamond Heights Boulevard, San Francisco, CA, 94131",,https://www.walgreens.com/locator/walgreens-5260+diamond+heights+blvd-san+francisco-ca-94131/id=1109,37.7438254,-122.4395622,,,n_3523031623,"shop=chemist, brand=Walgreens"
"Sleepy Hollow, CA",,retail,445110,6001 California Market (Appel & Dietrich),"6001 California Street, San Francisco, CA, 94121",+1 (415) 221-7600,,37.7839057,-122.4819672,,,n_3524458050,shop=supermarket
"Sleepy Hollow, CA",,retail,445110,Carniceria El Brinquito,"17380 Sonoma Highway, Sonoma, CA, 95476",,,38.3198633,-122.4862731,,,n_3534520165,shop=supermarket
"Sleepy Hollow, CA",,retail,445110,Carniceria La Favorita,"17484 Sonoma Highway, Sonoma, CA, 95476",707-938-9607,,38.3186485,-122.4852867,,,n_3534530264,shop=supermarket
"Sleepy Hollow, CA",,retail,445120,West Portal Daily,"36 West Portal Avenue, San Francisco, CA, 94127",,,37.7404899,-122.4664515,,,n_3540104120,shop=convenience
"Sleepy Hollow, CA",,retail,446120,Zen Beauty Spa,"West Portal Avenue, San Francisco, CA, 94127",,,37.7385684,-122.4680818,,,n_3540160999,shop=beauty
"Sleepy Hollow, CA",,retail,446120,She-She,"167 West Portal Avenue, San Francisco, CA, 94127",,,37.7390247,-122.4675743,,,n_3540255599,shop=beauty
"Sleepy Hollow, CA",,retail,453110,Petals,"365 West Portal Avenue, San Francisco, CA, 94127",,,37.7370307,-122.4698961,,,n_3540255993,shop=florist
"Sleepy Hollow, CA",,retail,445292,Edible Arrangements,"312 West Portal Avenue, San Francisco, 94127",,,37.7378581,-122.4694947,,,n_3542728904,shop=confectionery
"Sleepy Hollow, CA",,retail,445120,Miraloma Liquors,"691 Portola Drive, San Francisco, CA, 94127",,,37.7444725,-122.4529427,,,n_3545344096,shop=convenience
"Sleepy Hollow, CA",,retail,445292,See's Candies,5802 College Avenue,,https://chocolateshops.sees.com/ca/oakland/chocolate_shops_oakland_ca_2ca079.html,37.8461781,-122.251818,,,n_3554653080,"shop=confectionery, brand=See's Candies"
"Sleepy Hollow, CA",,retail,445120,Eezy Freezy,"25 West Portal Avenue, San Francisco, CA, 94127",,,37.7404952,-122.4659263,,,n_3559573562,shop=convenience
"Sleepy Hollow, CA",,retail,446120,Portola Nail Bar,"619 Portola Drive, San Francisco, CA, 94127",,,37.745097,-122.4518663,,,n_3561728394,shop=beauty
"Sleepy Hollow, CA",,retail,446120,Mademoiselle Nails,681 Townsend Street,+1 415-553-4081,,37.7704182,-122.4032049,,,n_3563920173,shop=beauty
"Sleepy Hollow, CA",,retail,445110,Good Luck Market,"1217 Taraval Street, San Francisco, CA, 94116",+1 415 682-8822,,37.7427662,-122.479296,,,n_3564521986,shop=supermarket
"Sleepy Hollow, CA",,retail,445110,Cash & Carry,400 Oak Street,,,37.7937589,-122.2672304,,,n_3565153877,shop=supermarket
"Sleepy Hollow, CA",,retail,445292,Giddy,"2299B Market Street, San Francisco, 94114",,,37.7640621,-122.4329211,,,n_3577449393,shop=confectionery
"Sleepy Hollow, CA",,retail,446120,Solemates,"1483 Shattuck Avenue, Berkeley, CA",5106498828,https://solematesnailspa.com/,37.8805814,-122.2690249,,,n_3587008742,shop=beauty
"Sleepy Hollow, CA",,retail,453991,Smoke Shop,"1216 Polk Street, San Francisco, CA",,,37.7880894,-122.4200676,,,n_3605423540,shop=tobacco
"Sleepy Hollow, CA",,retail,446120,Salon 815,"815 Ulloa Street, San Francisco, CA, 94127",,,37.7406049,-122.4655019,,,n_3622466801,shop=beauty
"Sleepy Hollow, CA",,retail,446120,Sisters Salon & Spa,"57 West Portal Avenue, San Francisco, CA, 94127",,,37.7401573,-122.4662622,,,n_3622466802,shop=beauty
"Sleepy Hollow, CA",,retail,445292,Shaws San Francisco,"122 West Portal Avenue, San Francisco, CA, 94127",,https://www.shawscandy.com,37.7395098,-122.4675357,,,n_3622468811,shop=confectionery
"Sleepy Hollow, CA",,retail,446120,West Portal Spa,"124 West Portal Avenue, San Francisco, CA, 94127",,,37.7394866,-122.467556,,,n_3622501503,shop=beauty
"Sleepy Hollow, CA",,retail,453110,West Portal Floral Co.,"51 West Portal Avenue, San Francisco, CA, 94127",,,37.7402018,-122.46622,,,n_3622507594,shop=florist
"Sleepy Hollow, CA",,retail,445310,The San Francisco Wine Trading Company,"250 Taraval Street, San Francisco, CA, 94116",,,37.7434593,-122.4690217,,,n_3633164829,shop=wine
"Sleepy Hollow, CA",,retail,446120,Lee's Nail Care,"452 Taraval Street, San Francisco, CA, 94116",,,37.7433622,-122.4711246,,,n_3633323081,shop=beauty
"Sleepy Hollow, CA",,retail,446120,Leaps Beauty & Cosmetic Center,"546 Taraval Street, San Francisco, CA, 94116",,,37.7433299,-122.4722225,,,n_3633581919,shop=beauty
"Sleepy Hollow, CA",,retail,446120,Sue's Skincare Studio,"2382 15th Avenue, San Francisco, CA, 94116",,,37.7436213,-122.4712346,,,n_3634735196,shop=beauty
"Sleepy Hollow, CA",,retail,445110,Harvest Urban Market,8th Street,,,37.7764867,-122.4116366,,,n_3641710571,shop=supermarket
"Sleepy Hollow, CA",,retail,453991,Sunshine,"100 Berkeley Square, CA",,,37.8711128,-122.2678971,,,n_3644674377,shop=tobacco
"Sleepy Hollow, CA",,retail,445310,Arlington Wine and Spirits,295 Arlington Avenue,,,37.9037287,-122.2779946,,,n_3644674379,shop=alcohol
"Sleepy Hollow, CA",,retail,445120,Rainbow Market & Deli,"687 Ellis Street, San Francisco, CA, 94109",,,37.7841613,-122.4175749,,,n_3648686275,shop=convenience
"Sleepy Hollow, CA",,retail,446120,Sensi Nails,"338 Judah Street, CA, 94122",+1 415-665-6245,,37.7623223,-122.4658648,,,n_3657172999,shop=beauty
"Sleepy Hollow, CA",,retail,445310,Judah Ninth Avenue Liquors,"1400 9th Avenue, San Francisco, CA, 94122",,,37.7620559,-122.466045,,,n_3657264565,shop=alcohol
"Sleepy Hollow, CA",,retail,446120,Cozy Nail Spa,"1327A 9th Avenue, San Francisco, CA, 94122",+1 415-702-6103,https://cozynailspasf.com,37.7635079,-122.4664278,,,n_3658310642,shop=beauty
"Sleepy Hollow, CA",,retail,446120,High Touch Nail Salon,"954 Irving Street, San Francisco, CA, 94116",+1 415-566-1368,,37.7641163,-122.4683074,,,n_3658311026,shop=beauty
"Sleepy Hollow, CA",,retail,445120,Eddy's Market,"951 Irving Street, San Francisco, CA, 94122",,,37.7638269,-122.4683007,,,n_3658311027,shop=convenience
"Sleepy Hollow, CA",,retail,445310,Coit Liquors,1657 Powell Street,,,37.7999812,-122.4109134,,,n_3663863507,shop=alcohol
"Sleepy Hollow, CA",,retail,445120,Guerrero Market,"3398 22nd Street, San Francisco",,,37.755278,-122.4230438,,,n_3663976017,shop=convenience
"Sleepy Hollow, CA",,retail,446120,LV Nail Spa,"546 Columbus Avenue, San Francisco, CA, 94133",,http://lv-nail.com/,37.8001289,-122.4097085,,,n_3666082234,shop=beauty
"Sleepy Hollow, CA",,retail,446120,Daily Beauty Supply & Salon,"605 Irving Street, San Francisco, CA, 94122",,,37.7639957,-122.4644616,,,n_3667881127,shop=beauty
"Sleepy Hollow, CA",,retail,445120,Five Markets,"1400 8th Avenue, San Francisco, CA, 94122",,,37.7621197,-122.4649701,,,n_3667881625,shop=convenience
"Sleepy Hollow, CA",,retail,446120,Tun Beauty Salon,"1373 7th Avenue, San Francisco, CA, 94122",+1 415-564-8982,,37.7628276,-122.4642726,,,n_3674255681,shop=beauty
"Sleepy Hollow, CA",,retail,445210,Belcampo Butchery,,,,37.9468466,-122.5087471,,,n_3681610425,shop=butcher
"Sleepy Hollow, CA",,retail,446120,International Orange,"2421 Larkspur Landing Circle, Larkspur, CA, 94939",,,37.9468894,-122.5089637,,,n_3684650494,shop=beauty
"Sleepy Hollow, CA",,retail,446120,Accent on Beauty,"924 Irving Street, San Francisco, CA, 94122",+1 415-731-3097,,37.7641321,-122.4679281,,,n_3686450974,shop=beauty
"Sleepy Hollow, CA",,retail,445120,Sakura,"936 Irving Street, San Francisco, CA, 94122",+1 415-702-6200,,37.7641267,-122.4681063,,,n_3686450976,shop=convenience
"Sleepy Hollow, CA",,retail,446120,Artistic Nail Care,"902A Irving Street, San Francisco, CA, 94122",,,37.7641217,-122.4676191,,,n_3688683432,shop=beauty
"Sleepy Hollow, CA",,retail,453110,The Flower Girl,"1127 Irving Street, San Francisco, CA, 94122",+1 415-731-0230,https://aflowergirl.com,37.7637516,-122.4700073,,,n_3688683826,shop=florist
"Sleepy Hollow, CA",,retail,452319,beauty shop,"1500 Taraval Street, San Francisco, CA, 94116",,,37.7428995,-122.4822948,,,n_3699162141,shop=variety_store
"Sleepy Hollow, CA",,retail,446120,Aroma Beauty Care,"1419 Taraval Street, San Francisco, CA, 94116",,,37.7426668,-122.4814305,,,n_3699162435,shop=beauty
"Sleepy Hollow, CA",,retail,453110,Angel's Flowers by Amy,"1554 Stockton Street, San Francisco, CA, 94133",,http://www.angelsflowersbyamy.com/,37.8001891,-122.4090225,,,n_3702219082,shop=florist
"Sleepy Hollow, CA",,retail,446120,European Wax Center,,,https://locations.waxcenter.com/ca/oakland/oakland-0480.html,37.8112271,-122.243201,,,n_3711137971,"shop=beauty, brand=European Wax Center"
"Sleepy Hollow, CA",,retail,446120,Izek Day Spa Salon,,,,37.8109688,-122.2439652,,,n_3711137976,shop=beauty
"Sleepy Hollow, CA",,retail,445310,Buckingham Wine & Spirits,,,,37.8108731,-122.2442374,,,n_3711137979,shop=alcohol
"Sleepy Hollow, CA",,retail,453110,VIP Florist & Gifts,,,,37.8105602,-122.2451922,,,n_3711137988,shop=florist
"Sleepy Hollow, CA",,retail,446120,Center Stage Salon,,,,37.810412,-122.2455765,,,n_3711137993,shop=beauty
"Sleepy Hollow, CA",,retail,445310,Alkali Rye,,,,37.8123615,-122.247171,,,n_3711138013,shop=alcohol
"Sleepy Hollow, CA",,retail,446120,Beauty Supplies,,,,37.8121537,-122.2472748,,,n_3711138016,shop=beauty
"Sleepy Hollow, CA",,retail,445210,Prime Smoked Meats,"220 Alice Street, Oakland, 94607",,http://www.primesmoked.com/,37.7945257,-122.2711895,,,n_3771490184,shop=butcher
"Sleepy Hollow, CA",,retail,446120,La Petite Rose,"2409 25th Avenue, San Francisco, CA, 94116",,,37.7424518,-122.4822496,,,n_3781718558,shop=beauty
"Sleepy Hollow, CA",,retail,446120,Selena Beauty Care,"1135 Taraval Street, San Francisco, CA, 94116",,,37.7428026,-122.478493,,,n_3781718958,shop=beauty
"Sleepy Hollow, CA",,retail,446120,Deluxe Lavender Nail Spa,"113 Carl Street, San Francisco, CA, 94117",(415) 323-6909,,37.7656488,-122.4503419,,,n_3790822664,shop=beauty
"Sleepy Hollow, CA",,retail,445120,Simple,"1001 Stanyan Street, San Francisco, CA, 94117",,https://www.simple-sf.com/,37.7653238,-122.4528917,,,n_3790822857,shop=convenience
"Sleepy Hollow, CA",,retail,445120,Parkview Market,"501 Frederick Street, San Francisco, CA, 94117",,,37.7662623,-122.453074,,,n_3790822864,shop=convenience
"Sleepy Hollow, CA",,retail,446120,Cole Valley Nail Salon,"510 1/2 Frederick Street, San Francisco, CA, 94117",+1 415-731-6088,,37.7664511,-122.4533169,,,n_3790822866,shop=beauty
"Sleepy Hollow, CA",,retail,445120,Sunny Country Foods,"1101 Stanyan Street, San Francisco, CA, 94117",,,37.7643959,-122.4526937,,,n_3790823457,shop=convenience
"Sleepy Hollow, CA",,retail,445210,Taylor's Sausage,,,,37.8017511,-122.2746994,,,n_3796476187,shop=butcher
"Sleepy Hollow, CA",,retail,445310,M & A Lakeside Market,"138 14th Street, Oakland, CA",,,37.8015291,-122.263693,,,n_3796540703,shop=alcohol
"Sleepy Hollow, CA",,retail,445120,Hometown Donuts,,,,37.7967027,-122.2653248,,,n_3798594291,shop=convenience
"Sleepy Hollow, CA",,retail,445310,Sunshine Wine & Liquor,1754 Haight Street,,,37.7695976,-122.4511723,,,n_3801395649,shop=alcohol
"Sleepy Hollow, CA",,retail,445110,Gus's Community Market,"2111 Harrison Street, 94110",+1 415 431 9300,https://gussmarket.com/,37.7639653,-122.4127878,,,n_3850073315,shop=supermarket
"Sleepy Hollow, CA",,retail,445110,Rubin's Market,"2997 Folsom Street, San Francisco",,,37.749437,-122.413623,,,n_3857827557,shop=supermarket
"Sleepy Hollow, CA",,retail,445230,Gus's Market,"1540 Haight Street, San Francisco, CA, 94117",,,37.770138,-122.4477472,,,n_3864557016,shop=greengrocer
"Sleepy Hollow, CA",,retail,445310,Unwine'd,,+1-415-702-6206,https://unwined-sf.com/,37.7406397,-122.4657844,,,n_3868132257,shop=wine
"Sleepy Hollow, CA",,retail,445210,San Francisco Meat Company,"320 Fell Street, San Francisco, CA, 94102",,,37.7760332,-122.423087,,,n_3873879799,shop=butcher
"Sleepy Hollow, CA",,retail,446120,La Vie Nail Spa,575 Geary Street,+1 415-775-7373,https://www.facebook.com/LaVieNailsonGeary/,37.7866951,-122.4127078,,,n_3873879806,shop=beauty
"Sleepy Hollow, CA",,retail,446120,San Zen Nails,580 Union Street,,,37.8006145,-122.4089687,,,n_3875122065,shop=beauty
"Sleepy Hollow, CA",,retail,445120,Sana Market,,,,37.8256153,-122.265213,,,n_3879006543,shop=convenience
"Sleepy Hollow, CA",,retail,445292,See's Candies,,,,37.8364681,-122.2925434,,,n_3880788048,"shop=confectionery, brand=See's Candies"
"Sleepy Hollow, CA",,retail,445120,International Produce Market,"2200 Mission Street, San Francisco",,,37.7616133,-122.4197085,,,n_3883822524,shop=convenience
"Sleepy Hollow, CA",,retail,445120,UC Market,"1251 3rd Avenue, San Francisco, CA, 94122",,,37.7651507,-122.4601078,,,n_3899202702,shop=convenience
"Sleepy Hollow, CA",,retail,452210,Ross,"194 Donahue Street, Sausalito, CA, 94965",+1 415-332-0519,https://rossstores.com/,37.8729559,-122.5093913,,,n_3908956759,"shop=department_store, brand=Ross"
"Sleepy Hollow, CA",,retail,445120,7-Eleven,"1901 Bridgeway Boulevard, Sausalito, CA, 94965-1745",+1 415-324-7200,https://www.7-eleven.com/locations/ca/sausalito/1901-bridgeway-blvd-14130,37.8615616,-122.494222,,,n_3924802414,"shop=convenience, brand=7-Eleven"
"Sleepy Hollow, CA",,retail,445120,14th Street Market,,,,37.8041837,-122.270424,,,n_3927989513,shop=convenience
"Sleepy Hollow, CA",,retail,446120,Central Nails,,,,37.8042026,-122.2699394,,,n_3927998685,shop=beauty
"Sleepy Hollow, CA",,retail,445120,Howden Market,1630 Webster Street,,,37.8055483,-122.2672438,,,n_3927998690,shop=convenience
"Sleepy Hollow, CA",,retail,453110,Empress Florist & Gifts,1269 Harrison Street,,,37.802111,-122.2683113,,,n_3928006154,shop=florist
"Sleepy Hollow, CA",,retail,445310,AA Market,"667 Broderick Street, San Francisco, 94117",,,37.7765295,-122.4399619,,,n_3931486658,shop=alcohol
"Sleepy Hollow, CA",,retail,445310,Anchorage Liquor,,,,37.807035,-122.418692,,,n_3931507109,shop=alcohol
"Sleepy Hollow, CA",,retail,445120,African Caribbean Food Market,,,,37.8009569,-122.2761018,,,n_3933170764,shop=convenience
"Sleepy Hollow, CA",,retail,445120,Alameda grocery,,,,37.7701292,-122.2495343,,,n_3933385528,shop=convenience
"Sleepy Hollow, CA",,retail,445310,Plumpjack Wine and Spirits,"4011 24th Street, San Francisco, CA, 94114",+1 415 282 3841,,37.7513153,-122.4322391,,,n_3965100744,shop=alcohol
"Sleepy Hollow, CA",,retail,445120,Hien's Market,,,,37.8038661,-122.2672048,,,n_3967298487,shop=convenience
"Sleepy Hollow, CA",,retail,446120,Nailphoria,,,,37.8055592,-122.2666765,,,n_3967298496,shop=beauty
"Sleepy Hollow, CA",,retail,445110,Kiki Supermarket,,,,37.795529,-122.4100247,,,n_3969574176,shop=supermarket
"Sleepy Hollow, CA",,retail,453110,Powell Florist,"1230 Powell Street, San Francisco, CA",+1 415 7818788,,37.7960381,-122.4098693,,,n_3969578799,shop=florist
"Sleepy Hollow, CA",,retail,445120,Powell Grocery,1301 Powell Street,,,37.7965633,-122.4102322,,,n_3969590468,shop=convenience
"Sleepy Hollow, CA",,retail,446120,Faces Plus,"1019 Pacific Avenue, San Francisco",415-474-9615,,37.7961688,-122.4121036,,,n_3969593218,shop=beauty
"Sleepy Hollow, CA",,retail,446120,Love Your Face,"1075 Pacific Avenue, San Francisco, CA",,,37.7960794,-122.4129221,,,n_3969593221,shop=beauty
"Sleepy Hollow, CA",,retail,445120,Hyde & Pacific Liquors,,,,37.795563,-122.4182,,,n_3969606066,shop=convenience
"Sleepy Hollow, CA",,retail,445120,Broadway Market,,,,37.8050547,-122.2704946,,,n_3969659723,shop=convenience
"Sleepy Hollow, CA",,retail,446120,Beauty Nail,339 17th Street,,,37.8054925,-122.2671067,,,n_3969664016,shop=beauty
"Sleepy Hollow, CA",,retail,445120,Euromix Delicatessen,,,,37.8292508,-122.2488947,,,n_3981309957,shop=convenience
"Sleepy Hollow, CA",,retail,446120,Grace Beauty Supply,,,,37.8070839,-122.2696899,,,n_3981344387,shop=beauty
"Sleepy Hollow, CA",,retail,445310,Wayne's Liquors,"911 Kearny Street, San Francisco, CA, 94133",,,37.7964023,-122.4053469,,,n_3985400821,shop=alcohol
"Sleepy Hollow, CA",,retail,453991,Ali Baba Smoke Shop,,,,37.7974692,-122.4063329,,,n_3986887651,shop=tobacco
"Sleepy Hollow, CA",,retail,445230,Long Pat Market,,,,37.7993503,-122.2726017,,,n_3988389202,shop=greengrocer
"Sleepy Hollow, CA",,retail,445230,New Sang Chong Market,,,,37.7993248,-122.2719152,,,n_3988389207,shop=greengrocer
"Sleepy Hollow, CA",,retail,445230,Wah Hang Market(2),,,,37.7993841,-122.2720708,,,n_3988389212,shop=greengrocer
"Sleepy Hollow, CA",,retail,445230,D & K Market,,,,37.7996427,-122.2719876,,,n_3988389224,shop=greengrocer
"Sleepy Hollow, CA",,retail,445230,King of Grocery,,,,37.7994838,-122.2723201,,,n_3988389229,shop=greengrocer
"Sleepy Hollow, CA",,retail,445120,Park Grocery & Liquors,,,,37.8002277,-122.2720143,,,n_3988389230,shop=convenience
"Sleepy Hollow, CA",,retail,445230,Yet Sun Market,,,,37.7995178,-122.2723897,,,n_3988389232,shop=greengrocer
"Sleepy Hollow, CA",,retail,445120,Great Wall Co,,,,37.7989322,-122.2714157,,,n_3990935833,shop=convenience
"Sleepy Hollow, CA",,retail,446191,Layonna Vegetarian Health Food Market,,,,37.7999622,-122.273593,,,n_3990935834,shop=health_food
"Sleepy Hollow, CA",,retail,446120,Ce Ce Beauty Spa,,,,37.7995258,-122.2738672,,,n_3990935838,shop=beauty
"Sleepy Hollow, CA",,retail,445230,Asian and American Fruits Market,725 Webster Street,,,37.7990137,-122.2717196,,,n_3990935840,shop=greengrocer
"Sleepy Hollow, CA",,retail,445230,Good Luck Market,717 Webster Street,,,37.7989144,-122.2717793,,,n_3990935844,shop=greengrocer
"Sleepy Hollow, CA",,retail,452319,T & T Co,,,,37.7999433,-122.273537,,,n_3990935845,shop=general
"Sleepy Hollow, CA",,retail,446120,Fashion Line,,,,37.7995353,-122.273902,,,n_3990935848,shop=beauty
"Sleepy Hollow, CA",,retail,446191,Wellness,,,,37.7982902,-122.271491,,,n_3990946904,shop=health_food
"Sleepy Hollow, CA",,retail,445110,New Dic's Supermarket,,,,37.8000479,-122.271586,,,n_3992953178,shop=supermarket
"Sleepy Hollow, CA",,retail,446191,Anrol International,,,,37.8001941,-122.2719267,,,n_3992956522,shop=health_food
"Sleepy Hollow, CA",,retail,446120,Vee Cosmetics,,,,37.8003997,-122.2708753,,,n_3992959604,shop=beauty
"Sleepy Hollow, CA",,retail,453110,From the Heart Florist,,,,37.8008766,-122.2701912,,,n_3992963288,shop=florist
"Sleepy Hollow, CA",,retail,445120,Healthy Food Center,,,,37.8004506,-122.2710173,,,n_3992963292,shop=convenience
"Sleepy Hollow, CA",,retail,445120,Lucky Day,,,,37.8005418,-122.2699364,,,n_3992975569,shop=convenience
"Sleepy Hollow, CA",,retail,445230,Sun Yuen Hang,,,,37.7994968,-122.2680455,,,n_3992986692,shop=greengrocer
"Sleepy Hollow, CA",,retail,445110,Won Kee Supermarket,,,,37.7977739,-122.2685094,,,n_3992986699,shop=supermarket
"Sleepy Hollow, CA",,retail,445230,Vegefarm @ San Francisco,"2024 Irving Street, San Francisco, CA, 94122",+14155046199,https://www.vegefarmusa.com/,37.7635844,-122.4797634,,,n_3993039687,shop=greengrocer
"Sleepy Hollow, CA",,retail,446120,Salon de Hong Kong,"2100 Irving Street, San Francisco, CA, 94122",+1 415-759-1899,,37.7635413,-122.4805197,,,n_3993039689,shop=beauty
"Sleepy Hollow, CA",,retail,453110,Moonstar Florist,,,,37.800804,-122.268431,,,n_3993072627,shop=florist
"Sleepy Hollow, CA",,retail,453110,Oakland Florist,,,,37.801514,-122.2701315,,,n_3993081637,shop=florist
"Sleepy Hollow, CA",,retail,445230,Wah Hanb Market,,,,37.8004204,-122.2725752,,,n_3993096507,shop=greengrocer
"Sleepy Hollow, CA",,retail,446120,Sandy's Skin Care,,,,37.8006768,-122.2724329,,,n_3993096514,shop=beauty
"Sleepy Hollow, CA",,retail,445310,Souzas Liquor,,,,37.8025285,-122.2706282,,,n_3993096517,shop=alcohol
"Sleepy Hollow, CA",,retail,445310,Glass & Bottle Liquors,"3150 Vicente Street, San Francisco, CA, 94116",+1-415-682-7708,,37.7383128,-122.500906,,,n_3996578777,shop=alcohol
"Sleepy Hollow, CA",,retail,445120,Saigon Market,,,,37.8132291,-122.2688537,,,n_3998616514,shop=convenience
"Sleepy Hollow, CA",,retail,445120,River Nile Market,,,,37.8201782,-122.2670761,,,n_3999453472,shop=convenience
"Sleepy Hollow, CA",,retail,445210,Oakland Halal Meat & Produce Marketplace,,,,37.8201273,-122.2670922,,,n_3999453491,shop=butcher
"Sleepy Hollow, CA",,retail,445120,Zion Market,,,,37.8177966,-122.2677063,,,n_3999453492,shop=convenience
"Sleepy Hollow, CA",,retail,445120,Golden Bear Trading Company,1401 6th Avenue,,,37.7621737,-122.4631356,,,n_4002028591,"shop=convenience, amenity=cafe"
"Sleepy Hollow, CA",,retail,445310,Enoteca Vino Nostro,"1455 Van Ness Avenue, San Francisco, CA",+1 415-440-4001,http://enotecavinostro.com,37.7890716,-122.4223317,,,n_4004802466,shop=wine
"Sleepy Hollow, CA",,retail,445110,Trader Joe's,"417 Westlake Center, Daly City, CA, 94015",+1 650-755-3825,https://locations.traderjoes.com/ca/daly-city/74/,37.7001684,-122.4822883,,,n_4008802791,"shop=supermarket, brand=Trader Joe's"
"Sleepy Hollow, CA",,retail,446120,European Wax Center,"518 Westlake Center, Daly City, 94015",,https://locations.waxcenter.com/ca/dalycity/daly-city-0134.html,37.699116,-122.482433,,,n_4008802792,"shop=beauty, brand=European Wax Center"
"Sleepy Hollow, CA",,retail,445120,ExtraMile,,,,37.8089562,-122.275155,,,n_4013865699,"shop=convenience, brand=ExtraMile"
"Sleepy Hollow, CA",,retail,446120,Diva's Beauty Supply,,,,37.8032457,-122.2816881,,,n_4014990805,shop=beauty
"Sleepy Hollow, CA",,retail,445120,Green Valley Food,,,,37.8047409,-122.2882564,,,n_4014993117,shop=convenience
"Sleepy Hollow, CA",,retail,446120,I D Hair Salon,"3950 Irving Street, San Francisco, CA, 94122",+1 415-666-0888,,37.7626724,-122.5003096,,,n_4015100316,shop=beauty
"Sleepy Hollow, CA",,retail,446120,Nghe Cung Beauty Salon,,,,37.7966932,-122.2546525,,,n_4015832241,shop=beauty
"Sleepy Hollow, CA",,retail,446120,ViVi Cosmetics,,,,37.7975962,-122.2561841,,,n_4015832260,shop=beauty
"Sleepy Hollow, CA",,retail,445230,Sun Sang Supermarket,,,,37.7935796,-122.2516156,,,n_4015833223,shop=greengrocer
"Sleepy Hollow, CA",,retail,445120,Jackson's Liquors,,,,37.793039,-122.252739,,,n_4017053175,shop=convenience
"Sleepy Hollow, CA",,retail,445230,Dong Hing Supermarket,1210 Stockton Street,,,37.7969706,-122.4083521,,,n_4017211397,shop=greengrocer
"Sleepy Hollow, CA",,retail,445230,Huaxing Produce Inc.,"1200 Stockton Street, San Francisco",,,37.7968178,-122.4083185,,,n_4017211398,shop=greengrocer
"Sleepy Hollow, CA",,retail,445210,Sun Sang Market,"1205 Stockton Street, San Francisco",,,37.7968762,-122.4086278,,,n_4017220286,shop=butcher
"Sleepy Hollow, CA",,retail,445110,J & L Vegi Supermarket,1215 Stockton Street,,,37.7970928,-122.4086681,,,n_4017220288,shop=supermarket
"Sleepy Hollow, CA",,retail,446120,Sunset Nails,"1810 Irving Street, San Francisco, CA, 94122",,,37.7636916,-122.4774505,,,n_4017234496,shop=beauty
