Location,Search Keyword,Segment,NAICS Code,Business Name,Address,Phone Number,Website,Latitude,Longitude,Rating,User Ratings,Place ID,Types
"East Niles, CA",,retail,445110,Kearney Palms Shopping Mall,,,,36.7313378,-119.801533,,,n_358763951,shop=supermarket
"East Niles, CA",,retail,445120,Sunny Market,,,,36.7502686,-119.664071,,,n_1387567040,shop=convenience
"East Niles, CA",,retail,452319,Botanica Judas Tadeo,,,,36.7348858,-119.791373,,,n_1755119709,shop=variety_store
"East Niles, CA",,retail,452319,Botanica San Judas,,,,36.7343755,-119.7908878,,,n_1755119710,shop=variety_store
"East Niles, CA",,retail,452319,Botanica,,,,36.7355283,-119.792193,,,n_1755119711,shop=variety_store
"East Niles, CA",,retail,445120,Mi Casita Astral,,,,36.7341266,-119.7906211,,,n_1755119713,shop=convenience
"East Niles, CA",,retail,445120,Fallas Discount Store,,,,36.7355522,-119.7917452,,,n_1755119742,shop=convenience
"East Niles, CA",,retail,445120,Fullerton Mini Mart,,,,36.7354286,-119.7920859,,,n_1755119757,shop=convenience
"East Niles, CA",,retail,452319,Goodwill,,,,36.7342194,-119.7907208,,,n_1755119760,shop=variety_store
"East Niles, CA",,retail,445110,El Super,,,,36.7423058,-119.7709994,,,n_1918053663,shop=supermarket
"East Niles, CA",,retail,445120,7-Eleven,,,https://www.7-eleven.com/locations/ca/fresno/6015-e-kings-canyon-19835,36.7364124,-119.681816,,,n_2277852023,"shop=convenience, brand=7-Eleven"
"East Niles, CA",,retail,445110,Save Mart,,,,36.7368982,-119.696048,,,n_2277852329,"shop=supermarket, brand=Save Mart"
"East Niles, CA",,retail,445210,Carniceria,,,,36.7660781,-119.7340987,,,n_2456462410,shop=butcher
"East Niles, CA",,retail,445110,Walmart Neighborhood Market,"1830 Shaw Avenue, Clovis, CA, 93611",+1 559-862-2718,https://www.walmart.com/store/5633-clovis-ca,36.807126,-119.680832,,,n_2653323103,"shop=supermarket, brand=Walmart, operator=Walmart"
"East Niles, CA",,retail,445120,7-Eleven,,,https://www.7-eleven.com/locations/ca/fresno/6875-north-milburn-32625,36.8365748,-119.879821,,,n_2699043110,"shop=convenience, brand=7-Eleven"
"East Niles, CA",,retail,445120,,,,,36.9950766,-120.0024988,,,n_2928185024,shop=convenience
"East Niles, CA",,retail,453991,No Limit Smoke Shop,"632 East Yosemite Avenue, Madera",+1-559-395-4878,,36.9660293,-120.0530391,,,n_2928259455,shop=tobacco
"East Niles, CA",,retail,452210,Sears,,,,36.9522544,-120.0798574,,,n_2928269302,shop=department_store
"East Niles, CA",,retail,446110,Rite Aid,,,https://www.riteaid.com/locations/ca/kerman/456-s-madera-avenue.html,36.7287496,-120.059809,,,n_2948118479,"shop=chemist, brand=Rite Aid"
"East Niles, CA",,retail,446110,CVS Pharmacy,,,,36.7341773,-120.0592976,,,n_2948121236,"shop=chemist, brand=CVS Pharmacy"
"East Niles, CA",,retail,445310,Rolinda Liquor,,,,36.73573,-119.9615781,,,n_2948126820,shop=alcohol
"East Niles, CA",,retail,445120,DJ's Dollar Daze,,,,37.0376926,-119.513003,,,n_2948376474,shop=convenience
"East Niles, CA",,retail,452319,G.I. Jim's Military Surplus,,,,37.0377821,-119.5133041,,,n_2948384514,shop=variety_store
"East Niles, CA",,retail,452319,Cloud's Cutter,,,,37.0376601,-119.5136799,,,n_2948397387,shop=variety_store
"East Niles, CA",,retail,445120,Millerton Country Store,,,,36.9704718,-119.62421,,,n_2948490923,shop=convenience
"East Niles, CA",,retail,445110,Super Save,,,,36.9752393,-120.0581264,,,n_2951614153,shop=supermarket
"East Niles, CA",,retail,445120,7-Eleven,,,,36.9741565,-120.055858,,,n_2951614162,"shop=convenience, brand=7-Eleven"
"East Niles, CA",,retail,445110,Grocery Outlet,"2820 Tulare Street, Fresno, 93721",+1 559 499-1400,https://groceryoutlet.com/,36.7397308,-119.781514,,,n_3146681807,"shop=supermarket, brand=Grocery Outlet, operator=Chris Caillier"
"East Niles, CA",,retail,452319,Minkler General Store,,,,36.7226118,-119.4575406,,,n_3202555939,shop=variety_store
"East Niles, CA",,retail,445110,Mr. G's Country Store,"2259 West Tahoe Street, Caruthers, CA, 93609",,,36.5429603,-119.831597,,,n_3483479949,shop=supermarket
"East Niles, CA",,retail,452319,Army Surplus,,,,36.7508647,-119.7896827,,,n_3545931878,shop=variety_store
"East Niles, CA",,retail,446120,Royal Nails,,,,36.8388769,-119.6811825,,,n_3545960954,shop=beauty
"East Niles, CA",,retail,452319,Family Market,,,,36.9734695,-120.0440638,,,n_3748097142,shop=variety_store
"East Niles, CA",,retail,445120,7-Eleven,"5630 East Ashlan, Fresno, CA, 93727",+1 559-291-9025,https://www.7-eleven.com/locations/ca/fresno/5630-e-ashlan-13916,36.7928168,-119.698805,,,n_4004486093,"shop=convenience, brand=7-Eleven"
"East Niles, CA",,retail,445110,Vons,"3100 Fowler Avenue, Clovis, CA, 93611",+1 559-294-6720,https://local.vons.com/ca/clovis/3100-fowler-ave.html,36.795317,-119.68425,,,n_4004486094,"shop=supermarket, brand=Vons"
"East Niles, CA",,retail,445110,SaveMart,Clovis,,,36.8101207,-119.6737704,,,n_4005055083,shop=supermarket
"East Niles, CA",,retail,445310,Vallee,"Clovis, CA",,,36.8099489,-119.6745965,,,n_4005055084,shop=alcohol
"East Niles, CA",,retail,446120,Bath & Body Works,"7820 North Via Del Rio, Fresno, CA, 93720",+15593533917,https://www.bathandbodyworks.com/?cm_mmc=local_BBW02156,36.8496986,-119.788852,,,n_4275280050,"shop=cosmetics, brand=Bath & Body Works"
"East Niles, CA",,retail,452319,99 Cents Only Stores,,,https://locations.99only.com/ca/fresno/discount-store-204.html,36.7375978,-119.7288828,,,n_4633455257,"shop=variety_store, brand=99 Cents Only Stores"
"East Niles, CA",,retail,445110,WinCo Foods,,,,36.7333331,-119.719699,,,n_4633455258,"shop=supermarket, brand=WinCo Foods"
"East Niles, CA",,retail,445110,Cell Pros,"5211 East Kings Canyon Road, Fresno, CA, 93727",,,36.7362918,-119.7179935,,,n_4664760803,shop=supermarket
"East Niles, CA",,retail,445292,Kogetsu-Do Confectionery,"920 F Street, 93706",559-237-2670,,36.7298574,-119.7940795,,,n_4962804742,shop=confectionery
"East Niles, CA",,retail,445110,Vallarta,,,,36.7874014,-119.752607,,,n_5568515982,"shop=supermarket, brand=Vallarta"
"East Niles, CA",,retail,445120,,,,,36.7715487,-119.8434968,,,n_5701389287,shop=convenience
"East Niles, CA",,retail,445120,Speedway,"3177 North Cedar Avenue, Fresno, CA, 93703",,https://www.speedway.com/locations/CA/Fresno/3177-N-Cedar-Ave,36.7791806,-119.7549429,,,n_5701684508,"shop=convenience, brand=Speedway"
"East Niles, CA",,retail,445120,,,,,36.8220584,-119.8695945,,,n_5704096978,shop=convenience
"East Niles, CA",,retail,445120,,,,,36.7930868,-119.8707345,,,n_5711055064,shop=convenience
"East Niles, CA",,retail,445120,,,,,36.7785991,-119.8469419,,,n_5712803093,shop=convenience
"East Niles, CA",,retail,453110,Rainbow Flowers,"5775 North Palm Avenue, Fresno, CA, 93704",+1-559-431-7701,http://rainbowflowersfresno.com,36.8223056,-119.8093294,,,n_6136636546,shop=florist
"East Niles, CA",,retail,445120,ExtraMile,,,,37.0191967,-120.131536,,,n_6196289552,"shop=convenience, brand=ExtraMile"
"East Niles, CA",,retail,452319,Five Below,"6467 North Riverside Drive, Fresno, CA, 93722",+1 559-500-2655,https://locations.fivebelow.com/ca/fresno/6467-riverside-drive,36.8309003,-119.908571,,,n_7929815555,"shop=variety_store, brand=Five Below"
"East Niles, CA",,retail,446120,Bath & Body Works,"6591 North Riverside Drive, Fresno, CA, 93722",+15594908294,https://www.bathandbodyworks.com/?cm_mmc=local_BBW02461,36.8332614,-119.9115155,,,n_7929815561,"shop=cosmetics, brand=Bath & Body Works"
"East Niles, CA",,retail,445110,ALDI,"1725 Herndon Avenue, Clovis, CA, 93611-0530",+1 833-479-7011,https://stores.aldi.us/ca/clovis/1725-herndon-ave,36.8378683,-119.68617,,,n_8663633215,"shop=supermarket, brand=ALDI"
"East Niles, CA",,retail,445292,See's Candies,,,,36.8085258,-119.8514261,,,n_8902386389,"shop=confectionery, brand=See's Candies"
"East Niles, CA",,retail,445120,ampm,,,,36.9969192,-120.105811,,,n_9005376644,"shop=convenience, brand=ampm"
"East Niles, CA",,retail,445120,Speedway,"2619 South East Avenue, Fresno, CA, 93706",,https://www.speedway.com/locations/CA/Fresno/2619-S-East-Ave,36.7066391,-119.7755004,,,n_9179009221,"shop=convenience, brand=Speedway"
"East Niles, CA",,retail,445110,Dollar General Market,"Clovis, CA",+1 559-712-7970,https://www.dollargeneral.com/store-directory/ca/clovis/13518,36.8223918,-119.7104875,,,n_9196747449,"shop=supermarket, brand=Dollar General"
"East Niles, CA",,retail,446120,,"4842 East Kings Canyon Road, Fresno, CA, 93727",+1-559-454-0531,https://beautiful-nails-fresno.edan.io/,36.734319,-119.7343441,,,n_9219789888,"shop=beauty, operator=Beautiful Nails"
"East Niles, CA",,retail,453991,Cigarettes,"4848 East Kings Canyon Road, Fresno, CA, 93727",+1-559-252-6400,,36.7355586,-119.7335731,,,n_9220129121,shop=tobacco
"East Niles, CA",,retail,445120,,,,,36.7348764,-119.7357137,,,n_9225655732,shop=convenience
"East Niles, CA",,retail,445110,Taj Yeeb Market,"4905 East Kings Canyon Road, Fresno, CA, 93727",+1-559-374-5950,,36.737446,-119.7312552,,,n_9225732599,shop=supermarket
"East Niles, CA",,retail,445120,,,,,36.7579461,-119.8090754,,,n_9249541392,shop=convenience
"East Niles, CA",,retail,445120,ampm,3060 East Tulare Avenue,,,36.742907,-119.7734,,,n_9596138780,"shop=convenience, brand=ampm"
"East Niles, CA",,retail,452319,Goodwill,North Blackstone Avenue,,,36.8308398,-119.7910335,,,n_9791345017,shop=variety_store
"East Niles, CA",,retail,446120,Seva Beauty,,,,36.7380953,-119.7213349,,,n_9903215200,"shop=beauty, brand=Seva Beauty"
"East Niles, CA",,retail,452319,Dollar Tree,,,https://www.dollartree.com/locations/ca/fresno/1239/,36.7346996,-119.6971238,,,n_9930852036,"shop=variety_store, brand=Dollar Tree"
"East Niles, CA",,retail,445310,,,,,36.7942579,-119.8717668,,,n_10047749874,shop=alcohol
"East Niles, CA",,retail,445120,,,,,36.9247353,-120.0265638,,,n_10141304337,shop=convenience
"East Niles, CA",,retail,445120,Love's,,,,36.9956276,-120.096592,,,n_10141370314,"shop=convenience, brand=Love's"
"East Niles, CA",,retail,446120,DaVi Nails,,,,36.8395707,-119.6953598,,,n_10246141010,"shop=beauty, brand=DaVi Nails"
"East Niles, CA",,retail,452319,99 Cents Only Stores,,,https://locations.99only.com/ca/madera/discount-store-191.html,36.9783221,-120.0723629,,,n_10288541560,"shop=variety_store, brand=99 Cents Only Stores"
"East Niles, CA",,retail,445120,7-Eleven,,,https://www.7-eleven.com/locations/ca/reedley/865-w-manning-ave-37944,36.6038238,-119.4573179,,,n_10719858049,"shop=convenience, brand=7-Eleven"
"East Niles, CA",,retail,445310,BevMo!,,,,36.8393283,-119.6975449,,,n_11253946628,"shop=alcohol, brand=BevMo!"
"East Niles, CA",,retail,446110,CVS Pharmacy,"728 West Shaw Avenue, Fresno, CA, 93704",+15592261485,https://www.cvs.com/store-locator/fresno-ca-pharmacies/728-w-shaw-ave-fresno-ca-93704/storeid=9994,36.8099614,-119.806677,,,n_11746502585,"shop=chemist, brand=CVS Pharmacy"
"East Niles, CA",,retail,446120,Bath & Body Works,"734 West Shaw Avenue, Fresno, CA, 93704",+15592216429,https://www.bathandbodyworks.com/?cm_mmc=local_BBW01702,36.810393,-119.8066889,,,n_11746502587,"shop=cosmetics, brand=Bath & Body Works"
"East Niles, CA",,retail,446120,Sola Salons,"756 West Shaw Avenue, Fresno, CA, 93704",+15595692772,https://www.solasalonstudios.com/locations/fig-garden-village,36.8115501,-119.8052818,,,n_11796266113,"shop=beauty, brand=Sola Salons"
"East Niles, CA",,retail,446120,Nails Plus Beau,"2061 West Bullard Avenue, Fresno, CA, 93711",+15594319530,,36.8218714,-119.8282882,,,n_11831553400,shop=beauty
"East Niles, CA",,retail,445310,Fig Tree Liquors,"1731 West Bullard Avenue, Fresno, CA, 93711",+15594394500,,36.8220963,-119.8259381,,,n_11831555339,shop=alcohol
"East Niles, CA",,retail,446120,Century Nail,"1731 West Bullard Avenue, Fresno, CA, 93711",+15594387516,,36.8224567,-119.8249625,,,n_11831619493,shop=beauty
"East Niles, CA",,retail,453110,In Full Bloom,"1760 West Bullard Avenue, Fresno, CA, 93711",+15594312278,https://www.infullbloomfresno.com/,36.8235331,-119.8252203,,,n_11834433799,shop=florist
"East Niles, CA",,retail,453991,GreenMile,"2014 West Bullard Avenue, Fresno, CA, 93711",+15594460500,https://greenmilesmokeshop.com/,36.8235596,-119.8267668,,,n_11840220392,shop=tobacco
"East Niles, CA",,retail,445120,Hye Market,"2012 West Bullard Avenue, Fresno, CA, 93711",+15594489791,https://hye-market.edan.io/,36.8235695,-119.8266726,,,n_11840220393,shop=convenience
"East Niles, CA",,retail,452210,Kohl's,"3699 West Shaw Avenue, Fresno, CA, 93711",+1 559-274-1470,https://www.kohls.com/stores/ca/fresno-709.shtml,36.8058718,-119.8614444,,,n_11843070048,"shop=department_store, brand=Kohl's"
"East Niles, CA",,retail,452210,dd's Discounts,"3675 West Shaw Avenue, Fresno, CA, 93711",+15592765194,https://www.ddsdiscounts.com/,36.8059361,-119.8604018,,,n_11843070049,"shop=department_store, brand=dd's Discounts"
"East Niles, CA",,retail,445110,Foods Co,"3657 West Shaw Avenue, Fresno, CA, 93711",+15592741130,https://www.foodsco.net/stores/grocery/ca/fresno/the-shaw-marketplace/704/00784?cid=loc_70400784_gmb,36.8058782,-119.8596289,,,n_11843070050,"shop=supermarket, brand=Foods Co"
"East Niles, CA",,retail,445110,Save Mart,"4120 North West Avenue, Fresno, CA, 93705",+15592226620,,36.7922572,-119.8246784,,,n_11846391884,"shop=supermarket, brand=Save Mart"
"East Niles, CA",,retail,445110,Vallarta,"1951 West Clinton Avenue, Fresno, CA, 93705",+15594763920,https://vallartasupermarkets.com/store-locations/Fresno-49,36.7708458,-119.8350155,,,n_11846391937,"shop=supermarket, brand=Vallarta"
"East Niles, CA",,retail,445292,Rocky Mountain Chocolate Factory,"130 Paseo Del Centro, Fresno, CA, 93720",+15592408360,https://www.rmcf.com/CA/Fresno50958,36.8495008,-119.7887145,,,n_11853668050,"shop=confectionery, brand=Rocky Mountain Chocolate Factory"
"East Niles, CA",,retail,446120,Sephora,"7831 North Via Del Rio, Fresno, CA, 93720",+15594461986,https://www.sephora.com/happening/stores/river-park-fresno?utm_source=gmb&utm_medium=Yext,36.8496994,-119.7892767,,,n_11861524153,"shop=cosmetics, brand=Sephora"
"East Niles, CA",,retail,446120,Shi Nails & Spa,"7880 North Via Del Rio, Fresno, CA, 93720",+15594361288,https://shinailspafresno.com/,36.8502156,-119.7885796,,,n_11865418939,shop=beauty
"East Niles, CA",,retail,446120,European Wax Center,"7885 North Via Del Rio, Fresno, CA, 93720",+15594389700,https://locations.waxcenter.com/ca/fresno/fresno-riverpark-0214.html,36.8505611,-119.7887821,,,n_11865418945,"shop=beauty, brand=European Wax Center"
"East Niles, CA",,retail,445292,See's Candies,"65 East Via La Plata, Fresno, CA, 93720",+15594316560,https://chocolateshops.sees.com/ca/fresno/chocolate_shops_fresno_ca_2ca024.html,36.8484146,-119.7895126,,,n_11867778678,"shop=confectionery, brand=See's Candies"
"East Niles, CA",,retail,446120,The Lash Lounge,"70 El Camino, Fresno, CA, 93720",+15593777118,https://www.thelashlounge.com/ca-fresno-river-park/,36.8480631,-119.7892416,,,n_11867778687,"shop=beauty, brand=The Lash Lounge"
"East Niles, CA",,retail,452319,Five Below,"7628 North Blackstone Avenue, Fresno, CA, 93720",+1 559-400-0692,https://locations.fivebelow.com/ca/fresno/7628-north-blackstone-ave,36.846845,-119.7886887,,,n_11867778693,"shop=variety_store, brand=Five Below"
"East Niles, CA",,retail,446120,Apollo Nail Salon,"7622 North Blackstone Avenue, Fresno, CA, 93720",+15594386789,https://apollonailspa.com/,36.8466669,-119.7884969,,,n_11867778694,shop=beauty
"East Niles, CA",,retail,452210,Marshalls,"7440 North Blackstone Avenue, Fresno, CA, 93720",+15594399072,https://www.marshalls.com/,36.8449379,-119.7890522,,,n_11867778701,"shop=department_store, brand=Marshalls"
"East Niles, CA",,retail,445310,BevMo!,"7639 North Blackstone Avenue, Fresno, CA, 93720",+15594312626,https://www.bevmo.com/,36.8464689,-119.7916622,,,n_11868156403,"shop=alcohol, brand=BevMo!"
"East Niles, CA",,retail,446120,Envy Nail & Spa,"132 West Nees Avenue, Fresno, CA, 93711",+15592619983,,36.8526537,-119.7921152,,,n_11875044312,shop=beauty
"East Niles, CA",,retail,445310,Riverpark Liquor,"132 West Nees Avenue, Fresno, CA, 93711",+15594325468,,36.8522898,-119.7922849,,,n_11875044316,shop=alcohol
"East Niles, CA",,retail,452319,Soccer Express,"7975 North Blackstone Avenue, Fresno, CA, 93720",+15594327511,http://www.soccerexpressinc.com/,36.8514437,-119.792201,,,n_11875044324,shop=general
"East Niles, CA",,retail,445310,Total Wine,"7925 North Blackstone Avenue, Fresno, CA, 93720",+1 559-547-3160,https://www.totalwine.com/store-info/california-fresno/1119,36.8511723,-119.7944086,,,n_11878285535,"shop=alcohol, brand=Total Wine"
"East Niles, CA",,retail,446120,Ulta Beauty,"7911 North Blackstone Avenue, Fresno, CA, 93720",+1 559-490-0907,https://www.ulta.com/stores/fresno-ca-286,36.8504388,-119.7944014,,,n_11878285538,"shop=cosmetics, brand=Ulta Beauty"
"East Niles, CA",,retail,446120,QueenBee Nails and Spa,"7723 North Blackstone Avenue, Fresno, CA, 93720",+15594395891,https://queenbeenailspafresno.com/,36.8483685,-119.7916115,,,n_11878285567,shop=beauty
"East Niles, CA",,retail,445310,Pinedale Liquor & Video,"7339 North Blackstone Avenue, Pinedale, CA, 93650",+15594368979,,36.8434106,-119.7910046,,,n_11880436685,shop=alcohol
"East Niles, CA",,retail,452210,Big Lots,"7370 North Blackstone Avenue, Fresno, CA, 93650",+15595001010,https://local.biglots.com/ca/fresno/4061,36.8440053,-119.7889885,,,n_11880436686,"shop=department_store, brand=Big Lots"
"East Niles, CA",,retail,445120,Treading Post,,,,36.864115,-119.3466713,,,n_11882462598,shop=convenience
"East Niles, CA",,retail,445110,Ponderosa Market,,,,37.0775693,-119.4849116,,,n_11882478816,shop=supermarket
"East Niles, CA",,retail,445120,MR5 Food Mart,,,,36.8201068,-119.379605,,,n_11882537614,shop=convenience
"East Niles, CA",,retail,445110,Smart & Final Extra!,"5700 North Blackstone Avenue, Fresno, CA, 93710",+15594395954,https://www.smartandfinal.com/store,36.8210667,-119.7881552,,,n_11889588912,"shop=supermarket, brand=Smart & Final"
"East Niles, CA",,retail,446120,Lucky Star Nails & Spa,"5776 North Blackstone Avenue, Fresno, CA, 93710",+15594397499,,36.8221919,-119.7898513,,,n_11898068128,shop=beauty
"East Niles, CA",,retail,445310,Redwave Liquor,"2633 East Shaw Avenue, Fresno, CA, 93710",+15593480700,https://www.instagram.com/redwave_liquor/?hl=en,36.8079235,-119.7404852,,,n_11911077827,shop=alcohol
"East Niles, CA",,retail,446120,Eternity & Beyond,"4950 North Woodrow Avenue, Fresno, CA, 93726",+15599173750,https://www.eternity-and-beyond.com/contact-us.html,36.80757,-119.740629,,,n_11911077848,shop=cosmetics
"East Niles, CA",,retail,452210,Macy's,"1732 East Shaw Avenue, Fresno, CA, 93710",+15592226611,https://www.macys.com/stores/ca/fresno/fresno-furniture-and-mattress-gallery_365.html,36.8094336,-119.755571,,,n_11911123690,"shop=department_store, brand=Macy's"
"East Niles, CA",,retail,445310,Bulldog Liquor,"4968 North Cedar Avenue, Fresno, CA, 93726",+15592260148,,36.8080773,-119.7534141,,,n_11911123725,shop=alcohol
"East Niles, CA",,retail,453991,Phoenix Fire Glass,"4921 North Blackstone Avenue, Fresno, CA, 93726",+15592314979,https://www.phoenixfireglass1.com/,36.8073532,-119.7910136,,,n_11917187132,shop=tobacco
"East Niles, CA",,retail,445120,Retro Junction,"7010 North Cedar Avenue, Fresno, CA, 93720",+15597654124,http://places.singleplatform.com/retro-junction/menu,36.8377158,-119.7532991,,,n_11919222984,shop=convenience
"East Niles, CA",,retail,446120,Healthy Nails and Spa,"6737 North Cedar Avenue, Fresno, CA, 93710",+15595588613,,36.8359482,-119.7550636,,,n_11921596298,shop=beauty
"East Niles, CA",,retail,445110,R-N Market,"6670 North Cedar Avenue, Fresno, CA, 93710",+15594398044,https://rnsupermarkets.com/,36.8351018,-119.7522239,,,n_11921596314,shop=supermarket
"East Niles, CA",,retail,452319,Dollar Tree,"6728 North Cedar Avenue, Fresno, CA, 93710",+15595540476,https://www.dollartree.com/locations/ca/fresno/1730/,36.8361612,-119.7521989,,,n_11921596317,"shop=variety_store, brand=Dollar Tree"
"East Niles, CA",,retail,446110,CVS Pharmacy,"6750 North Cedar Avenue, Fresno, CA, 93710",+15592993115,https://www.cvs.com/store-locator/fresno-ca-pharmacies/6750-n-cedar-ave-fresno-ca-93710/storeid=9149?WT.mc_id=LS_GOOGLE_FS_9149,36.8365854,-119.7522066,,,n_11921596318,"shop=chemist, brand=CVS Pharmacy"
"East Niles, CA",,retail,446120,Bellagio Nails & Spa,"7032 North Cedar Avenue, Fresno, CA, 93720",+15593226219,,36.8388412,-119.7531004,,,n_11929288185,shop=beauty
"East Niles, CA",,retail,453991,Buddha Cigar Gallery,"7028 North Cedar Avenue, Fresno, CA, 93720",+15599007446,,36.8388431,-119.7531841,,,n_11929288186,shop=tobacco
"East Niles, CA",,retail,446120,Ulta Beauty,"6587 North Riverside Drive, Fresno, CA, 93722",+1 559-277-3620,https://www.ulta.com/stores/fresno-ca-778,36.8330778,-119.9113138,,,n_11931269199,"shop=cosmetics, brand=Ulta Beauty"
"East Niles, CA",,retail,446120,Master Nails and Spa,"6493 North Riverside Drive, Fresno, CA, 93722",+15594493070,,36.8323299,-119.9080569,,,n_11932462555,shop=beauty
"East Niles, CA",,retail,446120,European Wax Center,"6525 North Riverside Drive, Fresno, CA, 93722",+15592142037,https://locations.waxcenter.com/ca/fresno/fresno-marketplace-at-el-paseo-1046.html,36.8328438,-119.9085956,,,n_11932462559,"shop=beauty, brand=European Wax Center"
"East Niles, CA",,retail,446120,Iknoor Threading Center,"6525 North Riverside Drive, Fresno, CA, 93722",+15592130684,,36.832917,-119.9086754,,,n_11932462560,shop=beauty
"East Niles, CA",,retail,452319,Five Below,"639 East Shaw Avenue, Fresno, CA, 93710",+1 559-400-0253,https://locations.fivebelow.com/ca/fresno/639-east-shaw,36.8075091,-119.7765959,,,n_11944365230,"shop=variety_store, brand=Five Below"
"East Niles, CA",,retail,446120,Ulta Beauty,"639 East Shaw Avenue, Fresno, CA, 93710",+1 559-244-0907,https://www.ulta.com/stores/fresno-ca-1322,36.8075538,-119.7752664,,,n_11944365232,"shop=cosmetics, brand=Ulta Beauty"
"East Niles, CA",,retail,446120,Sephora,"639 East Shaw Avenue, Fresno, CA, 93710",+15592223434,https://www.sephora.com/happening/stores/fresno-fashion-fair?utm_source=gmb&utm_medium=Yext,36.8072732,-119.7761214,,,n_11944365234,"shop=cosmetics, brand=Sephora"
"East Niles, CA",,retail,452210,Macy's,"4888 North Fresno Street, Fresno, CA, 93710",+15592283333,https://www.macys.com/stores/ca/fresno/fashion-fair-mall_359.html,36.8063313,-119.7797664,,,n_11944365235,"shop=department_store, brand=Macy's"
"East Niles, CA",,retail,452210,JCPenney,"555 East Shaw Avenue, Fresno, CA, 93710",+15592248330,https://www.jcpenney.com/locations/ca/fresno/clothing-stores-fresno-ca-1932.html,36.8065747,-119.7779494,,,n_11944365236,"shop=department_store, brand=JCPenney"
"East Niles, CA",,retail,446120,LUSCE BEAUTY,"485 East Shaw Avenue, Fresno, CA, 93710",+15599345992,https://www.luscebeauty.com/,36.8065654,-119.7792969,,,n_11957856151,shop=cosmetics
"East Niles, CA",,retail,452319,Mainland,"705 East Shaw Avenue, Fresno, CA, 93710",+15592244595,https://mainlandskateandsurf.com/,36.8068065,-119.7745988,,,n_11964033085,shop=general
"East Niles, CA",,retail,446120,Bath & Body Works,"677 East Shaw Avenue, Fresno, CA, 93710",+15592221979,https://www.bathandbodyworks.com/?cm_mmc=local_BBW00903,36.8068273,-119.7752735,,,n_11964033092,"shop=cosmetics, brand=Bath & Body Works"
"East Niles, CA",,retail,446120,New Eyebrow Bar,"637 East Shaw Avenue, Fresno, CA, 93710",+15592281010,,36.8068953,-119.7760818,,,n_11964033111,shop=beauty
"East Niles, CA",,retail,446120,Lush,"645 East Shaw Avenue, Fresno, CA, 93710",+15592301693,https://www.lush.com/us/en_us/?y_source=1_ODM2OTI4OC03MTUtbG9jYXRpb24ud2Vic2l0ZQ%3D%3D,36.8070776,-119.7757045,,,n_11964033112,"shop=cosmetics, brand=Lush"
"East Niles, CA",,retail,452210,Macy's,"4888 North Fresno Street, Fresno, CA, 93726",+15592283333,https://l.macys.com/fashion-fair-mall-in-fresno-ca,36.8058253,-119.7759033,,,n_11964033121,"shop=department_store, brand=Macy's"
"East Niles, CA",,retail,452210,Ross,"7487 North Blackstone Avenue, Fresno, CA, 93720",+1 559-431-6783,https://www.rossstores.com/,36.8453062,-119.7932528,,,n_11965760605,"shop=department_store, brand=Ross"
"East Niles, CA",,retail,445310,Bella Vino Cellar,"5148 North Palm Avenue, Fresno, CA, 93704",+15592268466,,36.8115268,-119.8074045,,,n_11965760609,shop=wine
"East Niles, CA",,retail,453991,Cigars Limited,"5160 North Palm Avenue, Fresno, CA, 93704",+15592210161,http://www.cigarslimited.com/,36.8115941,-119.8073443,,,n_11965760610,shop=tobacco
"East Niles, CA",,retail,446120,Young Nail & Spa,"322 East Shaw Avenue, Fresno, CA, 93710",+15592244657,https://www.fresnopedicureservice.com/,36.8090322,-119.7835382,,,n_11965803053,shop=beauty
"East Niles, CA",,retail,446120,Perfect Threading & Henna,"349 East Shaw Avenue, Fresno, CA, 93710",+15593751800,,36.8077678,-119.7826329,,,n_11968367280,shop=beauty
"East Niles, CA",,retail,446120,Pretty Nails,"391 East Shaw Avenue, Fresno, CA, 93710",+15592300537,https://puty.top/list/pretty-nails,36.8070164,-119.781768,,,n_11968367282,shop=beauty
"East Niles, CA",,retail,452319,Korea Mart,"353 East Shaw Avenue, Fresno, CA, 93710",+15594470262,,36.8075196,-119.7826296,,,n_11968367291,shop=general
"East Niles, CA",,retail,446120,Sheila's Hair Salon,"610 East Weldon Avenue, Fresno, CA, 93704",+15594428405,,36.7684352,-119.8037515,,,n_11971362094,shop=beauty
"East Niles, CA",,retail,446120,Sheer Bliss,"1922 North Echo Avenue, Fresno, CA, 93704",+15592297272,https://www.mysheerbliss.com/,36.7678382,-119.8038547,,,n_11971362104,shop=beauty
"East Niles, CA",,retail,446120,Super Perm & Cuts,"1581 North Palm Avenue, Fresno, CA, 93728",+15599603762,http://www.superpermandcuts.com/,36.7645174,-119.8090587,,,n_11971362132,shop=beauty
"East Niles, CA",,retail,453991,Shop & Dip,"1563 North Palm Avenue, Fresno, CA, 93728",,,36.7642295,-119.8088672,,,n_11971362133,shop=tobacco
"East Niles, CA",,retail,453991,Perfect Blend Fine Cigars,"729 East Olive Avenue, Fresno, CA, 93728",+15594860400,https://www.perfectblendfinecigars.com/,36.7578328,-119.8027757,,,n_11980260480,shop=tobacco
"East Niles, CA",,retail,446120,Lavish by Kash,"816 East Fern Avenue, Fresno, CA, 93728",+15592735222,,36.758593,-119.8006725,,,n_11982395027,shop=beauty
"East Niles, CA",,retail,446191,Tower Health & Diet Foods,"1130 North Fulton Street, Fresno, CA, 93728",+15592378479,,36.7572017,-119.8001137,,,n_11982446785,shop=health_food
"East Niles, CA",,retail,453991,AK Smoke Shop,"619 East Olive Avenue, Fresno, CA, 93728",+15592330447,,36.7578013,-119.8038435,,,n_11993357607,shop=tobacco
"East Niles, CA",,retail,446120,Simply Soothing Therapy,"7845 North Palm Avenue, Fresno, CA, 93711",+15594935184,https://simplysoothingtherapy.com/,36.8516857,-119.8064461,,,n_11998396174,shop=beauty
"East Niles, CA",,retail,446120,Michael Blunt Salon,,,,36.8516853,-119.8065174,,,n_11998396176,shop=beauty
"East Niles, CA",,retail,446120,Skin Remedy,"7845 North Palm Avenue, Fresno, CA, 93711",+15598628300,https://skinremedybybrenda.glossgenius.com/,36.8517379,-119.80644,,,n_11998396177,shop=beauty
"East Niles, CA",,retail,446120,Bella Nails & Spa,"784 West Palmdon Drive, Fresno, CA, 93704",+15594322934,,36.8366496,-119.8076928,,,n_12000305522,shop=beauty
"East Niles, CA",,retail,446120,In Style Nailspa,"7090 North Palm Avenue, Fresno, CA, 93650",+15593267788,https://www.facebook.com/In-Style-Nail-Spa-Fresno-104291574655263/,36.8383951,-119.8078065,,,n_12005788877,shop=beauty
"East Niles, CA",,retail,446120,Four Seasons Nails & Spa,"7076 North West Avenue, Fresno, CA, 93711",+15594326225,,36.8384797,-119.8244202,,,n_12005788955,shop=beauty
"East Niles, CA",,retail,446120,Fancy Nails & Spa,"7081 North Marks Avenue, Fresno, CA, 93711",+15594326066,https://www.nailsalonscoupons.com/,36.8389084,-119.8492592,,,n_12009128224,shop=beauty
"East Niles, CA",,retail,445310,Elite Liquors,"7089 North Marks Avenue, Fresno, CA, 93711",+15594319463,,36.8390911,-119.848447,,,n_12009128243,shop=alcohol
"East Niles, CA",,retail,446120,Organic Nails & Spa,"6770 North Brawley Avenue, Fresno, CA, 93711",+15593751821,https://organicnailspafresno.com/,36.8367871,-119.8618611,,,n_12011858786,shop=beauty
"East Niles, CA",,retail,446120,Nails Club,"6761 North Milburn Avenue, Fresno, CA, 93722",+15594388444,https://nailsclubfresno.com/,36.8359049,-119.8810633,,,n_12014418564,shop=beauty
"East Niles, CA",,retail,453991,Havana House Smoke Shop,"6737 North Milburn Avenue, Fresno, CA, 93722",+15594480222,,36.8351982,-119.8810533,,,n_12016521956,shop=tobacco
"East Niles, CA",,retail,446120,Palm Beach Tan,"6737 North Milburn Avenue, Fresno, CA, 93722",+1-559-420-7821,https://palmbeachtan.com/locations/CA/Fresno-North-Marks,36.8350854,-119.8810641,,,n_12016521957,"shop=beauty, brand=Palm Beach Tan"
"East Niles, CA",,retail,446120,Sandy's Beauty & Brows,"6737 North Milburn Avenue, Fresno, CA, 93722",+15595778033,https://sandysbeautyandbrows.com/,36.8351438,-119.8810688,,,n_12016521959,shop=beauty
"East Niles, CA",,retail,446120,Bombay Look Salon,"5362 West Spruce Avenue, Fresno, CA, 93722",+15592771228,https://www.facebook.com/pages/Bombay-Look-Salon/100564996698715,36.8386282,-119.8892391,,,n_12016522841,shop=beauty
"East Niles, CA",,retail,453110,The Gift Box,"5322 West Spruce Avenue, Fresno, CA, 93722",+15593751556,,36.838505,-119.8887257,,,n_12016522846,shop=florist
"East Niles, CA",,retail,446120,River Nails & Spa,"5322 West Spruce Avenue, Fresno, CA, 93722",+15593746268,https://www.facebook.com/rivernailsandspa2016?mibextid=LQQJ4d,36.8384026,-119.8885576,,,n_12016522847,shop=beauty
"East Niles, CA",,retail,453991,Smokers Paradise North,"5322 West Spruce Avenue, Fresno, CA, 93722",+15595588985,,36.8382431,-119.8883436,,,n_12016522848,shop=tobacco
"East Niles, CA",,retail,452210,Target,"3173 East Shields Avenue, Fresno, CA, 93726-6902",+1 559-228-8471,https://www.target.com/sl/fresno-south/314,36.7807258,-119.7709215,,,n_12035679400,"shop=department_store, brand=Target"
"East Niles, CA",,retail,452319,Dollar Tree,"625 West Herndon Avenue, Clovis, CA, 93612",+15598622029,https://www.dollartree.com/locations/ca/clovis/5404/,36.8388249,-119.725641,,,n_12037280092,"shop=variety_store, brand=Dollar Tree"
"East Niles, CA",,retail,446120,Sola Salons,"625 West Herndon Avenue, Clovis, CA, 93611",+15595692772,https://www.solasalonstudios.com/locations/clovis?utm_source=gmb&utm_medium=organic,36.8389611,-119.7256512,,,n_12037280093,"shop=beauty, brand=Sola Salons"
"East Niles, CA",,retail,453110,Buckin' Blooms,"635 West Herndon Avenue, Clovis, CA, 93612",+15594723383,https://www.buckinblooms.com/,36.839208,-119.7256815,,,n_12037280106,shop=florist
"East Niles, CA",,retail,446120,Palm Beach Tan,"635 West Herndon Avenue, Clovis, CA, 93612",+15599002164,https://palmbeachtan.com/locations/CA/Clovis-Commons,36.8394012,-119.7256775,,,n_12037280108,"shop=beauty, brand=Palm Beach Tan"
"East Niles, CA",,retail,446120,Ooh La La Nails & Spa,"635 West Herndon Avenue, Clovis, CA, 93612",+15593226363,https://oohlalanailsandspa.com/,36.8393518,-119.7256795,,,n_12037280109,shop=beauty
"East Niles, CA",,retail,446120,Facelogic Spa,"605 West Herndon Avenue, Clovis, CA, 93612",+15593247546,https://facelogicclovis.com/,36.8381894,-119.7254374,,,n_12041167840,shop=beauty
"East Niles, CA",,retail,446120,BouDoir Nailspa,"6825 North Willow Avenue, Fresno, CA, 93710",+15593234898,,36.8360545,-119.7299504,,,n_12041167863,shop=beauty
"East Niles, CA",,retail,453991,The Spot Smoke Shop,"6929 North Willow Avenue, Fresno, CA, 93710",+15595471954,,36.8372219,-119.7313393,,,n_12041173675,shop=tobacco
"East Niles, CA",,retail,446120,Spotlight Beauty Salon,"1057 North Willow Avenue, Clovis, CA, 93611",+15592979157,,36.8490179,-119.7291641,,,n_12043023011,shop=beauty
"East Niles, CA",,retail,453991,Cigarette Station,"1127 North Willow Avenue, Clovis, CA, 93611",,,36.8502956,-119.7281121,,,n_12047230530,shop=tobacco
"East Niles, CA",,retail,446120,iBeauty Nails and Spa,"1127 North Willow Avenue, Clovis, CA, 93611",+15599407968,https://ibeautynailsclovis.com/,36.8502651,-119.7281086,,,n_12047230532,shop=beauty
"East Niles, CA",,retail,446120,Le Nails & Spa,"1365 North Willow Avenue, Clovis, CA, 93619",+15592983807,,36.8539956,-119.7285852,,,n_12050638179,shop=beauty
"East Niles, CA",,retail,452319,Dollar General,"201 South Gateway Drive, Madera",+1-559-330-1545,https://www.dollargeneral.com/store-directory/ca/madera/14907,36.9602044,-120.0590281,,,n_12052100097,"shop=variety_store, brand=Dollar General"
"East Niles, CA",,retail,453110,Maggie's Floral & Gift Shop,"201 South Gateway Drive, Madera",,,36.9599879,-120.0588036,,,n_12052100099,shop=florist
"East Niles, CA",,retail,445110,El Realito de Oro,"422 South Gateway Drive, Madera",+1-559-664-8644,,36.9575021,-120.0572818,,,n_12052113202,shop=supermarket
"East Niles, CA",,retail,446110,Rite Aid,"335 West Olive Avenue, Madera",+1-559-674-2182,https://www.riteaid.com/locations/ca/madera/335-west-olive-avenue.html,36.9543269,-120.0594868,,,n_12055930793,"shop=chemist, brand=Rite Aid"
"East Niles, CA",,retail,452319,Dollar Tree,"333 West Olive Avenue, Madera",+1-559-416-5722,https://www.dollartree.com/locations/ca/madera/6451/,36.9541685,-120.0597328,,,n_12055930795,"shop=variety_store, brand=Dollar Tree"
"East Niles, CA",,retail,445310,Liquor Locker,,,,36.9654375,-120.0537364,,,n_12064198312,shop=alcohol
"East Niles, CA",,retail,445110,El Changarro MX,"608 East Yosemite Avenue, Madera",,,36.9655748,-120.0535387,,,n_12064198313,shop=supermarket
"East Niles, CA",,retail,446120,Aqua Nail Bar,"2950 East Nees Avenue, Fresno, CA, 93720",+15592989818,https://aquanailsbar.com/,36.8536523,-119.7312629,,,n_12143522795,shop=beauty
"East Niles, CA",,retail,445310,JK Liquor,"2930 East Nees Avenue, Fresno, CA, 93720",+15592992476,https://www.fresnoliquorstore.com/,36.8530051,-119.7316256,,,n_12145177139,shop=alcohol
"East Niles, CA",,retail,445120,Sanjha Punjab,"2930 East Nees Avenue, Fresno, CA, 93720",+15595122500,,36.8531169,-119.7316341,,,n_12145177141,shop=convenience
"East Niles, CA",,retail,446120,Estancia Day Spa & Salon,"2950 East Nees Avenue, Fresno, CA, 93720",+15592980200,https://www.estanciadayspa.com/,36.8536482,-119.7316043,,,n_12145177145,shop=beauty
"East Niles, CA",,retail,452319,Dollar Tree,"2950 North Fowler Avenue, Fresno, CA, 93727",+1-559-550-7064,https://www.dollartree.com/locations/ca/fresno/7214/,36.7789434,-119.6816025,,,n_12146616464,"shop=variety_store, brand=Dollar Tree"
"East Niles, CA",,retail,445120,Fast N Esy #7,"6451 East Shields Avenue, Fresno, CA, 93727",+1-559-346-0835,,36.7788749,-119.6736619,,,n_12146625518,shop=convenience
"East Niles, CA",,retail,453991,Cigar Mas Fino,"1568 East Nees Avenue, Fresno, CA, 93720",+15593260060,http://www.cigarmasfino.com/,36.8523873,-119.7549966,,,n_12151119030,shop=tobacco
"East Niles, CA",,retail,446120,Four Seasons Tanning,"8060 North Cedar Avenue, Fresno, CA, 93720",+15592998266,https://fourseasonstanningfresno.com/,36.8532326,-119.7552564,,,n_12234358101,shop=beauty
"East Niles, CA",,retail,446120,Sonia Tello,"8054 North Cedar Avenue, Fresno, CA, 93720",+15598994551,https://makeupbysonia.net/,36.8530634,-119.7552706,,,n_12234358104,shop=beauty
"East Niles, CA",,retail,446120,Top Nails & Spa,"8845 North Cedar Avenue, Fresno, CA, 93720",+15594489404,,36.8644954,-119.7583594,,,n_12285698003,shop=beauty
"East Niles, CA",,retail,446120,Hands over Heels Salon,"8837 North Cedar Avenue, Fresno, CA, 93720",+15594384029,https://headoverheelssalonfresno.com/,36.8643558,-119.7583629,,,n_12285698006,shop=beauty
"East Niles, CA",,retail,445310,Vintage Reserve Wine,"1552 East Champlain Drive, Fresno, CA, 93720",+15598783953,https://vintagereserve.biz/,36.8678946,-119.7549572,,,n_12320041635,shop=wine
"East Niles, CA",,retail,446120,Afterglow,"1552 East Champlain Drive, Fresno, CA, 93720",+15594922204,https://www.afterglowfresno.com/,36.8678239,-119.7549142,,,n_12320041636,shop=beauty
"East Niles, CA",,retail,446120,Meraki Salon and Spa,"1528 East Champlain Drive, Fresno, CA, 93720",+15593751163,,36.866926,-119.7554006,,,n_12320041653,shop=beauty
"East Niles, CA",,retail,446120,Emerald Nails & Spa,"1528 East Champlain Drive, Fresno, CA, 93720",,,36.866958,-119.7556932,,,n_12320041655,shop=beauty
"East Niles, CA",,retail,446120,Savage Serenity Medical Spa,"997 East Champlain Drive, Fresno, CA, 93720",+15593888726,https://savageserenityspa.com/,36.8720167,-119.7656019,,,n_12363619495,shop=beauty
"East Niles, CA",,retail,446120,WAVES,"1145 East Champlain Drive, Fresno, CA, 93720",,,36.8701677,-119.7632833,,,n_12363619520,shop=beauty
"East Niles, CA",,retail,446120,Wonderful Threading & Henna Art,"1173 East Champlain Drive, Fresno, CA, 93720",+15592934919,,36.8704596,-119.7630669,,,n_12363619529,shop=beauty
"East Niles, CA",,retail,446120,Season Nails & Spa,"1175 East Champlain Drive, Fresno, CA, 93720",+15594345051,,36.8704995,-119.7630403,,,n_12363619530,shop=beauty
"East Niles, CA",,retail,445310,Wine Barrel,"1105 East Champlain Drive, Fresno, CA, 93720",+15594340922,,36.8706771,-119.7653715,,,n_12363619532,shop=alcohol
"East Niles, CA",,retail,453991,Cali Smoke Shop,"1097 East Champlain Drive, Fresno, CA, 93720",+15593696351,,36.8707918,-119.7656185,,,n_12411478984,shop=tobacco
"East Niles, CA",,retail,446120,True REST Float Spa,"1144 East Champlain Drive, Fresno, CA, 93720",+15597214336,https://truerest.com/locations/fresno/,36.8722081,-119.7623174,,,n_12411532623,shop=beauty
"East Niles, CA",,retail,446120,Creative Nails,"1102 East Champlain Drive, Fresno, CA, 93720",+15594336763,,36.8721074,-119.7639149,,,n_12411532631,shop=beauty
"East Niles, CA",,retail,453110,Flora Flower Co.,"2888 East Shepherd Avenue, Fresno, CA, 93720",+15597126232,http://floraflowerco.com/,36.8680378,-119.7308543,,,n_12479605911,shop=florist
"East Niles, CA",,retail,446120,,"2886 East Shepherd Avenue, Fresno, CA, 93720",+15596809990,https://alyrinanailsandspa.com/,36.8675658,-119.7313082,,,n_12479605914,shop=beauty
"East Niles, CA",,retail,446120,Faith Nails & Spa,"8939 North Chestnut Avenue, Fresno, CA, 93720",+15592988809,,36.865817,-119.7403189,,,n_12479905207,shop=beauty
"East Niles, CA",,retail,446120,Adorn Nails and Spa,"682 East Nees Avenue, Fresno, CA, 93720",+15594323676,https://adornnailsandspafresno.com/,36.8522727,-119.7728921,,,n_12554940593,shop=beauty
"East Niles, CA",,retail,453991,Fresno Cigarettes & Cigars,"7773 North First Street, Fresno, CA, 93720",+15594352600,,36.8515417,-119.7769655,,,n_12588785488,shop=tobacco
"East Niles, CA",,retail,453110,Elegant Flowers,"7771 North First Street, Fresno, CA, 93720",+15594510431,http://elegantflowersfresno.com/,36.8514716,-119.7769601,,,n_12588785489,shop=florist
"East Niles, CA",,retail,446120,LV Nails Spa,"7765 North First Street, Fresno, CA, 93720",+15598782959,https://gocheckin.link/book@EKe12N,36.8513973,-119.7769612,,,n_12588785491,shop=beauty
"East Niles, CA",,retail,446191,ActivMeals,"7757 North First Street, Fresno, CA, 93720",+15595006699,https://activmeals.com/,36.8511448,-119.7769665,,,n_12588785493,shop=health_food
"East Niles, CA",,retail,446120,First Lady Nails,"7728 North First Street, Fresno, CA, 93720",+15594382328,http://firstladynails.net/,36.850779,-119.7739394,,,n_12588851105,shop=beauty
"East Niles, CA",,retail,446120,R&G Threading Bar,"7795 North First Street, Fresno, CA, 93720",+15592315650,,36.8516507,-119.7754986,,,n_12588851116,shop=beauty
"East Niles, CA",,retail,445120,O'Neals Marketplace,,,,37.1251441,-119.7362486,,,n_12616938742,shop=convenience
"East Niles, CA",,retail,445120,Fresh Fill Modern Market,,,,36.922261,-119.7988581,,,n_12617690771,shop=convenience
"East Niles, CA",,retail,446120,LaserAway,"8346 North Fresno Street, Fresno, CA, 93720",+15597859830,https://www.laseraway.com/locations/ca/fresno,36.8550237,-119.7834002,,,n_12688460508,"shop=beauty, brand=LaserAway"
"East Niles, CA",,retail,446120,Neon Nails & Spa,"8480 North Friant Road, Fresno, CA, 93720",+15594345678,https://neonnailsspa.com/,36.8583508,-119.7835972,,,n_12692449344,shop=beauty
"East Niles, CA",,retail,446120,Copper Nails & Spa,"2042 East Copper Avenue, Fresno, CA, 93730",+15599815789,https://coppernailspa.com/,36.8963163,-119.7461402,,,n_12748350531,shop=beauty
"East Niles, CA",,retail,453110,Conroy's Flowers,3377 West Shaw Avenue,,https://www.conroysflowersfresno.com/,36.8078532,-119.8532422,,,n_12864274645,shop=florist
"East Niles, CA",,retail,445310,Liquor 4u,,,,36.8077353,-119.8530657,,,n_12864274647,shop=alcohol
"East Niles, CA",,retail,452319,Dollar Tree,,,,36.9727921,-120.0433477,,,n_12968488483,"shop=variety_store, brand=Dollar Tree"
"East Niles, CA",,retail,452319,Family Dollar,,,,36.9717339,-120.0431216,,,n_12968589405,"shop=variety_store, brand=Family Dollar"
"East Niles, CA",,retail,452319,Dollar Tree,"930 Herndon Avenue, Clovis, CA, 93612",+15596283471,https://locations.dollartree.com/ca/clovis/930-herndon-avenue,36.8362686,-119.696649,,,n_12974807491,"shop=variety_store, brand=Dollar Tree"
"East Niles, CA",,retail,452210,Ross,"920 Herndon Avenue, Clovis, CA, 93612",+15593248679,https://www.rossstores.com/,36.836206,-119.6971493,,,n_12974807492,"shop=department_store, brand=Ross"
"East Niles, CA",,retail,446120,Impression Nails and Spa,"950 Herndon Avenue, Clovis, CA, 93612",+15597974686,,36.8366082,-119.6963375,,,n_12974807497,shop=beauty
"East Niles, CA",,retail,445110,FoodMaxx,"5422 North Blackstone Avenue, Fresno, CA",+1 559 438 5368,,36.8167919,-119.7881573,,,n_12976103524,"shop=supermarket, brand=FoodMaxx"
"East Niles, CA",,retail,445310,Mann's Liquor #3,"6023 North Figarden Drive, Fresno, CA, 93722",,,36.8227349,-119.8716077,,,n_13058515359,shop=alcohol
"East Niles, CA",,retail,446120,Leslies Nails,"6061 West Figarden Drive, Fresno, CA, 93722",,,36.8238648,-119.8715253,,,n_13058515371,shop=beauty
"East Niles, CA",,retail,445120,76,,,,36.6784635,-119.7371651,,,n_13071724640,"shop=convenience, brand=76"
"East Niles, CA",,retail,445120,ampm,,,,36.6773987,-119.7373935,,,n_13071724656,"shop=convenience, brand=ampm"
"East Niles, CA",,retail,445120,ExtraMile,,,,36.6773544,-119.7359498,,,n_13071724672,"shop=convenience, brand=ExtraMile"
"East Niles, CA",,retail,445120,7-Eleven,"385 West Shaw Avenue, Fresno, CA, 93704",,,36.8080839,-119.7991578,,,n_13072781257,"shop=convenience, brand=7-Eleven"
"East Niles, CA",,retail,445110,,,,,36.7128285,-119.5579737,,,w_61143784,shop=supermarket
"East Niles, CA",,retail,445110,,,,,36.6095964,-119.547263,,,w_61173419,shop=supermarket
"East Niles, CA",,retail,445110,Valley Foods Supermarket,,,,36.5962581,-119.4548797,,,w_61174332,shop=supermarket
"East Niles, CA",,retail,445110,,,,,36.5889848,-119.6096493,,,w_61176020,shop=supermarket
"East Niles, CA",,retail,445110,,,,,36.6108107,-119.5309213,,,w_61177013,shop=supermarket
"East Niles, CA",,retail,445110,,,,,36.5702913,-119.6097889,,,w_61206668,shop=supermarket
"East Niles, CA",,retail,445310,,,,,36.8524294,-119.7928247,,,w_61218976,shop=alcohol
"East Niles, CA",,retail,452210,Macy's,"7890 North Blackstone Avenue, Fresno, CA, 93720",+15594513333,https://www.macys.com/stores/ca/fresno/river-park-shopping-center_369.html,36.8507977,-119.7896004,,,w_61258394,"shop=department_store, brand=Macy's"
"East Niles, CA",,retail,445110,Sprouts Farmers Market,"7477 North Blackstone Avenue, Fresno, CA, 93720",+15592561735,https://sprouts.com/store/ca/fresno/fresno,36.844848,-119.7933015,,,w_61297849,"shop=supermarket, brand=Sprouts Farmers Market"
"East Niles, CA",,retail,452319,Dollar Tree,"7457 North Blackstone Avenue, Fresno, CA, 93720",+15594706973,https://www.dollartree.com/locations/ca/fresno/8812/,36.8447144,-119.7911727,,,w_61307737,"shop=variety_store, brand=Dollar Tree"
"East Niles, CA",,retail,452210,,,,,36.8434926,-119.7870374,,,w_61308626,shop=department_store
"East Niles, CA",,retail,445110,,,,,36.8386611,-119.8487511,,,w_61311046,shop=supermarket
"East Niles, CA",,retail,453110,D & L Flowers,"7280 North Blackstone Avenue, Fresno, CA, 93650",+18006401542,https://www.dandlroses.com/,36.8424051,-119.7901035,,,w_61338321,shop=florist
"East Niles, CA",,retail,445110,Save Mart,,,,36.8221919,-119.7707492,,,w_61405180,"shop=supermarket, brand=Save Mart"
"East Niles, CA",,retail,452210,,,,,36.7926613,-119.7892951,,,w_61470087,shop=department_store
"East Niles, CA",,retail,445110,,,,,36.7801366,-119.8608308,,,w_61474443,shop=supermarket
"East Niles, CA",,retail,445110,,,,,36.7653247,-119.8183419,,,w_61545996,shop=supermarket
"East Niles, CA",,retail,445110,CentralValleyTalk.com,"1212 North Van Ness Avenue, Fresno, CA, 93728",,,36.7580118,-119.7985637,,,w_61549727,shop=supermarket
"East Niles, CA",,retail,445110,Ventura,,,,36.7351923,-119.7703471,,,w_61574023,shop=supermarket
"East Niles, CA",,retail,445110,,,,,36.7426508,-119.7356458,,,w_61607297,shop=supermarket
"East Niles, CA",,retail,445110,,,,,36.7709167,-119.8637684,,,w_61612017,shop=supermarket
"East Niles, CA",,retail,445110,,,,,36.7727483,-119.7917506,,,w_61617557,shop=supermarket
"East Niles, CA",,retail,445120,SB Food Market,,,,36.7289007,-119.7541821,,,w_61700113,shop=convenience
"East Niles, CA",,retail,445110,,,,,36.7137241,-119.7542047,,,w_61705455,shop=supermarket
"East Niles, CA",,retail,445110,,,,,36.7330216,-119.8026065,,,w_61707777,shop=supermarket
"East Niles, CA",,retail,445110,,,,,36.732714,-119.7983345,,,w_61708270,shop=supermarket
"East Niles, CA",,retail,445120,7-Eleven,"2397 South Chestnut Avenue, Fresno, CA, 93725-1206",+1 559-252-5221,https://www.7-eleven.com/locations/ca/fresno/2397-s-chestnut-ave-16970,36.7144587,-119.7361454,,,w_61709343,"shop=convenience, brand=7-Eleven"
"East Niles, CA",,retail,445110,FoodMaxx,1177 Fresno,,,36.7316187,-119.8018371,,,w_61709882,"shop=supermarket, brand=FoodMaxx"
"East Niles, CA",,retail,452210,,,,,36.7328382,-119.7884538,,,w_61710426,shop=department_store
"East Niles, CA",,retail,445110,Shaibi Market,,,,36.706607,-119.7587558,,,w_61820806,shop=supermarket
"East Niles, CA",,retail,445310,Cavalier Liquor,,,,36.706622,-119.7564362,,,w_61821009,shop=alcohol
"East Niles, CA",,retail,445120,Jeylla Miscellaneous,,,,36.7066215,-119.7574935,,,w_61821337,shop=convenience
"East Niles, CA",,retail,445110,Discount Market,,,,36.7072245,-119.7575759,,,w_61821396,shop=supermarket
"East Niles, CA",,retail,445120,,,,,36.7071729,-119.7518215,,,w_61821504,shop=convenience
"East Niles, CA",,retail,445110,WinCo Foods,,,,36.792021,-119.7172257,,,w_61865534,"shop=supermarket, brand=WinCo Foods"
"East Niles, CA",,retail,445110,,,,,36.8075539,-119.6810095,,,w_61879563,shop=supermarket
"East Niles, CA",,retail,445110,,,,,36.6347024,-119.7912057,,,w_62018606,shop=supermarket
"East Niles, CA",,retail,446110,Walgreens,"610 East Nees Avenue, Fresno, CA, 93720",+15594311379,https://www.walgreens.com/locator/walgreens-610+e+nees+ave-fresno-ca-93720/id=5847,36.8525373,-119.7739046,,,w_85933065,"shop=chemist, brand=Walgreens"
"East Niles, CA",,retail,445110,Sprouts Farmers Market,"850 Herndon Avenue, Clovis, CA, 93612",+1 559-326-1169,https://www.sprouts.com/store/ca/clovis/herndon-ave/,36.8362051,-119.6981742,,,w_130006614,"shop=supermarket, brand=Sprouts Farmers Market"
"East Niles, CA",,retail,445110,Save Mart Supermarket,"1835 Herndon Ave, Clovis, 93611",,,36.8388475,-119.6823725,,,w_130006709,"shop=supermarket, operator=SaveMart"
"East Niles, CA",,retail,445110,Vons,"5638 East Kings Canyon Road, Fresno, CA, 93727",+1 559-458-0209,https://local.vons.com/ca/fresno/5638-e-kings-canyon.html,36.7344613,-119.6984011,,,w_131506703,"shop=supermarket, brand=Vons"
"East Niles, CA",,retail,445110,Save Mart,"7733 North 1ST, 93720",,https://local.vons.com/ca/fresno-2181.html,36.8506695,-119.7734044,,,w_131509884,"shop=supermarket, brand=Save Mart"
"East Niles, CA",,retail,445110,Vons,"8949 North Cedar Avenue, Fresno, CA, 93720",+1 559-438-1403,https://local.vons.com/ca/fresno/8949-n-cedar-ave.html,36.864927,-119.7585325,,,w_131511269,"shop=supermarket, brand=Vons"
"East Niles, CA",,retail,446110,Walgreens,,,https://www.walgreens.com/locator/walgreens-2424+n+brawley+ave-fresno-ca-93722/id=10335,36.7724626,-119.8616755,,,w_164253341,"shop=chemist, brand=Walgreens"
"East Niles, CA",,retail,445110,WinCo Foods,,,,36.8112039,-119.8726913,,,w_164623689,"shop=supermarket, brand=WinCo Foods"
"East Niles, CA",,retail,445120,Valero,,,,36.80866,-119.8741899,,,w_164623692,"shop=convenience, brand=Valero"
"East Niles, CA",,retail,445110,Los Amigos,,,,36.7137677,-119.7541681,,,w_183599497,shop=supermarket
"East Niles, CA",,retail,445110,Walmart Supercenter,"5125 East Kings Canyon Road, Fresno, CA, 93727",+1 559-252-9457,https://www.walmart.com/store/2001/fresno-ca,36.7382473,-119.7217907,,,w_183654763,"shop=supermarket, brand=Walmart, operator=Walmart"
"East Niles, CA",,retail,446110,Rite Aid,,,https://www.riteaid.com/locations/ca/fresno/3795-west-shields-avenue.html,36.7785198,-119.8616981,,,w_191505145,"shop=chemist, brand=Rite Aid"
"East Niles, CA",,retail,446110,CVS Pharmacy,,,,36.7706606,-119.8644872,,,w_191509577,"shop=chemist, brand=CVS Pharmacy"
"East Niles, CA",,retail,445110,Savemart,,,,36.7705872,-119.8633482,,,w_191509578,shop=supermarket
"East Niles, CA",,retail,445110,Vons,"1650 Herndon Avenue, Clovis, CA, 93611",+1 559-297-6410,https://local.vons.com/ca/clovis/1650-herndon-ave.html,36.8357029,-119.6850394,,,w_225438033,"shop=supermarket, brand=Vons"
"East Niles, CA",,retail,452210,Target,"695 West Herndon Avenue, Clovis, CA, 93612",+15593210009,https://www.target.com/sl/clovis-nw/2018,36.8403248,-119.7283412,,,w_225638319,"shop=department_store, brand=Target"
"East Niles, CA",,retail,445310,,,,,36.6588371,-119.5943886,,,w_256667014,shop=alcohol
"East Niles, CA",,retail,445310,,10777 morro,,,36.6583556,-119.594354,,,w_256667022,shop=alcohol
"East Niles, CA",,retail,445110,Walmart Supercenter,"2761 Jensen Avenue, Sanger, CA, 93657",+1 559-875-4268,https://www.walmart.com/store/4238-sanger-ca,36.7056002,-119.5776672,,,w_256667499,"shop=supermarket, brand=Walmart, operator=Walmart"
"East Niles, CA",,retail,446110,CVS Pharmacy,,,,37.0381034,-119.5170325,,,w_292517462,"shop=chemist, brand=CVS Pharmacy"
"East Niles, CA",,retail,445110,MarVal,,,,37.0370339,-119.5171013,,,w_292517469,shop=supermarket
"East Niles, CA",,retail,452210,Target,"7600 North Blackstone Avenue, Fresno, CA, 93720",+15594310104,https://www.target.com/sl/blackstone-and-nees-ave/911,36.8475095,-119.7864877,,,w_309859481,"shop=department_store, brand=Target"
"East Niles, CA",,retail,445120,Shasta Market,,,,36.7341827,-120.1050826,,,w_321249285,shop=convenience
"East Niles, CA",,retail,452210,Burlington,"685 West Herndon Avenue, Clovis, CA, 93612",+1 559-314-0217,https://stores.burlington.com/ca/clovis/1449/,36.8401213,-119.7273571,,,w_370657581,"shop=department_store, brand=Burlington"
"East Niles, CA",,retail,452210,TJ Maxx,"675 West Herndon Avenue, Clovis, CA, 93612",+15592980172,https://tjmaxx.tjx.com/store/index.jsp,36.8401235,-119.7268998,,,w_370657582,"shop=department_store, brand=TJ Maxx"
"East Niles, CA",,retail,445110,Grocery Outlet,"1848 Clovis Avenue, Clovis, CA, 93612",,,36.8093716,-119.7015751,,,w_443634069,"shop=supermarket, brand=Grocery Outlet"
"East Niles, CA",,retail,445110,Grocery Outlet,"5175 East Belmont Avenue, Fresno, CA, 93727",,,36.7517028,-119.7192675,,,w_443634070,"shop=supermarket, brand=Grocery Outlet"
"East Niles, CA",,retail,452319,Family Dollar,,,,36.7516169,-119.7197082,,,w_443634072,"shop=variety_store, brand=Family Dollar"
"East Niles, CA",,retail,445110,Grocery Outlet,"1825 East Ashlan Avenue, Fresno, CA, 93726",+15592263663,https://www.groceryoutlet.com/circulars/storeid/56?utm_source=extnet&utm_medium=yext,36.7947192,-119.7887503,,,w_443634073,"shop=supermarket, brand=Grocery Outlet"
"East Niles, CA",,retail,445110,Walmart Neighborhood Market,"6855 North Willow Avenue, Fresno, CA, 93710",+1 559-862-2062,https://www.walmart.com/store/5634-fresno-ca,36.8363082,-119.7311121,,,w_454970361,"shop=supermarket, brand=Walmart, operator=Walmart"
"East Niles, CA",,retail,445110,Walmart Supercenter,"1804 East Ashlan Avenue, Fresno, CA, 93726",+1 559-470-6967,https://www.walmart.com/store/5632-fresno-ca,36.792721,-119.7891694,,,w_457196948,"shop=supermarket, brand=Walmart, operator=Walmart"
"East Niles, CA",,retail,446110,Rite Aid,"2011 West Shaw Avenue, Fresno, CA, 93711",+15592240920,https://www.riteaid.com/locations/ca/fresno/2011-west-shaw-avenue.html,36.8076703,-119.8270319,,,w_457810549,"shop=chemist, brand=Rite Aid"
"East Niles, CA",,retail,452210,TJ Maxx,"2097 West Shaw Avenue, Fresno, CA, 93711",+15592288086,https://tjmaxx.tjx.com/store/index.jsp,36.8073687,-119.8289684,,,w_457810554,"shop=department_store, brand=TJ Maxx"
"East Niles, CA",,retail,452210,Ross,"4950 East Kings Canyon Road, Fresno, CA, 93727",+1 559-458-0184,,36.7342019,-119.7303931,,,w_469148772,"shop=department_store, brand=Ross"
"East Niles, CA",,retail,445110,SF Supermarket,,,,36.7341442,-119.7291226,,,w_469148774,"shop=supermarket, brand=SF Supermarket"
"East Niles, CA",,retail,452319,Dollar Tree,,,https://www.dollartree.com/locations/ca/fresno/1217/,36.7342481,-119.7282371,,,w_469148776,"shop=variety_store, brand=Dollar Tree"
"East Niles, CA",,retail,445310,,,,,36.7139485,-119.7452051,,,w_469150938,shop=alcohol
"East Niles, CA",,retail,452319,Dollar Tree,,,https://www.dollartree.com/locations/ca/fresno/1241/,36.7428263,-119.7687662,,,w_469563533,"shop=variety_store, brand=Dollar Tree"
"East Niles, CA",,retail,445110,Vallarta,,,,36.7298168,-119.7348693,,,w_471237605,"shop=supermarket, brand=Vallarta"
"East Niles, CA",,retail,445310,Cavalier Liquor,,,,36.7066349,-119.7565693,,,w_479170359,shop=alcohol
"East Niles, CA",,retail,445110,Foods Co,"4838 East Kings Canyon Road, Fresno, CA, 93727",+1-559-456-9050,https://www.foodsco.net/stores/details/704/00316,36.7341065,-119.7350583,,,w_491652201,"shop=supermarket, brand=Foods Co"
"East Niles, CA",,retail,446110,Walgreens,"4810 East Kings Canyon Road, Fresno, CA, 93727",+1-559-458-0141,https://www.walgreens.com/locator/walgreens-4810+e+kings+canyon+rd-fresno-ca-93727/id=6386,36.7353502,-119.7356692,,,w_491652206,"shop=chemist, brand=Walgreens"
"East Niles, CA",,retail,446110,Walgreens,"8975 North Chestnut Avenue, Fresno, CA, 93720",+15593256439,https://www.walgreens.com/locator/walgreens-8975+n+chestnut+ave-fresno-ca-93720/id=7266,36.8661013,-119.7395519,,,w_522312011,"shop=chemist, brand=Walgreens"
"East Niles, CA",,retail,452210,Target,"5740 North Blackstone Avenue, Fresno, CA, 93710",+15594318622,https://www.target.com/sl/blackstone-and-bullard/1417,36.8216761,-119.7878804,,,w_553164173,"shop=department_store, brand=Target"
"East Niles, CA",,retail,445120,Fast'N'Esy #5,,,,36.7655823,-119.7188029,,,w_578377011,"shop=convenience, brand=Shell"
"East Niles, CA",,retail,445110,Walmart Supercenter,"14061 West Whitesbridge Avenue, Kerman, CA, 93630",+1 559-846-1200,https://www.walmart.com/store/5701/kerman-ca,36.7326529,-120.0440871,,,w_578544817,"shop=supermarket, brand=Walmart, operator=Walmart"
"East Niles, CA",,retail,446110,Walgreens,"852 East Manning Avenue, Reedley, 93654",+1 559 643 0367,https://www.walgreens.com/locator/walgreens-852+e+manning+ave-reedley-ca-93654/id=12298,36.6046736,-119.4402856,,,w_578841687,"shop=chemist, brand=Walgreens"
"East Niles, CA",,retail,445110,Rancho San Miguel Market,,,,36.9711989,-120.0436533,,,w_582483130,shop=supermarket
"East Niles, CA",,retail,445120,Vallee Food Store,10091 N Maple Ave,(559)433-9370,,36.8817905,-119.7478787,,,w_583846244,shop=convenience
"East Niles, CA",,retail,445110,Whole Foods Market,"650 West Shaw Avenue, Fresno, CA, 93740",+1 559-241-0300,https://www.wholefoodsmarket.com/stores/fresno,36.8090992,-119.8054408,,,w_610073242,"shop=supermarket, brand=Whole Foods Market"
"East Niles, CA",,retail,445120,Chevron,,,,36.8378951,-119.6991612,,,w_610280639,"shop=convenience, brand=Chevron"
"East Niles, CA",,retail,445110,Walmart Supercenter,"1185 Herndon Avenue, Clovis, CA, 93612",+1 559-321-0067,https://www.walmart.com/store/5337-clovis-ca,36.8397512,-119.6956662,,,w_610594839,"shop=supermarket, brand=Walmart, operator=Walmart"
"East Niles, CA",,retail,452210,Target,"900 Shaw Avenue, Clovis, CA, 93612-3900",+1 559-297-4691,https://www.target.com/sl/clovis/358,36.8065372,-119.6989326,,,w_620473382,"shop=department_store, brand=Target"
"East Niles, CA",,retail,446110,CVS Pharmacy,,,https://www.cvs.com/store-locator/clovis-ca-pharmacies/1405-herndon-ave-clovis-ca-93611/storeid=9933,36.8382031,-119.6903989,,,w_626428645,"shop=chemist, brand=CVS Pharmacy"
"East Niles, CA",,retail,445120,Chukchansi Crossing,,,,37.214163,-119.7071519,,,w_675098639,shop=convenience
"East Niles, CA",,retail,445110,Walmart Supercenter,"3400 Floral Avenue, Selma, CA, 93662",+1 559-891-7190,https://www.walmart.com/store/1882-selma-ca,36.5772514,-119.6344352,,,w_692373193,"shop=supermarket, brand=Walmart, operator=Walmart"
"East Niles, CA",,retail,445110,Walmart Neighborhood Market,"3131 North Cedar Avenue, Fresno, CA, 93703",+1 559-538-1375,https://www.walmart.com/store/2689-fresno-ca,36.7789529,-119.7562426,,,w_692381020,"shop=supermarket, brand=Walmart, operator=Walmart"
"East Niles, CA",,retail,445110,Walmart Supercenter,"323 West Shaw Avenue, Clovis, CA, 93612",+1 559-297-4176,https://www.walmart.com/store/2277-clovis-ca,36.8113285,-119.716866,,,w_692391356,"shop=supermarket, brand=Walmart, operator=Walmart"
"East Niles, CA",,retail,445110,Walmart Supercenter,"7065 North Ingram Avenue, Fresno, CA, 93650",+1 559-431-0107,https://www.walmart.com/store/2985-fresno-ca,36.8391793,-119.8032897,,,w_692404431,"shop=supermarket, brand=Walmart, operator=Walmart"
"East Niles, CA",,retail,452210,Walmart,"1977 West Cleveland Avenue, Madera, CA, 93637",+1 559-675-9212,https://www.walmart.com/store/1583-madera-ca,36.9756352,-120.0806542,,,w_692569292,"shop=department_store, brand=Walmart, operator=Walmart"
"East Niles, CA",,retail,445110,Trader Joe's,"1077 North Willow Avenue, Clovis, CA, 93611",+15593253120,https://locations.traderjoes.com/ca/clovis/180/?utm_source=gmb&utm_medium=organic&utm_campaign=local,36.8492525,-119.7279445,,,w_697404511,"shop=supermarket, brand=Trader Joe's"
"East Niles, CA",,retail,445120,,,,,36.7934342,-119.7174715,,,w_733414653,shop=convenience
"East Niles, CA",,retail,445120,Valero,"16981 Road 26, Madera, CA, 93638",,,36.9960286,-120.0738022,,,w_765926337,"shop=convenience, brand=Valero"
"East Niles, CA",,retail,452319,Dollar General,,,https://www.dollargeneral.com/store-directory/ca/madera/18287,36.999665,-120.0749825,,,w_765926346,"shop=variety_store, brand=Dollar General"
"East Niles, CA",,retail,445210,Meat Market,,,,36.9924848,-120.0747421,,,w_765926349,shop=butcher
"East Niles, CA",,retail,445110,Pak 'N Save,"2237 West Cleveland Avenue, Madera, CA, 93637",,https://local.safeway.com,36.9768095,-120.0836431,,,w_765926357,shop=supermarket
"East Niles, CA",,retail,445110,Grocery Outlet,,,,36.9740756,-120.0798505,,,w_765938996,"shop=supermarket, brand=Grocery Outlet"
"East Niles, CA",,retail,452210,Target,"6655 North Riverside Drive, Fresno, CA, 93722",+15594905567,https://www.target.com/sl/fresno-nw/2744,36.8341621,-119.9127463,,,w_849978112,"shop=department_store, brand=Target"
"East Niles, CA",,retail,452210,Marshalls,"6549 North Riverside Drive, Fresno, CA, 93722",+15592773211,https://www.marshalls.com/,36.8323698,-119.9105952,,,w_849978117,"shop=department_store, brand=Marshalls"
"East Niles, CA",,retail,452210,Ross,"6541 North Riverside Drive, Fresno, CA, 93722",+1 559-276-5004,https://www.rossstores.com/,36.832152,-119.9102218,,,w_849978118,"shop=department_store, brand=Ross"
"East Niles, CA",,retail,452210,Burlington,"6509 North Riverside Drive, Fresno, CA, 93722",+1 559-271-1598,https://stores.burlington.com/ca/fresno/858/,36.8317621,-119.9098512,,,w_849978119,"shop=department_store, brand=Burlington"
"East Niles, CA",,retail,445120,Food Mart,,,,36.9612241,-120.060062,,,w_926253123,shop=convenience
"East Niles, CA",,retail,445120,ampm,"101 North Gateway Drive, Madera",,https://www.ampm.com,36.9619022,-120.0606257,,,w_926253132,"shop=convenience, brand=ampm"
"East Niles, CA",,retail,445110,Smart & Final,,,,36.8100676,-119.8519115,,,w_962413340,"shop=supermarket, brand=Smart & Final"
"East Niles, CA",,retail,445120,Arco,,,,36.8090243,-119.6375461,,,w_973905485,shop=convenience
"East Niles, CA",,retail,445120,Johnny Quick,,,,36.8234519,-119.6822799,,,w_973905487,shop=convenience
"East Niles, CA",,retail,446120,Wish Salon and Boutique,,,,36.8233942,-119.682648,,,w_973905490,shop=beauty
"East Niles, CA",,retail,445110,Peacock Market,,,,36.8272813,-119.6903453,,,w_973910496,shop=supermarket
"East Niles, CA",,retail,446110,CVS Pharmacy,,,,36.7343223,-120.0595194,,,w_983166950,"shop=chemist, brand=CVS Pharmacy"
"East Niles, CA",,retail,446110,Rite Aid,"5574 East Kings Canyon Road, Fresno, CA, 93727",,https://www.riteaid.com/locations/ca/fresno/5574-east-kings-canyon.html,36.7347314,-119.7006996,,,w_983581264,"shop=chemist, brand=Rite Aid"
"East Niles, CA",,retail,446110,Walgreens,,,https://www.walgreens.com/locator/walgreens-626+s+clovis+ave-fresno-ca-93727/id=6082,36.7365284,-119.7007287,,,w_983581271,"shop=chemist, brand=Walgreens"
"East Niles, CA",,retail,445120,Valero,,,,36.7381962,-119.6995522,,,w_983581278,"shop=convenience, brand=Valero"
"East Niles, CA",,retail,445120,Chevron,,,,36.7354542,-119.7004103,,,w_983581284,"shop=convenience, brand=Chevron"
"East Niles, CA",,retail,445120,,,,,36.736482,-119.6951679,,,w_983581288,shop=convenience
"East Niles, CA",,retail,446110,Rite Aid,"4224 East Shields Avenue, Fresno, CA, 93726",,,36.7791902,-119.7534811,,,w_993527530,"shop=chemist, brand=Rite Aid"
"East Niles, CA",,retail,445120,ampm,"4897 East Kings Canyon Road, Fresno, CA, 93727",+1-559-255-4910,https://www.ampm.com/,36.736416,-119.7326272,,,w_999745524,"shop=convenience, brand=ampm"
"East Niles, CA",,retail,452210,Big Lots,"4895 East Kings Canyon Road, Fresno, CA, 93727",+1-559-456-8492,https://local.biglots.com/ca/fresno/4895-e-kings-canyon-rd,36.7374284,-119.7323623,,,w_999745525,"shop=department_store, brand=Big Lots"
"East Niles, CA",,retail,445120,Jack's Car Wash Co.,"8995 North Cedar Avenue, Fresno, CA, 93720",+15594357335,https://jackscarwashfresno.com/,36.8661766,-119.757322,,,w_1056817896,shop=convenience
"East Niles, CA",,retail,445120,Bubble Clean,"8004 North Cedar Avenue, Fresno, CA, 93720",+15593249194,,36.852627,-119.7561968,,,w_1056817938,shop=convenience
"East Niles, CA",,retail,446110,Rite Aid,"8027 North Cedar Avenue, Fresno, CA, 93720",+15594311002,https://www.riteaid.com/locations/ca/fresno/8027-north-cedar-avenue.html,36.8526327,-119.7575182,,,w_1056817940,"shop=chemist, brand=Rite Aid"
"East Niles, CA",,retail,446120,Palm Beach Tan,"8460 North Friant Road, Fresno, CA, 93720",+15594207856,https://palmbeachtan.com/locations/CA/Fresno-North-First/,36.857776,-119.7840735,,,w_1057102519,"shop=beauty, brand=Palm Beach Tan"
"East Niles, CA",,retail,445120,,,,,37.1777434,-119.764825,,,w_1057102538,shop=convenience
"East Niles, CA",,retail,445110,Family Express Food & Liquor,"1102 Fresno Street, Fresno, CA, 93706",+1 559-233-8615,,36.7296311,-119.8006044,,,w_1063934882,shop=supermarket
"East Niles, CA",,retail,445110,Save Mart,,,,36.8232318,-119.828136,,,w_1109087619,"shop=supermarket, brand=Save Mart"
"East Niles, CA",,retail,445110,Walmart Supercenter,"4080 West Shaw Avenue, Fresno, CA, 93722",+1 559-277-8191,https://www.walmart.com/store/1815-fresno-ca,36.8109437,-119.8642423,,,w_1130956089,"shop=supermarket, brand=Walmart"
"East Niles, CA",,retail,445120,ampm,"7020 North Blythe Avenue, Fresno, CA, 93722",+15594122020,https://www.ampm.com/,36.8376434,-119.870638,,,w_1160049064,"shop=convenience, brand=ampm"
"East Niles, CA",,retail,445210,The Meat Up,"7010 N Marks Ave, Fresno, CA, 93711",(559) 963-6328,https://www.themeatup.com/,36.8376903,-119.8470566,,,w_1181505731,shop=butcher
"East Niles, CA",,retail,445120,ampm,,,,36.8378662,-119.6982025,,,w_1214654291,"shop=convenience, brand=ampm"
"East Niles, CA",,retail,445310,Zippy Mart Liquor,"6780 West Herndon Avenue, Fresno, CA, 93722",,,36.8366615,-119.9131161,,,w_1217273076,shop=alcohol
"East Niles, CA",,retail,445120,Food Shop,,,,36.8261498,-119.691417,,,w_1217440963,shop=convenience
"East Niles, CA",,retail,445120,,,,,36.9904892,-119.710685,,,w_1230452468,shop=convenience
"East Niles, CA",,retail,452319,Dollar General,5385 South Elm Avenue,,https://www.dollargeneral.com/store-directory/ca/fresno/15320,36.6573083,-119.7914178,,,w_1230901586,"shop=variety_store, brand=Dollar General"
"East Niles, CA",,retail,452210,Target,"3150 West Shaw Avenue, Fresno, CA, 93711",+15592757059,https://www.target.com/sl/fresno-west/275,36.8096289,-119.8479239,,,w_1234972612,"shop=department_store, brand=Target"
"East Niles, CA",,retail,446110,Walgreens,"1300 West Yosemite Avenue, Madera, CA, 93637",,https://www.walgreens.com/locator/walgreens-1300+w+yosemite+ave-madera-ca-93637/id=6453,36.9521589,-120.0732273,,,w_1236015814,"shop=chemist, brand=Walgreens"
"East Niles, CA",,retail,445120,1 Stop Shop,,,,36.7655569,-119.7550461,,,w_1237426481,shop=convenience
"East Niles, CA",,retail,452319,Dollar Tree,"917 East Olive Avenue, Fresno, CA, 93728",+15595507835,https://www.dollartree.com/locations/ca/fresno/2600/,36.7583717,-119.8000683,,,w_1245203419,"shop=variety_store, brand=Dollar Tree"
"East Niles, CA",,retail,445120,7-Eleven,"1596 North Palm Avenue, Fresno, CA, 93728",+1 559-264-4511,https://www.7-eleven.com/locations/ca/fresno/1596-n-palm-19198,36.7645311,-119.8081711,,,w_1245209053,"shop=convenience, brand=7-Eleven"
"East Niles, CA",,retail,446110,Walgreens,"1016 West Shaw Avenue, Fresno, CA, 93711",+15592292361,https://www.walgreens.com/locator/walgreens-1016+w+shaw+ave-fresno-ca-93711/id=13871,36.8089231,-119.8092744,,,w_1257943858,"shop=chemist, brand=Walgreens"
"East Niles, CA",,retail,445120,Chevron,"7216 North Blackstone Avenue, Pinedale, CA, 93650",+15594391445,https://www.chevronwithtechron.com/station/,36.841204,-119.7900127,,,w_1268415922,"shop=convenience, brand=Chevron"
"East Niles, CA",,retail,452210,Kohl's,"175 East Alluvial Avenue, Fresno, CA, 93720",+1 559-261-9445,https://www.kohls.com/stores/ca/fresno-724.shtml,36.8431773,-119.7860749,,,w_1268416428,"shop=department_store, brand=Kohl's"
"East Niles, CA",,retail,445120,7-Eleven,"5758 North Palm Avenue, Fresno, CA, 93704",+1 559-431-5454,https://www.7-eleven.com/locations/ca/fresno/5758-n-palm-13913,36.8222592,-119.8077729,,,w_1270467895,"shop=convenience, brand=7-Eleven"
"East Niles, CA",,retail,445110,Aldi,"2072 West Shaw Avenue, Fresno, CA, 93711",+18559552534,https://stores.aldi.us/ca/fresno/2072-w-shaw-ave,36.8097522,-119.8281899,,,w_1275177631,"shop=supermarket, brand=Aldi"
"East Niles, CA",,retail,452319,Dollar Tree,"4010 North West Avenue, Fresno, CA, 93705",+15595507836,https://www.dollartree.com/locations/ca/fresno/5788/,36.7904308,-119.8260439,,,w_1275944037,"shop=variety_store, brand=Dollar Tree"
"East Niles, CA",,retail,452210,dd's Discounts,"4040 North West Avenue, Fresno, CA, 93705",+15592302629,https://www.ddsdiscounts.com/,36.7907377,-119.8246112,,,w_1275944040,"shop=department_store, brand=dd's Discounts"
"East Niles, CA",,retail,445110,Hillside Supermarket,,,,37.1606716,-119.7488963,,,w_1278898865,shop=supermarket
"East Niles, CA",,retail,445120,7-Eleven,"7314 North Blackstone Avenue, Fresno, CA, 93650",+1 559-439-9231,https://www.7-eleven.com/locations/ca/fresno/7314-n-blackstone-23947,36.8429965,-119.7900608,,,w_1279806952,"shop=convenience, brand=7-Eleven"
"East Niles, CA",,retail,445120,Valero,"7264 North Blackstone Avenue, Fresno, CA, 93650",+15593890573,,36.8421381,-119.7900513,,,w_1279806956,"shop=convenience, brand=Valero"
"East Niles, CA",,retail,445120,ampm,"6375 North Blackstone Avenue, Fresno, CA, 93710",+15594322502,https://www.ampm.com/,36.8297634,-119.7911424,,,w_1280941670,"shop=convenience, brand=ampm"
"East Niles, CA",,retail,452210,Burlington,"5630 North Blackstone Avenue, Fresno, CA, 93710",+1 559-432-2628,https://stores.burlington.com/ca/fresno/299/,36.8202897,-119.7878546,,,w_1280941672,"shop=department_store, brand=Burlington"
"East Niles, CA",,retail,445120,ampm,"6020 North Blackstone Avenue, Fresno, CA, 93710",+15594361248,https://www.ampm.com/,36.8235261,-119.789949,,,w_1282096547,"shop=convenience, brand=ampm"
"East Niles, CA",,retail,445120,7-Eleven,"6015 North Blackstone Avenue, Fresno, CA, 93710",+1 559-436-1217,https://www.7-eleven.com/locations/ca/fresno/6015-n-blackstone-ave-25141,36.8232287,-119.7908762,,,w_1282096548,"shop=convenience, brand=7-Eleven"
"East Niles, CA",,retail,452319,Kennel Marketplace,"3010 East Campus Pointe Drive, Fresno, CA, 93710",+15593700557,http://www.thekennelmarketplace.com/,36.8125404,-119.7357717,,,w_1282722616,shop=general
"East Niles, CA",,retail,445120,7-Eleven,"2389 East Shaw Avenue, Fresno, CA, 93710",+1 559-229-2400,https://www.7-eleven.com/locations/ca/fresno/2389-e-shaw-ave-16947,36.8080714,-119.745672,,,w_1283804876,"shop=convenience, brand=7-Eleven"
"East Niles, CA",,retail,445120,Gulf Express,"1418 East Shaw Avenue, Fresno, CA, 93710",+15592270323,,36.8090389,-119.7628182,,,w_1283804887,"shop=convenience, brand=Gulf Express"
"East Niles, CA",,retail,445120,Bad Bud's,"6777 North Cedar Avenue, Fresno, CA, 93710",+15594388970,,36.8370607,-119.754733,,,w_1284793069,shop=convenience
"East Niles, CA",,retail,445120,One Star Mini Mart,"4206 North Blackstone Avenue, Fresno, CA, 93726",+15592223077,,36.794514,-119.7899783,,,w_1286736049,shop=convenience
"East Niles, CA",,retail,445120,ampm,,,,36.8525968,-119.7707029,,,w_1290260682,"shop=convenience, brand=ampm"
"East Niles, CA",,retail,446110,CVS Pharmacy,"4987 North Fresno Street, Fresno, CA, 93710",+15592277137,https://www.cvs.com/store-locator/fresno-ca-pharmacies/4987-n-fresno-st-fresno-ca-93726/storeid=6772?WT.mc_id=LS_GOOGLE_FS_6772,36.8081052,-119.7818587,,,w_1290574479,"shop=chemist, brand=CVS Pharmacy"
"East Niles, CA",,retail,445120,C's Oasis,"388 East Shaw Avenue, Fresno, CA, 93710",,,36.8090317,-119.7819252,,,w_1290574482,shop=convenience
"East Niles, CA",,retail,445120,Day and Night Markets,"7505 North Willow Avenue, Clovis, CA, 93612",+15599407538,https://dayandnightmarkets.com/,36.8453761,-119.730352,,,w_1290654478,shop=convenience
"East Niles, CA",,retail,445120,Shop-N-Go,"1197 North Willow Avenue, Clovis, CA, 93611",+15593247644,,36.8518162,-119.7289041,,,w_1290671942,shop=convenience
"East Niles, CA",,retail,445310,Bulldog Liquor,"420 East Shaw Avenue, Fresno, CA, 93710",+15592266926,https://instagram.com/bulldog.liquor?igshid=OGQ5ZDc2ODk2ZA==,36.8089646,-119.7809798,,,w_1290843592,shop=alcohol
"East Niles, CA",,retail,445310,Circle C Market,"16246 East Kings Canyon Road, Sanger, CA, 93657",+15597872111,,36.7337343,-119.4971168,,,w_1292294357,shop=alcohol
"East Niles, CA",,retail,445110,Tower Market & Deli,"1233 North Van Ness Avenue, Fresno, CA, 93728",+15592661060,,36.7585626,-119.799392,,,w_1292559158,shop=supermarket
"East Niles, CA",,retail,446110,Walgreens,"7015 North West Avenue, Fresno, CA, 93711",+15594401404,https://www.walgreens.com/locator/walgreens-7015+n+west+ave-fresno-ca-93711/id=7204,36.8377783,-119.8270969,,,w_1295614975,"shop=chemist, brand=Walgreens"
"East Niles, CA",,retail,445120,Shop-N-Go,"7010 North West Avenue, Fresno, CA, 93711",+15594314964,,36.8376095,-119.8255507,,,w_1295614977,shop=convenience
"East Niles, CA",,retail,446110,CVS Pharmacy,"7096 North West Avenue, Fresno, CA, 93711",+15594360471,https://www.cvs.com/store-locator/fresno-ca-pharmacies/7096-n-west-ave-fresno-ca-93711/storeid=9865?WT.mc_id=LS_GOOGLE_FS_9865,36.8387423,-119.8255444,,,w_1295614978,"shop=chemist, brand=CVS Pharmacy"
"East Niles, CA",,retail,445110,The Market,"7088 North West Avenue, Fresno, CA, 93711",+15594323306,https://www.themarketfresno.com/,36.8387727,-119.8248598,,,w_1295614979,shop=supermarket
"East Niles, CA",,retail,445120,ExtraMile,"6745 North West Avenue, Fresno, CA, 93711",+15593888201,https://www.chevronextramile.com/station-finder/1459-w-olive-ave-fresno-ca-93728-2819-id96329/,36.8368734,-119.8269155,,,w_1295994818,"shop=convenience, brand=ExtraMile"
"East Niles, CA",,retail,445110,Save Mart,"7075 North Marks Avenue, Fresno, CA, 93711",+15594391020,,36.8383771,-119.8493456,,,w_1295994829,"shop=supermarket, brand=Save Mart"
"East Niles, CA",,retail,446110,CVS Pharmacy,"6800 North Milburn Avenue, Fresno, CA, 93722",+15594513486,https://www.cvs.com/store-locator/fresno-ca-pharmacies/6800-n-milburn-ave-fresno-ca-93722/storeid=9846?WT.mc_id=LS_GOOGLE_FS_9846,36.8365353,-119.8783156,,,w_1296570404,"shop=chemist, brand=CVS Pharmacy"
"East Niles, CA",,retail,445110,Save Mart,"6797 North Milburn Avenue, Fresno, CA, 93722",+15592614123,,36.8363258,-119.8812579,,,w_1296570410,"shop=supermarket, brand=Save Mart"
"East Niles, CA",,retail,445120,Day & Night,"5310 West Spruce Avenue, Fresno, CA, 93722",+15592779666,,36.8377504,-119.8887366,,,w_1296810348,shop=convenience
"East Niles, CA",,retail,445120,ampm,"825 North Willow Avenue, Clovis, CA, 93611",+15599407062,https://www.ampm.com/,36.8455633,-119.7287433,,,w_1300170423,"shop=convenience, brand=ampm"
"East Niles, CA",,retail,453110,Plaza Flower Shop,"201 North I Street, Madera",+1-559-673-9197,https://www.plazaflowershop.com/,36.9604196,-120.0647213,,,w_1300652044,shop=florist
"East Niles, CA",,retail,446110,CVS Pharmacy,"1107 North Willow Avenue, Clovis, CA, 93611",+15593220340,https://www.cvs.com/store-locator/clovis-ca-pharmacies/1107-n-willow-ave-clovis-ca-93611/storeid=3940?WT.mc_id=LS_GOOGLE_FS_3940,36.850009,-119.7279309,,,w_1300680056,"shop=chemist, brand=CVS Pharmacy"
"East Niles, CA",,retail,445110,Save Mart,"1157 North Willow Avenue, Clovis, CA, 93611",+15592970109,,36.8509465,-119.7279234,,,w_1300680058,"shop=supermarket, brand=Save Mart"
"East Niles, CA",,retail,445110,Grocery Outlet,,,,36.8527084,-119.7307762,,,w_1300680060,"shop=supermarket, brand=Grocery Outlet"
"East Niles, CA",,retail,445120,Food Mart,,,,36.9624465,-120.0625463,,,w_1300705772,shop=convenience
"East Niles, CA",,retail,445110,El Mercado,"119 South C Street, Madera",+1-559-673-7855,,36.9628772,-120.0565099,,,w_1300721488,shop=supermarket
"East Niles, CA",,retail,445120,Fast 'N' Esy,"1235 North Willow Avenue, Clovis, CA, 93619",,,36.8525195,-119.7290593,,,w_1301044650,shop=convenience
"East Niles, CA",,retail,445120,"Gas ""N"" Go",211 South Madera Avenue,,,36.9545901,-120.0557959,,,w_1301590870,shop=convenience
"East Niles, CA",,retail,445120,Smokeshop & Foodmart,"514 South Gateway Drive, Madera",,,36.9564328,-120.0558865,,,w_1301785357,shop=convenience
"East Niles, CA",,retail,445110,Gateway Market,"518 South Gateway Drive, Madera",,,36.9563257,-120.0557888,,,w_1301785358,shop=supermarket
"East Niles, CA",,retail,445110,Trader Joe's,"8478 North Friant Road, Fresno, CA, 93720",+15594336478,https://locations.traderjoes.com/ca/fresno/8/?utm_source=gmb&utm_medium=organic&utm_campaign=local,36.8580489,-119.7825897,,,w_1318168329,"shop=supermarket, brand=Trader Joe's"
"East Niles, CA",,retail,446110,CVS Pharmacy,,,,36.8367322,-119.7803908,,,w_1319945973,"shop=chemist, brand=CVS Pharmacy"
"East Niles, CA",,retail,445120,Johnny Quik Food Store,"7995 North Cedar Avenue, Fresno, CA, 93720",+15594318852,,36.8517415,-119.7573572,,,w_1322066059,shop=convenience
"East Niles, CA",,retail,445110,Save Mart,"1107 East Champlain Drive, Fresno, CA, 93720",+15594330280,https://www.savemart.com/stores/823325b4-95e8-408b-8700-2ccef4104e8e/WASHINGTON%20SQ/78/FRESNO,36.8704222,-119.7650585,,,w_1322312488,"shop=supermarket, brand=Save Mart"
"East Niles, CA",,retail,446110,CVS Pharmacy,"1113 East Champlain Drive, Fresno, CA, 93720",+15594342158,https://www.cvs.com/store-locator/fresno-ca-pharmacies/1113-e-champlain-dr-fresno-ca-93720/storeid=9391?WT.mc_id=LS_GOOGLE_FS_9391,36.8700136,-119.764312,,,w_1322312490,"shop=chemist, brand=CVS Pharmacy"
"East Niles, CA",,retail,452319,Dollar Tree,"1544 East Champlain Drive, Fresno, CA, 93720",+15594706050,https://www.dollartree.com/locations/CA/fresno/3676/,36.8681991,-119.7551852,,,w_1331536616,"shop=variety_store, brand=Dollar Tree"
"East Niles, CA",,retail,445120,,,,,36.8084395,-119.8856598,,,w_1348302801,shop=convenience
"East Niles, CA",,retail,445120,Chevron,,,,36.808509,-119.8846482,,,w_1348306777,"shop=convenience, brand=Chevron"
"East Niles, CA",,retail,445110,Food 4 Less,"8921 North Chestnut Avenue, Fresno, CA, 93720",+15593222280,https://food4lesscentralvalley.com/,36.8653963,-119.7405814,,,w_1349153160,"shop=supermarket, brand=Food 4 Less"
"East Niles, CA",,retail,446110,Walgreens,,,,36.82296,-119.8698222,,,w_1351974883,"shop=chemist, brand=Walgreens"
"East Niles, CA",,retail,445110,Smart & Final Extra!,"7733 North First Street, Fresno, CA, 93720",+15594409266,https://www.smartandfinal.com/store,36.850595,-119.7762077,,,w_1356528333,"shop=supermarket, brand=Smart & Final"
"East Niles, CA",,retail,445120,,,,,36.815334,-119.7898524,,,w_1362729245,shop=convenience
"East Niles, CA",,retail,445120,,,,,36.8161842,-119.7909727,,,w_1412095840,shop=convenience
"East Niles, CA",,retail,452319,Dollar Tree,"6380 North Figarden Dr, Fresno, CA, 93722",,,36.8258172,-119.869243,,,w_1421009923,"shop=variety_store, brand=Dollar Tree"
"East Niles, CA",,retail,445120,ampm,"5665 North Figarden Dr, Fresno, CA, 93722",,,36.8219277,-119.8711948,,,w_1421009930,"shop=convenience, brand=ampm"
