Location,Search Keyword,Segment,NAICS Code,Business Name,Address,Phone Number,Website,Latitude,Longitude,Rating,User Ratings,Place ID,Types
"New Pine Creek, CA",,retail,445120,FastBreak,"17697 US 395 (OR), Lakeview, OR, 97630",,,42.2107601,-120.3562709,,,n_6157500836,"shop=convenience, brand=FastBreak"
"New Pine Creek, CA",,retail,445120,FastBreak,"1206 South G Street, Lakeview, OR, 97630",,,42.1731151,-120.347699,,,n_6157509505,"shop=convenience, brand=FastBreak"
"New Pine Creek, CA",,retail,445120,Coyote Quick Stop,,,,42.1923032,-120.3462711,,,n_6157555658,shop=convenience
"New Pine Creek, CA",,retail,453110,Back Yard Florist,,,,42.1900043,-120.3461486,,,n_6157555660,shop=florist
"New Pine Creek, CA",,retail,445110,Safeway,"244 North F Street, Lakeview, OR, 97630",+1 541-947-2324,https://local.safeway.com/safeway/or/lakeview/244-n-f-st.html,42.1917703,-120.3452678,,,w_457223557,"shop=supermarket, brand=Safeway"
"New Pine Creek, CA",,retail,452319,Dollar General,"716 North 4th Street, Lakeview, OR, 97630",,https://www.dollargeneral.com/store-directory/or/lakeview/16898,42.1937506,-120.3475281,,,w_1139107998,"shop=variety_store, brand=Dollar General"
"New Pine Creek, CA",,retail,445120,Fastbreak,"715 North 4th Street, Lakeview, OR, 97630",,,42.1929407,-120.3474558,,,w_1139108008,"shop=convenience, brand=Fastbreak"
