Location,Search Keyword,Segment,NAICS Code,Business Name,Address,Phone Number,Website,Latitude,Longitude,Rating,User Ratings,Place ID,Types
"Oakhurst, CA",,retail,445120,Lush Meadows Market,,,,37.5067517,-119.825106,,,n_825273804,shop=convenience
"Oakhurst, CA",,retail,446120,Shooting Star Sanctuary,"2272 Highway 49 South, Mariposa, CA, 95338",+1 209 829 9739,http://www.shootingstarsanctuary.com/,37.4505362,-119.7609122,,,n_2479259520,shop=beauty
"Oakhurst, CA",,retail,445120,Mini-Mart Liquor & Deli,,,,37.332078,-119.6545992,,,n_2926179877,shop=convenience
"Oakhurst, CA",,retail,445120,EZ Mart,"40135 Highway 41, Oakhurst, CA",,,37.3313773,-119.6544219,,,n_2926186729,shop=convenience
"Oakhurst, CA",,retail,445120,DJ's Dollar Daze,,,,37.0376926,-119.513003,,,n_2948376474,shop=convenience
"Oakhurst, CA",,retail,452319,G.I. Jim's Military Surplus,,,,37.0377821,-119.5133041,,,n_2948384514,shop=variety_store
"Oakhurst, CA",,retail,452319,Cloud's Cutter,,,,37.0376601,-119.5136799,,,n_2948397387,shop=variety_store
"Oakhurst, CA",,retail,445120,Bob's Market,,,,37.1068112,-119.3190463,,,n_3549410919,shop=convenience
"Oakhurst, CA",,retail,445292,Yosemite Sweet Tooth,,,,37.4845705,-119.9650703,,,n_4643608878,shop=confectionery
"Oakhurst, CA",,retail,446120,Mariposa Hair Salon,,,,37.4856909,-119.9657276,,,n_4643611861,shop=beauty
"Oakhurst, CA",,retail,445120,,"Highway 140, El Portal, CA, 95318",,,37.6786151,-119.7646827,,,n_4814284226,shop=convenience
"Oakhurst, CA",,retail,445292,Reimer's Candies and Gifts,"41969 Highway 41, Oakhurst, CA, 93644",+1-559-642-3232,https://www.reimerscandies.com/,37.359317,-119.6442488,,,n_4889009564,shop=confectionery
"Oakhurst, CA",,retail,445120,Sweetwater,,,,37.4842237,-119.9644883,,,n_5860100905,shop=convenience
"Oakhurst, CA",,retail,445120,,,,,37.357387,-119.60852,,,n_5940951485,shop=convenience
"Oakhurst, CA",,retail,445110,Grocery Outlet,,,,37.3341395,-119.656658,,,n_6597719928,"shop=supermarket, brand=Grocery Outlet"
"Oakhurst, CA",,retail,453110,,,,,37.3338531,-119.6488783,,,n_6819116700,shop=florist
"Oakhurst, CA",,retail,445120,Woodland Gas Food & Liquor,"3441 Woodland Drive, Mariposa, 95338",,,37.4498738,-119.8518622,,,n_7903298277,shop=convenience
"Oakhurst, CA",,retail,445110,Ponderosa Market,,,,37.0775693,-119.4849116,,,n_11882478816,shop=supermarket
"Oakhurst, CA",,retail,452319,Dollar Tree,,,,37.3325324,-119.6560844,,,n_12050509862,"shop=variety_store, brand=Dollar Tree"
"Oakhurst, CA",,retail,445120,O'Neals Marketplace,,,,37.1251441,-119.7362486,,,n_12616938742,shop=convenience
"Oakhurst, CA",,retail,445120,,,,,37.2183125,-119.7083978,,,n_12976070755,shop=convenience
"Oakhurst, CA",,retail,445110,Vons,"40044 Highway 49, Oakhurst, CA, 93644",+1 559-642-4250,https://local.vons.com/ca/oakhurst/40044-hwy-49.html,37.3303815,-119.6590395,,,w_132687487,"shop=supermarket, brand=Vons"
"Oakhurst, CA",,retail,446110,CVS Pharmacy,,,https://www.cvs.com/store-locator/oakhurst-ca-pharmacies/40044-highway-49-oakhurst-ca-93644/storeid=9935,37.3308586,-119.6596974,,,w_132687488,"shop=chemist, brand=CVS Pharmacy"
"Oakhurst, CA",,retail,445120,Wawona General Store,,,,37.537626,-119.6574437,,,w_164768949,shop=convenience
"Oakhurst, CA",,retail,445110,Pioneer Market,,,,37.4884852,-119.9718514,,,w_178548438,shop=supermarket
"Oakhurst, CA",,retail,446110,Rite Aid,"4994 Joe Howard Street, Mariposa, CA, 95338",+1-209-742-7600,https://www.riteaid.com/locations/ca/mariposa/4994-joe-howard-street.html,37.4919638,-119.9741492,,,w_178548441,"shop=chemist, brand=Rite Aid"
"Oakhurst, CA",,retail,445120,Midpines Country Store,,,,37.5513941,-119.9234457,,,w_227744524,shop=convenience
"Oakhurst, CA",,retail,452319,Ken's Market & Fountain,,,,37.1113372,-119.3202064,,,w_292148102,shop=variety_store
"Oakhurst, CA",,retail,446110,CVS Pharmacy,,,,37.0381034,-119.5170325,,,w_292517462,"shop=chemist, brand=CVS Pharmacy"
"Oakhurst, CA",,retail,445110,MarVal,,,,37.0370339,-119.5171013,,,w_292517469,shop=supermarket
"Oakhurst, CA",,retail,445120,Pine Tree Market,"7995 Chilnualna Falls Road, Wawona, CA, 95389",,,37.5480292,-119.6444518,,,w_341082085,shop=convenience
"Oakhurst, CA",,retail,445110,High Country Health Food Store & Cafe,"5186 Highway 49, Mariposa, CA, 95338",,highcountryhealthfoods.com,37.4931273,-119.9744951,,,w_417225039,shop=supermarket
"Oakhurst, CA",,retail,445120,Ahwahnee Mart Gas Station,,,,37.3676861,-119.7254564,,,w_419118110,shop=convenience
"Oakhurst, CA",,retail,445110,Raley's,,,,37.3332991,-119.6567875,,,w_419118117,"shop=supermarket, brand=Raley's"
"Oakhurst, CA",,retail,452319,Stage Stop Mini Mart,"5099 Central Yosemite Highway, Mariposa, CA, 95338",,,37.4885152,-119.9696594,,,w_457828569,"shop=general, amenity=fast_food"
"Oakhurst, CA",,retail,445120,El Portal Market,"10913 Central Yosemite Highway (CA-140), El Portal, CA, 95318",,,37.6746522,-119.7821847,,,w_470135473,shop=convenience
"Oakhurst, CA",,retail,445120,Chukchansi Crossing,,,,37.214163,-119.7071519,,,w_675098639,shop=convenience
"Oakhurst, CA",,retail,445120,,,,,37.4889628,-119.8122365,,,w_675104593,shop=convenience
"Oakhurst, CA",,retail,445120,Fish Camp General Store,,,,37.4782879,-119.6384038,,,w_727358801,shop=convenience
"Oakhurst, CA",,retail,445120,7-Eleven,,,,37.334246,-119.6462345,,,w_727506060,"shop=convenience, brand=7-Eleven"
"Oakhurst, CA",,retail,445310,Yosemite Wine Tails,,,,37.3337394,-119.6479605,,,w_727506065,shop=alcohol
"Oakhurst, CA",,retail,445120,Chevron,,,,37.2997694,-119.5366421,,,w_878824596,"shop=convenience, brand=Chevron"
"Oakhurst, CA",,retail,452319,Happy Camper General Store,,,,37.1218669,-119.3110334,,,w_977084834,shop=general
"Oakhurst, CA",,retail,452319,Sierra Marina Store,,,,37.1519007,-119.2983691,,,w_977375212,shop=general
"Oakhurst, CA",,retail,452319,Shaver Lake Marina Store,,,,37.1265002,-119.3070941,,,w_977377043,shop=general
"Oakhurst, CA",,retail,452319,,,,,37.3532789,-119.3400463,,,w_1011496238,shop=general
"Oakhurst, CA",,retail,445120,,,,,37.1777434,-119.764825,,,w_1057102538,shop=convenience
"Oakhurst, CA",,retail,446110,Yosemite Drug,,,,37.2622404,-119.6999038,,,w_1130603759,shop=chemist
"Oakhurst, CA",,retail,445120,,,,,37.2617832,-119.6997862,,,w_1137965714,shop=convenience
"Oakhurst, CA",,retail,445120,,,,,36.9904892,-119.710685,,,w_1230452468,shop=convenience
"Oakhurst, CA",,retail,445110,Hillside Supermarket,,,,37.1606716,-119.7488963,,,w_1278898865,shop=supermarket
"Oakhurst, CA",,retail,445310,ShaverKeps Mild-To-Wild Liquor,"41387 CA-168, Shaver Lake, CA, 93664",+1 (559) 841-7711,,37.1018349,-119.3183045,,,w_1340424668,shop=alcohol
"Oakhurst, CA",,retail,445120,,,,,37.2637886,-119.6914247,,,w_1412092341,shop=convenience
