Location,Search Keyword,Segment,NAICS Code,Business Name,Address,Phone Number,Website,Latitude,Longitude,Rating,User Ratings,Place ID,Types
"Menifee, CA",,retail,445110,Gerrard's Market,,,,34.0426024,-117.1840753,,,n_332436996,shop=supermarket
"Menifee, CA",,retail,445110,El Tigre Foods Warehouse,,,,33.368481,-117.249825,,,n_365319590,shop=supermarket
"Menifee, CA",,retail,445120,7-Eleven,,,https://www.7-eleven.com/locations/ca/fallbrook/631-s-main-st-21800,33.37686,-117.251756,,,n_365328969,"shop=convenience, brand=7-Eleven"
"Menifee, CA",,retail,445110,Stater Bros.,"1155 Calimesa Boulevard, Calimesa, CA, 92320",+1 909-795-2224,https://www.staterbros.com/stores/71,33.995763,-117.0568568,,,n_457359176,"shop=supermarket, brand=Stater Bros."
"Menifee, CA",,retail,445120,ampm,,,,33.9934397,-117.0576116,,,n_457367894,"shop=convenience, brand=ampm"
"Menifee, CA",,retail,445120,Chevron,,,,33.9928393,-117.0565529,,,n_457370070,"shop=convenience, brand=Chevron"
"Menifee, CA",,retail,445120,Circle K,,,,33.9936924,-117.0568424,,,n_457403249,"shop=convenience, brand=Circle K"
"Menifee, CA",,retail,445110,Groceries for Less,,,,34.0048356,-117.0610138,,,n_457415708,shop=supermarket
"Menifee, CA",,retail,445120,County Cork,,,,33.993913,-117.0578123,,,n_457719552,shop=convenience
"Menifee, CA",,retail,445120,Calimesa Drive Thru Dairy,,,,33.9996171,-117.0599343,,,n_457748641,shop=convenience
"Menifee, CA",,retail,445120,C & H Liquor,,,,34.0044841,-117.0620886,,,n_457748645,shop=convenience
"Menifee, CA",,retail,445120,,,,,34.0463363,-117.2014069,,,n_574181744,shop=convenience
"Menifee, CA",,retail,445120,7-Eleven,"32487 Yucaipa Boulevard, Yucaipa, CA, 92399-1877",+1 909-797-6465,https://www.7-eleven.com/locations/ca/yucaipa/32487-yucaipa-blvd-17814,34.0335305,-117.0958508,,,n_583573357,"shop=convenience, brand=7-Eleven"
"Menifee, CA",,retail,452210,Ross,"33720 Oak Glen Road, Yucaipa, CA, 92399",+1 909-797-0918,,34.0359857,-117.0685346,,,n_584865710,"shop=department_store, brand=Ross"
"Menifee, CA",,retail,445292,See's Candies,"2690 Tuscany Rd, Corona, CA, 92881",,,33.8235952,-117.515283,,,n_596244759,"shop=confectionery, brand=See's Candies"
"Menifee, CA",,retail,445110,Major Market Grocery Store,"835 South Main Avenue, Fallbrook, 92028",,,33.3753813,-117.2528639,,,n_596421640,shop=supermarket
"Menifee, CA",,retail,445110,Trader Joe's,"40665 Winchester Road, Temecula, CA, 92591",+1 951-296-9964,https://locations.traderjoes.com/ca/temecula/102/,33.5288349,-117.156097,,,n_701686401,"shop=supermarket, brand=Trader Joe's"
"Menifee, CA",,retail,446120,Bath & Body Works,,,,33.8116642,-117.506828,,,n_820215535,"shop=cosmetics, brand=Bath & Body Works"
"Menifee, CA",,retail,445120,Circle K,,,,33.8361245,-117.5222291,,,n_820215590,"shop=convenience, brand=Circle K"
"Menifee, CA",,retail,445110,Trader Joe's,"2790 Cabot Drive, Corona, CA, 92883",+1 951-603-0299,https://locations.traderjoes.com/ca/corona/213/,33.8111592,-117.5062534,,,n_820215768,"shop=supermarket, brand=Trader Joe's"
"Menifee, CA",,retail,445110,,,,,33.7646365,-117.4893216,,,n_821736565,shop=grocery
"Menifee, CA",,retail,445120,Arco,,,,33.6840393,-117.3666472,,,n_834107036,"shop=convenience, amenity=fuel, brand=ARCO"
"Menifee, CA",,retail,445110,Albertsons,"31960 Temecula Parkway, Temecula, CA, 92592",+1 951-303-1133,https://local.albertsons.com/ca/temecula/31960-temecula-pkwy.html,33.4821656,-117.1004202,,,n_835997659,"shop=supermarket, brand=Albertsons"
"Menifee, CA",,retail,452319,Five Below,,,,33.4776451,-117.1026796,,,n_836014887,"shop=variety_store, brand=Five Below"
"Menifee, CA",,retail,445120,7-Eleven,,,,33.4819424,-117.0930052,,,n_846402962,"shop=convenience, amenity=fuel, brand=7-Eleven"
"Menifee, CA",,retail,445120,Hazit,,,,33.4722602,-117.1239818,,,n_878251837,shop=convenience
"Menifee, CA",,retail,445110,El Tapatio Market,,,,33.9419162,-117.45522,,,n_928670437,shop=supermarket
"Menifee, CA",,retail,445110,Cardenas,,,,33.9451026,-117.455547,,,n_928670572,"shop=supermarket, brand=Cardenas"
"Menifee, CA",,retail,445110,Food 4 Less,,,,33.927576,-117.453369,,,n_928670577,"shop=supermarket, brand=Food 4 Less"
"Menifee, CA",,retail,452210,Ross,"10255 Magnolia Avenue, Riverside, CA, 92503",+1 951-509-3541,,33.9133945,-117.4608972,,,n_928693054,"shop=department_store, brand=Ross"
"Menifee, CA",,retail,445110,Walmart Supercenter,"5200 Van Buren Boulevard, Riverside, CA, 92503",+1 951-689-4595,https://www.walmart.com/store/2028-riverside-ca,33.9371231,-117.4553945,,,n_928693137,"shop=supermarket, brand=Walmart, operator=Walmart"
"Menifee, CA",,retail,445110,Stater Bros.,"4680 La Sierra Avenue, Riverside, CA, 92505",+1 951-343-2580,https://www.staterbros.com/stores/22,33.9160206,-117.487558,,,n_943347768,"shop=supermarket, brand=Stater Bros."
"Menifee, CA",,retail,445110,Stater Bros.,"3420 La Sierra Avenue, Riverside, CA, 92503",+1 951-343-2588,https://www.staterbros.com/stores/115,33.8971255,-117.4730212,,,n_943353228,"shop=supermarket, brand=Stater Bros."
"Menifee, CA",,retail,445110,Ralphs,"3350 La Sierra Avenue, Riverside, CA, 92503",+1 951-637-1948,https://www.ralphs.com/stores/grocery/ca/riverside/la-sierra/703/00098,33.8954112,-117.4715996,,,n_943353907,"shop=supermarket, brand=Ralphs"
"Menifee, CA",,retail,445110,Albertsons,"2975 Van Buren Boulevard, Riverside, CA, 92503",+1 951-689-2252,https://local.albertsons.com/ca/riverside/2975-van-buren-blvd.html,33.9098993,-117.436339,,,n_943356324,"shop=supermarket, brand=Albertsons"
"Menifee, CA",,retail,452210,Big Lots,"4022 Madison Street, Riverside, CA, 92504",+1 951-352-7782,https://local.biglots.com/ca/riverside/4022-madison-st,33.9448316,-117.4128432,,,n_943363812,"shop=department_store, brand=Big Lots"
"Menifee, CA",,retail,445110,Stater Bros.,"6160 Arlington Avenue, Riverside, CA, 92504",+1 951-343-2562,https://www.staterbros.com/stores/42,33.944865,-117.436334,,,n_943367513,"shop=supermarket, brand=Stater Bros."
"Menifee, CA",,retail,452210,dd's Discounts,,,,33.9409375,-117.455168,,,n_943369589,"shop=department_store, brand=dd's Discounts"
"Menifee, CA",,retail,445110,Food 4 Less,,,,33.9738463,-117.3469037,,,n_943378231,"shop=supermarket, brand=Food 4 Less"
"Menifee, CA",,retail,445110,Rite Aid,,,,33.9601168,-117.3941411,,,n_943389742,shop=supermarket
"Menifee, CA",,retail,445110,Ralphs,"6155 Magnolia Avenue, Riverside, CA, 92506",+1 951-274-9543,https://www.ralphs.com/stores/grocery/ca/riverside/magnolia-town-center/703/00144,33.9592269,-117.3943342,,,n_943390313,"shop=supermarket, brand=Ralphs"
"Menifee, CA",,retail,445110,Stater Bros.,"315 East Alessandro Boulevard, Riverside, CA, 92508",+1 951-565-5426,https://www.staterbros.com/stores/201,33.9141018,-117.3281711,,,n_943398059,"shop=supermarket, brand=Stater Bros."
"Menifee, CA",,retail,445110,Sprouts Farmers Market,"475 East Alessandro Boulevard, Riverside, CA, 92508",+1 951-565-5400,https://www.sprouts.com/store/ca/riverside/e-alessandro-blvd/,33.9139778,-117.3233769,,,n_943402481,"shop=supermarket, brand=Sprouts Farmers Market"
"Menifee, CA",,retail,445120,Old Town Liquor,,,,33.4901861,-117.1453075,,,n_961013146,shop=convenience
"Menifee, CA",,retail,445120,7-Eleven,"44535 Bedford Court, Temecula, CA, 92592-2552",+1 951-693-4977,https://www.7-eleven.com/locations/ca/temecula/44535-bedford-court-33074,33.4788535,-117.1385701,,,n_988350466,"shop=convenience, brand=7-Eleven"
"Menifee, CA",,retail,445310,South Coast Winery,,+1 951 587 9463,,33.5338835,-117.0538491,,,n_1004965572,shop=wine
"Menifee, CA",,retail,445110,Stater Bros.,"25900 Iris Avenue, Moreno Valley, CA, 92551",+1 951-924-1717,https://www.staterbros.com/stores/172,33.8917222,-117.209334,,,n_1043355273,"shop=supermarket, brand=Stater Bros."
"Menifee, CA",,retail,445120,,,,,33.8501181,-116.8520313,,,n_1201313390,shop=convenience
"Menifee, CA",,retail,445120,Rainbow Oaks Country Market,,,,33.4132389,-117.1586672,,,n_1203451946,shop=convenience
"Menifee, CA",,retail,445110,Stater Bros.,"30712 Benton Road, Winchester, CA, 92596",+1 951-926-6432,https://www.staterbros.com/stores/177,33.5923887,-117.121872,,,n_1247205836,"shop=supermarket, brand=Stater Bros."
"Menifee, CA",,retail,445230,Winchester Farms Marketplace,"27400 Winchester Road, Winchester, CA, 92596",,,33.7224762,-117.0757872,,,n_1264853120,shop=greengrocer
"Menifee, CA",,retail,445110,Winchester Ranch Market,,,,33.7095918,-117.0846125,,,n_1264853258,shop=grocery
"Menifee, CA",,retail,445310,Winchester Store,,,,33.7069724,-117.0851795,,,n_1264853759,shop=alcohol
"Menifee, CA",,retail,452319,99 Cents Only Stores,25270 Madison Avenue,+1 (951) 698-9971,https://locations.99only.com/ca/murrieta/discount-store-127.html,33.5556297,-117.1962687,,,n_1276492597,"shop=variety_store, brand=99 Cents Only Stores"
"Menifee, CA",,retail,445310,Ponte Family Estate,,,,33.5366424,-117.05034,,,n_1288908178,shop=wine
"Menifee, CA",,retail,445230,Maria's Farmers Market,,,,33.3651802,-117.0842136,,,n_1291363370,shop=greengrocer
"Menifee, CA",,retail,445120,The Pala Store,"11781 Pala Mission Road, Pala, CA, 92059",(760) 742-3262,,33.3649957,-117.074263,,,n_1293342590,shop=convenience
"Menifee, CA",,retail,445120,Chevron,,,,33.7819806,-117.2178868,,,n_1298157814,"shop=convenience, amenity=fuel, brand=Chevron"
"Menifee, CA",,retail,445120,,,,,33.9175543,-117.2615582,,,n_1326188042,"shop=convenience, amenity=fuel, brand=Thrifty"
"Menifee, CA",,retail,445120,Mobil,,,,33.9760301,-117.336732,,,n_1333487407,"shop=convenience, amenity=fuel, brand=Mobil"
"Menifee, CA",,retail,445310,,,,,34.0148058,-117.3402348,,,n_1343044220,shop=alcohol
"Menifee, CA",,retail,445120,Shell,,,,33.9833054,-117.340305,,,n_1343105062,"shop=convenience, amenity=fuel, brand=Shell"
"Menifee, CA",,retail,445120,Valero,,,,33.7147205,-117.18566,,,n_1349777217,"shop=convenience, amenity=fuel, brand=Valero"
"Menifee, CA",,retail,445120,Shell,,,,33.7869232,-117.215893,,,n_1350170307,"shop=convenience, amenity=fuel, brand=Shell"
"Menifee, CA",,retail,445120,76,,,,33.8414945,-117.254599,,,n_1367636109,"shop=convenience, amenity=fuel;car_wash, brand=76"
"Menifee, CA",,retail,445120,Chevron,,,,33.8453936,-117.2434381,,,n_1368118940,"shop=convenience, brand=Chevron"
"Menifee, CA",,retail,445120,Easter Market,,,,33.9177232,-117.1564348,,,n_1377433725,"shop=convenience, amenity=fuel"
"Menifee, CA",,retail,445110,Albertsons,"450 East Cypress Avenue, Redlands, CA, 92373",+1 909-792-1114,https://local.albertsons.com/ca/redlands/450-e-cypress-ave.html,34.0484855,-117.1713725,,,n_1392829737,"shop=supermarket, brand=Albertsons"
"Menifee, CA",,retail,446110,Rite Aid,,,,34.0473232,-117.1701736,,,n_1392829753,"shop=chemist, brand=Rite Aid"
"Menifee, CA",,retail,445120,7-Eleven,"16970 Van Buren Boulevard, Riverside, CA, 92504",,,33.8825792,-117.3664149,,,n_1407504588,"shop=convenience, amenity=fuel, brand=7-Eleven"
"Menifee, CA",,retail,445230,Pala Rey Produce,,,,33.3435829,-117.1292339,,,n_1442259145,shop=greengrocer
"Menifee, CA",,retail,445120,Speedway,,,https://www.speedway.com/locations/CA/Riverside/4930-VAN-BUREN-BLVD,33.9346436,-117.454535,,,n_1488265978,"shop=convenience, brand=Speedway"
"Menifee, CA",,retail,445120,7-Eleven,"8201 Arlington Avenue, Riverside, CA, 92503-0430",+1 951-977-9567,https://www.7-eleven.com/locations/ca/riverside/8201-arlington-ave-a-b-27437,33.9466601,-117.460717,,,n_1489068975,"shop=convenience, brand=7-Eleven"
"Menifee, CA",,retail,445120,7-Eleven,,,https://www.7-eleven.com/locations/ca/riverside/7410-wells-ave-13984,33.9339907,-117.4548578,,,n_1489068994,"shop=convenience, brand=7-Eleven"
"Menifee, CA",,retail,445120,7-Eleven,"9580 Magnolia Avenue, Riverside, CA, 92503-3608",+1 951-689-4472,https://www.7-eleven.com/locations/ca/riverside/9580-magnolia-ave-15515,33.919212,-117.4477629,,,n_1489069004,"shop=convenience, brand=7-Eleven"
"Menifee, CA",,retail,445120,7-Eleven,"5102 La Sierra Avenue, Riverside, CA, 92505-2527",+1 951-687-4404,https://www.7-eleven.com/locations/ca/riverside/5102-la-sierra-ave-13968,33.9233058,-117.491661,,,n_1489216626,"shop=convenience, brand=7-Eleven"
"Menifee, CA",,retail,452210,Sears,,,,33.9377955,-117.2697392,,,n_1658487411,"shop=department_store, brand=Sears"
"Menifee, CA",,retail,452210,JCPenney,,,,33.9380358,-117.2722497,,,n_1658487903,"shop=department_store, brand=JCPenney"
"Menifee, CA",,retail,452210,Macy's,,,https://www.macys.com/stores/ca/morenovalley/moreno-valley-mall_540.html,33.9389615,-117.2734621,,,n_1658488021,"shop=department_store, brand=Macy's"
"Menifee, CA",,retail,445120,Sav-A-Minit,,,,33.9882887,-117.3723487,,,n_2416628450,shop=convenience
"Menifee, CA",,retail,445120,Pala Mini Mart,"11152 Pala Road, Pala, CA, 92059",,,33.364217,-117.0875575,,,n_2616784833,shop=convenience
"Menifee, CA",,retail,445110,Trader Joe's,"30652 Santa Margarita Parkway, Rancho Santa Margarita, CA, 92688",+1 949-888-3640,https://locations.traderjoes.com/ca/rancho-santa-margarita/27/,33.642285,-117.5954056,,,n_2944759499,"shop=supermarket, brand=Trader Joe's"
"Menifee, CA",,retail,446120,Evershine Threading,,,,33.5966585,-117.2412007,,,n_3291313361,shop=beauty
"Menifee, CA",,retail,445110,Stater Bros.,"2243 Eagle Glen Parkway, Corona, CA, 92883",+1 951-372-2692,https://www.staterbros.com/stores/170,33.8229165,-117.5229986,,,n_3499335010,"shop=supermarket, brand=Stater Bros."
"Menifee, CA",,retail,445120,7-Eleven,"3740 Iowa Avenue, Riverside, CA, 92507",+1 951-680-9678,https://www.7-eleven.com/locations/ca/riverside/3740-iowa-ave-34218,33.9773522,-117.339499,,,n_3723880213,"shop=convenience, brand=7-Eleven"
"Menifee, CA",,retail,445120,7-Eleven,"33561 Yucaipa Boulevard, Yucaipa, CA, 92399",+1 909-797-5837,https://www.7-eleven.com/locations/ca/yucaipa/33561-yucaipa-blvd-35977,34.0335493,-117.0719716,,,n_3946673058,"shop=convenience, brand=7-Eleven"
"Menifee, CA",,retail,445110,Pala Mesa Market,,,,33.3326131,-117.1620916,,,n_4064423805,shop=supermarket
"Menifee, CA",,retail,445110,Cardenas,"25310 Madison Avenue, Murrieta, 92562",1-(951) 387-3125,https://locations.cardenasmarkets.com/ll/us/ca/murrieta/25310-madison-ave/,33.5548652,-117.19527,,,n_4071156825,"shop=supermarket, brand=Cardenas"
"Menifee, CA",,retail,445310,Cal Oaks Liquor,"40790 California Oaks Road, Murrieta, CA, 92562",+19514611563,,33.5692303,-117.2049977,,,n_4096436796,shop=alcohol
"Menifee, CA",,retail,453110,The Stem,,,,34.0475374,-117.2082191,,,n_4209010394,shop=florist
"Menifee, CA",,retail,445310,Mesa Market Wine & Spirits,,,,33.6492975,-117.5830694,,,n_4339339583,shop=alcohol
"Menifee, CA",,retail,446120,Salon 74,,,,33.6497246,-117.5828128,,,n_4339339585,shop=beauty
"Menifee, CA",,retail,445120,Circle K,,,,33.6490656,-117.581396,,,n_4339342300,"shop=convenience, brand=Circle K"
"Menifee, CA",,retail,445120,Shannon's Health Foods,"Moreno Valley, CA, 92553",,,33.9376659,-117.249312,,,n_4419238018,shop=convenience
"Menifee, CA",,retail,446120,Phenix Salon Suites,,,,33.640039,-117.6010611,,,n_4439973667,shop=beauty
"Menifee, CA",,retail,452210,Sears,,,,33.6412868,-117.6012974,,,n_4439973668,"shop=department_store, brand=Sears"
"Menifee, CA",,retail,446120,18/8 Fine Men's Salons,,,,33.6382736,-117.5903495,,,n_4440009706,shop=beauty
"Menifee, CA",,retail,446120,OC Hair And Makeup,"30622 Santa Margarita Parkway, Rancho Santa Margarita, CA, 92688",949-326-7878,https://ochairandmakeup.com/,33.6412253,-117.5956846,,,n_4580915467,shop=beauty
"Menifee, CA",,retail,452210,Ross,"30141 Antelope Road, Menifee, CA, 92584",+1 951-246-4178,,33.683576,-117.1696089,,,n_4707796191,"shop=department_store, brand=Ross"
"Menifee, CA",,retail,446120,Henry's Nails,,,,33.8833838,-117.3638283,,,n_4805051943,shop=beauty
"Menifee, CA",,retail,445110,Grocery Outlet,,,,33.3687336,-117.24982,,,n_5266775210,"shop=supermarket, brand=Grocery Outlet"
"Menifee, CA",,retail,445110,Walmart Neighborhood Market,"859 West Florida Avenue, Hemet, CA, 92543",+1 951-492-3029,https://www.walmart.com/store/5008-hemet-ca,33.745448,-116.979639,,,n_5315597930,"shop=supermarket, brand=Walmart, operator=Walmart"
"Menifee, CA",,retail,445120,,,,,33.7384002,-117.0771176,,,n_5590079232,shop=convenience
"Menifee, CA",,retail,452319,Dollar Tree,"26150 Iris Avenue, Moreno Valley, CA, 92551",,https://www.dollartree.com/locations/ca/moreno-valley/5061/,33.8927168,-117.2062408,,,n_5721460452,"shop=variety_store, brand=Dollar Tree"
"Menifee, CA",,retail,445310,Ponte Vinyard,,,,33.5366189,-117.0502952,,,n_5724065520,shop=wine
"Menifee, CA",,retail,445310,Miramonte Winery,,,https://www.miramontewinery.com/,33.5255994,-117.0778612,,,n_5724305951,"shop=wine, amenity=restaurant"
"Menifee, CA",,retail,445110,ALDI,"18294 Collier Avenue, Lake Elsinore, CA, 92530-2754",+1 951-579-4089,https://stores.aldi.us/ca/lake-elsinore/18294-collier-ave,33.691873,-117.3394059,,,n_6007728091,"shop=supermarket, brand=ALDI"
"Menifee, CA",,retail,446120,Ulta Beauty,"18418 Collier Avenue, Lake Elsinore, CA, 92530",+1 951-228-0214,https://www.ulta.com/stores/lake-elsinore-ca-1253,33.6899308,-117.337938,,,n_6007772346,"shop=beauty, brand=Ulta Beauty"
"Menifee, CA",,retail,452210,Marshalls,,,,33.6897257,-117.3381552,,,n_6007779227,"shop=department_store, brand=Marshalls"
"Menifee, CA",,retail,452319,Five Below,,+1 951-245-9877,https://locations.fivebelow.com/ca/lake-elsinore/18438-collier-avenue,33.6902518,-117.337622,,,n_6007784228,"shop=variety_store, brand=Five Below"
"Menifee, CA",,retail,446120,True Touch Nail & Spa,,,,33.6898817,-117.3426942,,,n_6008987581,shop=beauty
"Menifee, CA",,retail,445110,Grocery Outlet,,,,33.6960806,-117.335998,,,n_6013084614,"shop=supermarket, brand=Grocery Outlet"
"Menifee, CA",,retail,452319,Dollar Tree,,,,33.6962415,-117.3361842,,,n_6013089579,"shop=variety_store, brand=Dollar Tree"
"Menifee, CA",,retail,446120,ProffesioNail & Spa,,,,33.6947193,-117.3361418,,,n_6013163827,shop=beauty
"Menifee, CA",,retail,446120,iTan,,,,33.6951169,-117.3357107,,,n_6013167231,shop=beauty
"Menifee, CA",,retail,446120,Kut N Beauty Salon and Supply,,,,33.6951647,-117.3357629,,,n_6013168419,shop=beauty
"Menifee, CA",,retail,446120,iBrows Threading Salon,,,,33.6953958,-117.3358958,,,n_6013174491,shop=beauty
"Menifee, CA",,retail,452319,99 Cents Only Stores,,,https://locations.99only.com/ca/lakeelsinore/discount-store-234.html,33.6922262,-117.3399583,,,n_6013176637,"shop=variety_store, brand=99 Cents Only Stores"
"Menifee, CA",,retail,445310,Central Market and Liquor,,,,33.693719,-117.3351052,,,n_6013360051,shop=alcohol
"Menifee, CA",,retail,446120,SalonCentric,,,,33.9445898,-117.4165984,,,n_6057611684,shop=cosmetics
"Menifee, CA",,retail,445120,,,,,33.7433415,-117.0321004,,,n_6187413272,shop=convenience
"Menifee, CA",,retail,445120,,,,,33.7867716,-117.0086619,,,n_6187426398,shop=convenience
"Menifee, CA",,retail,445120,ampm,,,,33.739675,-117.076883,,,n_6208835691,"shop=convenience, brand=ampm"
"Menifee, CA",,retail,445120,Circle K,,,,33.773412,-117.0075046,,,n_6209361038,"shop=convenience, brand=Circle K"
"Menifee, CA",,retail,452210,JCPenney,,,,33.7487193,-116.994655,,,n_6226276909,"shop=department_store, brand=JCPenney"
"Menifee, CA",,retail,452210,Sears,,,,33.7495512,-116.9949076,,,n_6226276910,"shop=department_store, brand=Sears"
"Menifee, CA",,retail,446120,Sola Salons,,,,33.564002,-117.2038012,,,n_6265148782,"shop=beauty, brand=Sola Salons"
"Menifee, CA",,retail,446120,Cellinies Nail & SPA,,,,33.9165323,-117.2712709,,,n_6311987057,shop=beauty
"Menifee, CA",,retail,453110,Flower Box,,,,33.9127414,-117.2695897,,,n_6335583923,shop=florist
"Menifee, CA",,retail,445110,Smart & Final Extra!,,,,33.9444788,-117.415976,,,n_6351752234,"shop=supermarket, brand=Smart & Final"
"Menifee, CA",,retail,446120,L V Nails,,,,33.9450491,-117.4151941,,,n_6351890973,shop=beauty
"Menifee, CA",,retail,445110,Alta Vista,,,,33.9445874,-117.4150902,,,n_6381060424,shop=supermarket
"Menifee, CA",,retail,445310,Madison Market Liquor,,,,33.9453835,-117.414389,,,n_6383242926,shop=alcohol
"Menifee, CA",,retail,445110,Trader Joe's,"6225 Riverside Avenue, Riverside, CA, 92506",+1 951-781-2378,https://locations.traderjoes.com/ca/riverside/15/,33.9559471,-117.388437,,,n_6527437345,"shop=supermarket, brand=Trader Joe's"
"Menifee, CA",,retail,445120,ampm,,,,33.8981702,-117.471167,,,n_6527644984,"shop=convenience, brand=ampm"
"Menifee, CA",,retail,445120,ampm,,,,33.9259403,-117.451731,,,n_6527673995,"shop=convenience, brand=ampm"
"Menifee, CA",,retail,453991,Smoke shop,,,,33.9445914,-117.416541,,,n_6572004413,shop=tobacco
"Menifee, CA",,retail,445120,Allsup's,,,,34.0007394,-117.364674,,,n_6632754635,"shop=convenience, brand=Allsup's"
"Menifee, CA",,retail,445120,Campbell's Market,,,,33.9355089,-117.4866723,,,n_6642367383,shop=convenience
"Menifee, CA",,retail,452319,Dollar Tree,,,https://www.dollartree.com/locations/ca/riverside/6583/,33.939538,-117.4551268,,,n_6642384729,"shop=variety_store, brand=Dollar Tree"
"Menifee, CA",,retail,445120,Lucky 1,,,,33.9365292,-117.4795617,,,n_6642391291,shop=convenience
"Menifee, CA",,retail,445310,La Sierra Liquor,,,,33.9190648,-117.486495,,,n_6642394394,shop=alcohol
"Menifee, CA",,retail,445120,ampm,,,,33.9196677,-117.488524,,,n_6642395398,"shop=convenience, brand=ampm"
"Menifee, CA",,retail,445110,Canyon Lake Market,"31682 Railroad Canyon Road, Canyon Lake, CA, 92587",,,33.6726501,-117.2532172,,,n_6852863676,shop=supermarket
"Menifee, CA",,retail,445120,Shell,,,,33.9157116,-117.323977,,,n_6894591824,"shop=convenience, brand=Shell"
"Menifee, CA",,retail,446120,Ulta Beauty,"3502 Tyler Street, Riverside, CA, 92503",+1 951-689-0235,https://www.ulta.com/stores/riverside-ca-1153,33.9067466,-117.4576881,,,n_6920795979,"shop=beauty, brand=Ulta Beauty"
"Menifee, CA",,retail,445120,90 Store,,,,33.915379,-117.4574293,,,n_7021856792,shop=convenience
"Menifee, CA",,retail,445110,ALDI,"30163 Haun Road, Menifee, CA, 92584-6825",+1 951-221-8425,https://stores.aldi.us/ca/menifee/30163-haun-rd,33.6826029,-117.1767064,,,n_7455528323,"shop=supermarket, brand=ALDI"
"Menifee, CA",,retail,452319,Family Dollar,,,,33.9242141,-117.4409487,,,n_7624412970,"shop=variety_store, brand=Family Dollar"
"Menifee, CA",,retail,445310,Pasha Liquor,,,,33.914029,-117.4566899,,,n_7624438102,shop=alcohol
"Menifee, CA",,retail,453991,Tobacco Crush,,,,33.9132106,-117.4629607,,,n_7785630729,shop=tobacco
"Menifee, CA",,retail,445310,Pic n Go Market,,,,33.9230167,-117.4424796,,,n_7788538610,shop=alcohol
"Menifee, CA",,retail,445310,Palm Liquor,,,,33.9227942,-117.4417527,,,n_7788538611,shop=alcohol
"Menifee, CA",,retail,453991,Smt Smoke Shop,,,,33.9151258,-117.456765,,,n_7788693507,shop=tobacco
"Menifee, CA",,retail,453991,Tobacco Zone,,,,33.9152416,-117.4656569,,,n_7788729903,shop=tobacco
"Menifee, CA",,retail,445310,Sami's 7 Market,,,,33.9466756,-117.4625491,,,n_7795477588,shop=alcohol
"Menifee, CA",,retail,445310,Stop & Shop,,,,33.9394289,-117.4681677,,,n_7795477591,shop=alcohol
"Menifee, CA",,retail,453110,Flower & Gift,,,,33.9462943,-117.4566553,,,n_7795491880,shop=florist
"Menifee, CA",,retail,445120,King's Market,,,,33.9060491,-117.4542665,,,n_7926475509,shop=convenience
"Menifee, CA",,retail,446120,Passion Hair,,,,33.8650911,-117.546958,,,n_7941258644,shop=beauty
"Menifee, CA",,retail,445120,7-Eleven,,,https://www.7-eleven.com/locations/ca/murrieta/40210-murrieta-ht-spgs-rd-33552,33.5555903,-117.1736399,,,n_7965771929,"shop=convenience, brand=7-Eleven"
"Menifee, CA",,retail,452319,99 Cents Only Stores,,,https://locations.99only.com/ca/riverside/discount-store-431.html,33.9020788,-117.4770856,,,n_7983448756,"shop=variety_store, brand=99 Cents Only Stores"
"Menifee, CA",,retail,445120,Shell,,,,33.5905548,-117.1238827,,,n_8356237818,"shop=convenience, brand=Shell"
"Menifee, CA",,retail,445110,WinCo Foods,,,,33.9340344,-117.2749736,,,n_8429404362,"shop=supermarket, brand=WinCo Foods"
"Menifee, CA",,retail,446120,Beauty Creation by Sylvia,,,,33.9151361,-117.4807656,,,n_8497674024,shop=beauty
"Menifee, CA",,retail,446120,Best City Nails,,,,33.4828732,-117.0950502,,,n_8603575898,shop=beauty
"Menifee, CA",,retail,445120,Speedway,"6970 Van Buren Boulevard, Riverside, CA, 92509",,https://www.speedway.com/locations/CA/Riverside/6970-Van-Buren-Blvd,33.9580813,-117.4620102,,,n_8639265344,"shop=convenience, brand=Speedway"
"Menifee, CA",,retail,453991,Glass Roots Smoke Shop,,,,33.9136336,-117.4596962,,,n_8660639121,shop=tobacco
"Menifee, CA",,retail,453991,Smoke and Vape,,,,33.9232133,-117.4424442,,,n_8660639128,shop=tobacco
"Menifee, CA",,retail,446110,CVS Pharmacy,,,https://www.cvs.com/store-locator/fallbrook-ca-pharmacies/1101-s-mission-rd-fallbrook-ca-92028/storeid=9110,33.373623,-117.254155,,,n_9038367789,"shop=chemist, brand=CVS Pharmacy"
"Menifee, CA",,retail,446120,Modern Nails,"1008 Cherry Valley Boulevard, Calimesa, CA, 92320",,,33.9667699,-117.0361957,,,n_9089150977,shop=beauty
"Menifee, CA",,retail,452210,Kohl's,"22215 El Paseo, Rancho Santa Margarita, CA, 92688",+1 949-635-9314,https://www.kohls.com/stores/ca/ranchosantamargarita-548.shtml,33.6400059,-117.594741,,,n_9150005517,"shop=department_store, brand=Kohl's"
"Menifee, CA",,retail,445120,Speedway,"3950 Tyler Street, Riverside, CA, 92503",,https://www.speedway.com/locations/CA/Riverside/3950-Tyler-St,33.9148429,-117.4643759,,,n_9178200808,"shop=convenience, brand=Speedway"
"Menifee, CA",,retail,445120,Speedway,"3570 Central Avenue, Riverside, CA, 92506",,https://www.speedway.com/locations/CA/Riverside/3570-CENTRAL-AVE,33.9532117,-117.390349,,,n_9178312663,"shop=convenience, brand=Speedway"
"Menifee, CA",,retail,445120,,,,,34.028759,-117.1186907,,,n_9341603464,shop=convenience
"Menifee, CA",,retail,445120,ampm,,,,34.0283366,-117.1197815,,,n_9341603466,"shop=convenience, brand=ampm"
"Menifee, CA",,retail,445120,Chevron,,,,33.9044784,-117.4939707,,,n_9347651883,"shop=convenience, brand=Chevron"
"Menifee, CA",,retail,445120,7-Eleven,"11110 Magnolia Avenue, Riverside, CA, 92505",+1 951-354-2063,https://www.7-eleven.com/locations/ca/riverside/11110-magnolia-ave-36818,33.9028939,-117.4763574,,,n_9347673211,"shop=convenience, brand=7-Eleven"
"Menifee, CA",,retail,445110,Smart & Final,,,,33.8502416,-117.550839,,,n_9362485300,"shop=supermarket, brand=Smart & Final"
"Menifee, CA",,retail,446120,Precision Hair And Nail Salon,"27314 Jefferson Ave, #4, Temecula, CA, 92590",951-296-9007,https://precisionhairandnailsalon.com,33.5230264,-117.1658023,,,n_9684620894,shop=beauty
"Menifee, CA",,retail,446120,Bath & Body Works,,,https://www.bathandbodyworks.com/?cm_mmc=local_BBW00107,33.9391363,-117.2709182,,,n_9747925348,"shop=cosmetics, brand=Bath & Body Works"
"Menifee, CA",,retail,452210,Marshalls,,,,33.9556911,-117.3920431,,,n_9780261199,"shop=department_store, brand=Marshalls"
"Menifee, CA",,retail,445120,Shell,,,,33.8886884,-117.2259127,,,n_9936239208,"shop=convenience, brand=Shell"
"Menifee, CA",,retail,445120,,,,,33.8451483,-117.2255372,,,n_9938406839,shop=convenience
"Menifee, CA",,retail,445120,,,,,33.844044,-117.2256355,,,n_9938406841,shop=convenience
"Menifee, CA",,retail,445120,7-Eleven,,,,33.9175368,-117.2857046,,,n_9938478856,shop=convenience
"Menifee, CA",,retail,445120,,,,,33.9176243,-117.2847242,,,n_9938478857,shop=convenience
"Menifee, CA",,retail,445120,Circle K,,,,33.902324,-117.2430131,,,n_9950534770,"shop=convenience, brand=Circle K"
"Menifee, CA",,retail,446110,Rite Aid,,,,33.9223494,-116.947668,,,n_9998720517,"shop=chemist, brand=Rite Aid"
"Menifee, CA",,retail,452210,Ross,"7200 Arlington Avenue, Riverside, CA, 92503-1510",+1 951-327-1821,,33.9442706,-117.4517902,,,n_10038300652,"shop=department_store, brand=Ross"
"Menifee, CA",,retail,445110,Stater Bros.,"7200 Arlington Avenue, Riverside, CA, 92503",+1 951-279-4480,https://www.staterbros.com/stores/207,33.9447205,-117.4517715,,,n_10038300663,"shop=supermarket, brand=Stater Bros."
"Menifee, CA",,retail,446120,Classic NAIL and SPA,"25359 Madison Avenue, Murrieta, CA, 92562",,,33.5515548,-117.1960083,,,n_10062397035,shop=beauty
"Menifee, CA",,retail,445120,Stop n Shop Liquor Market,,,,33.9169035,-117.4731301,,,n_10067829153,shop=convenience
"Menifee, CA",,retail,446120,Regal Nails,,,,33.7676585,-116.9554595,,,n_10073612339,"shop=beauty, brand=Regal Nails"
"Menifee, CA",,retail,445120,Jacksons,,,,33.5536597,-117.1954817,,,n_10112421792,"shop=convenience, brand=Jacksons"
"Menifee, CA",,retail,446120,Paris Nails,,,,33.5942721,-117.2450397,,,n_10134424516,shop=beauty
"Menifee, CA",,retail,453110,The Flower Alley,,,,33.9229707,-117.4422718,,,n_10170519454,shop=florist
"Menifee, CA",,retail,446110,The Medicine Shoppe,,,,33.923349,-117.4407188,,,n_10170524176,shop=chemist
"Menifee, CA",,retail,445310,Tuscany,,,,33.6642061,-117.2980556,,,n_10181089867,shop=alcohol
"Menifee, CA",,retail,446120,Creative Nails,,,,33.5932396,-117.2469191,,,n_10198255742,shop=beauty
"Menifee, CA",,retail,445120,,,,,34.029865,-117.1152364,,,n_10202225164,shop=convenience
"Menifee, CA",,retail,452319,Dollar Tree,,,https://www.dollartree.com/locations/ca/riverside/5354/,33.9165996,-117.4877542,,,n_10226832539,"shop=variety_store, brand=Dollar Tree"
"Menifee, CA",,retail,445120,7-Eleven,,,,33.9079259,-117.4368968,,,n_10285309347,"shop=convenience, brand=7-Eleven"
"Menifee, CA",,retail,446120,Lucy's Nail Bar,,,,33.6635526,-117.2962269,,,n_10287875163,shop=beauty
"Menifee, CA",,retail,445120,Circle K,,,,33.6600848,-117.299689,,,n_10288335930,"shop=convenience, brand=Circle K"
"Menifee, CA",,retail,453991,The Glass Warehouse Smoke Shop,"27453 Jefferson Avenue, 92590",,,33.5179934,-117.1639981,,,n_10288640809,shop=tobacco
"Menifee, CA",,retail,446120,Diamond Nails & Spa,,,,33.6619148,-117.2997761,,,n_10292328482,shop=beauty
"Menifee, CA",,retail,452210,Saver's,"25125 Madison Avenue, 92596",1 (951) 461-8624,https://www.savers.com/,33.5553785,-117.2004933,,,n_10538425309,shop=department_store
"Menifee, CA",,retail,446120,,,,,33.5566741,-117.200386,,,n_10571660663,shop=beauty
"Menifee, CA",,retail,445110,Baron's,,,,33.6860142,-117.1698404,,,n_10650240932,shop=supermarket
"Menifee, CA",,retail,446120,Sola Salons,,,,33.6861676,-117.1702521,,,n_10650258062,"shop=beauty, brand=Sola Salons"
"Menifee, CA",,retail,446120,Cosmo,,,,33.6857206,-117.1689315,,,n_10651014919,shop=beauty
"Menifee, CA",,retail,446120,,,,,33.6642819,-117.2966956,,,n_10658370294,shop=beauty
"Menifee, CA",,retail,446120,Nail Tyme,,,,33.8890374,-117.5212134,,,n_10691485906,shop=beauty
"Menifee, CA",,retail,445292,Yogurtland,,,,33.8889456,-117.5211416,,,n_10691486105,"shop=confectionery, amenity=ice_cream, brand=Yogurtland"
"Menifee, CA",,retail,445120,ampm,,,,33.9954488,-117.3645969,,,n_10692452247,"shop=convenience, brand=ampm"
"Menifee, CA",,retail,446120,Magic Brow,,,,33.5989428,-117.1685379,,,n_10705224061,shop=beauty
"Menifee, CA",,retail,446120,Blooming Nails,,,,33.5989344,-117.1675016,,,n_10705232171,shop=beauty
"Menifee, CA",,retail,446120,Beautiful Nails,,,,33.9165119,-117.272097,,,n_10737342832,shop=beauty
"Menifee, CA",,retail,446120,Eyebrow Threading,,,,33.9163868,-117.2716585,,,n_10737342835,shop=beauty
"Menifee, CA",,retail,445110,Grocery Outlet,39573 Los Alamos Road,,,33.5752544,-117.1795481,,,n_10738283391,"shop=supermarket, brand=Grocery Outlet"
"Menifee, CA",,retail,446120,Joie,,,,33.5757021,-117.1788565,,,n_10738283397,shop=beauty
"Menifee, CA",,retail,446120,La Jolet,,,,33.5764154,-117.1779463,,,n_10738290708,shop=beauty
"Menifee, CA",,retail,446120,Brushedd Salon,,,,33.5758567,-117.1773701,,,n_10738290710,shop=beauty
"Menifee, CA",,retail,446120,One Touch Beauty,,,,33.8432845,-117.5335912,,,n_10762219965,shop=beauty
"Menifee, CA",,retail,446120,Lush Salon,,,,33.8433452,-117.5324675,,,n_10762299356,shop=beauty
"Menifee, CA",,retail,446120,,,,,33.8436309,-117.5328455,,,n_10762306799,shop=beauty
"Menifee, CA",,retail,453991,Tobacco Island,,,,33.8432984,-117.5324055,,,n_10762316060,shop=tobacco
"Menifee, CA",,retail,446120,Lashes 102,,,,33.8441454,-117.5338722,,,n_10763047033,shop=beauty
"Menifee, CA",,retail,446120,Belle Fleur,,,,33.5972271,-117.2411344,,,n_10778498321,shop=beauty
"Menifee, CA",,retail,453991,,,,,33.5966278,-117.2412512,,,n_10778945107,shop=tobacco
"Menifee, CA",,retail,446120,Nail Palace,,,,33.5966802,-117.2411651,,,n_10778945109,shop=beauty
"Menifee, CA",,retail,446120,Lush,,,,33.5244802,-117.1537032,,,n_10797747387,"shop=cosmetics, brand=Lush"
"Menifee, CA",,retail,445120,7-Eleven,,,,33.7434887,-117.191819,,,n_10811775456,"shop=convenience, brand=7-Eleven"
"Menifee, CA",,retail,445120,ampm,,,,33.5991818,-117.1763906,,,n_10832463387,"shop=convenience, brand=ampm"
"Menifee, CA",,retail,446120,European Wax Center,"40134 California Oaks Road, CA",,https://locations.waxcenter.com/ca/murrieta/murrieta-cal-oaks-0991.html,33.5661793,-117.2043588,,,n_10834075145,"shop=beauty, brand=European Wax Center"
"Menifee, CA",,retail,445230,Stop N Shop Market,"846 East 6th Street, Beaumont, CA, 92223",+19518452723,,33.9297782,-116.97046,,,n_10841362399,shop=greengrocer
"Menifee, CA",,retail,446120,Ulta Beauty,"40460 Winchester Road, Temecula, CA, 92591",+1 951-296-0776,https://www.ulta.com/stores/temecula-ca-1131,33.5274347,-117.151372,,,n_10856715415,"shop=beauty, brand=Ulta Beauty"
"Menifee, CA",,retail,445310,Total Wine,"40432 Winchester Road, Temecula, CA, 92591",+1 951-719-3712,https://www.totalwine.com/store-info/california-temecula/1123,33.529746,-117.15121,,,n_10857383782,"shop=alcohol, brand=Total Wine"
"Menifee, CA",,retail,446120,B&K Dreamy,,,,33.5989374,-117.2405608,,,n_10858327799,shop=beauty
"Menifee, CA",,retail,446120,Serenity MD Weight Loss & Medical Spa,,,,33.5236101,-117.1582144,,,n_10858359559,shop=beauty
"Menifee, CA",,retail,446120,Sola Salons,,,,33.5223515,-117.1522707,,,n_11006384104,"shop=beauty, brand=Sola Salons"
"Menifee, CA",,retail,446120,Bel Mondo,,,,33.5245246,-117.1496987,,,n_11006397252,shop=beauty
"Menifee, CA",,retail,445120,,,,,33.7416783,-117.1906355,,,n_11018710293,shop=convenience
"Menifee, CA",,retail,445120,,,,,33.7424451,-117.1852033,,,n_11018710296,shop=convenience
"Menifee, CA",,retail,446120,Ti*Li,,,,33.590189,-117.2522363,,,n_11076247690,shop=beauty
"Menifee, CA",,retail,445110,Clark’s Nutrition and Natural Foods Market,4225 Market Street,+1 951-686-4757,https://clarksnutrition.com,33.9784791,-117.3786644,,,n_11091811097,shop=supermarket
"Menifee, CA",,retail,453991,Vibez Smoke,,,,33.5577955,-117.201583,,,n_11132458626,shop=tobacco
"Menifee, CA",,retail,446120,Greenleaf,,1-951-696-0878,,33.5742407,-117.2040148,,,n_11163969922,shop=beauty
"Menifee, CA",,retail,446120,,,,,33.5705903,-117.1822955,,,n_11214406762,shop=beauty
"Menifee, CA",,retail,446120,SalonCentric,,,,33.5531523,-117.1970326,,,n_11217080966,shop=beauty
"Menifee, CA",,retail,445310,La Bodega Wine & Spirit,3512 Central Avenue,+1 951-683-3307,,33.9532433,-117.3886485,,,n_11230257280,shop=alcohol
"Menifee, CA",,retail,446120,Ho & Ho Nails,,,,33.845018,-117.5384158,,,n_11263028085,shop=beauty
"Menifee, CA",,retail,446120,Area One,,,,33.8445811,-117.5390616,,,n_11263062908,shop=beauty
"Menifee, CA",,retail,445292,PUDN,,+1 (951) 304.9935,https://famouspudn.com/,33.5657751,-117.211868,,,n_11276017898,shop=confectionery
"Menifee, CA",,retail,446120,Happiness,,,,33.5669056,-117.2129907,,,n_11276029707,shop=beauty
"Menifee, CA",,retail,446191,Cactus Nutrition Spot,,,,33.5657823,-117.2120467,,,n_11276032178,shop=health_food
"Menifee, CA",,retail,453991,,,,,33.5715231,-117.182525,,,n_11276299987,shop=tobacco
"Menifee, CA",,retail,453110,,,,,33.5714328,-117.18253,,,n_11276299988,shop=florist
"Menifee, CA",,retail,446120,Wonder Nails & Spa,,,,33.5969253,-117.2481594,,,n_11280358187,shop=beauty
"Menifee, CA",,retail,445310,Murrieta Country Market,,,,33.5544894,-117.215314,,,n_11281774045,shop=alcohol
"Menifee, CA",,retail,446120,Royal Touch,40962 California Oaks Road,,,33.5676723,-117.2037467,,,n_11282396004,shop=beauty
"Menifee, CA",,retail,446120,Lex,40954 California Oaks Road,,,33.5677811,-117.2037688,,,n_11282396005,shop=beauty
"Menifee, CA",,retail,445110,Grocery Outlet,,,,33.9738208,-117.3493965,,,n_11294801496,"shop=supermarket, brand=Grocery Outlet"
"Menifee, CA",,retail,453991,Smoke Express,,,,33.5245673,-117.1616841,,,n_11296475817,shop=tobacco
"Menifee, CA",,retail,446120,,,,,33.5287758,-117.1554433,,,n_11298099998,shop=beauty
"Menifee, CA",,retail,445120,Beyond Food Mart,,,,33.8081289,-117.5051405,,,n_11340720836,shop=convenience
"Menifee, CA",,retail,446120,In Style,,,,33.5583871,-117.2009376,,,n_11342568844,shop=beauty
"Menifee, CA",,retail,446120,Illustrious Beauty Bar,,,,33.5583458,-117.2010114,,,n_11342639169,shop=beauty
"Menifee, CA",,retail,453991,Adams MKT Smoke Shop,,,,33.9388479,-117.3973285,,,n_11344897700,shop=tobacco
"Menifee, CA",,retail,446120,Ivy's,26487 Ynez Road,,,33.5216393,-117.158642,,,n_11345111615,shop=beauty
"Menifee, CA",,retail,445310,Louie's Liquor,,,,33.5609103,-117.2117584,,,n_11361225236,shop=alcohol
"Menifee, CA",,retail,453991,The Hype,,,,33.5614924,-117.2118256,,,n_11361225241,shop=tobacco
"Menifee, CA",,retail,446120,,,,,33.5615321,-117.2117764,,,n_11361225242,shop=beauty
"Menifee, CA",,retail,445210,,,,,33.5609425,-117.2117958,,,n_11361225245,shop=butcher
"Menifee, CA",,retail,445120,ARCO,"2646 East Alessandro Boulevard, Riverside, CA, 92508",+1-951-653-5340,https://arco-riverside.com,33.9176035,-117.2849585,,,n_11372779160,shop=convenience
"Menifee, CA",,retail,445110,Advanced Emission Specialist's,"29770 Bradley Road, Menifee, CA, 92586",+1-951-246-8147,https://aessmog.com,33.6883173,-117.1870759,,,n_11380696151,"shop=supermarket, operator=Krysta Cano"
"Menifee, CA",,retail,446120,La Mode,,,,33.5565872,-117.2005136,,,n_11382779089,shop=beauty
"Menifee, CA",,retail,446120,Paris Nails And Spa,,,,33.5544481,-117.1949415,,,n_11406432358,shop=beauty
"Menifee, CA",,retail,445310,Village Spirit Shop,"502 South Main Avenue, Fallbrook, CA, 92028",,,33.378408,-117.2511926,,,n_11418295074,shop=alcohol
"Menifee, CA",,retail,453110,Fallbrook Florist,"522 South Main Avenue, Fallbrook, 92028",,https://www.fallbrookflorist.net/,33.3779774,-117.2512181,,,n_11418295080,shop=florist
"Menifee, CA",,retail,445120,7-Eleven,"631 South Main Street, Fallbrook, CA, 92028-2945",+1 760-728-0583,https://www.7-eleven.com/locations/ca/fallbrook/631-s.-main-st.-21800,33.3769925,-117.251788,,,n_11418295207,"shop=convenience, brand=7-Eleven"
"Menifee, CA",,retail,446120,Indego blue,,,,33.3789635,-117.2516781,,,n_11418295250,shop=beauty
"Menifee, CA",,retail,453991,Smoke Chalet,"235 East Mission Road, Fallbrook, CA, 92028",,,33.3844866,-117.2493151,,,n_11421018088,shop=tobacco
"Menifee, CA",,retail,445310,,,,,33.5724905,-117.1830732,,,n_11426093975,shop=alcohol
"Menifee, CA",,retail,446120,Herbal Nails,,,,33.8330132,-117.531157,,,n_11507873542,shop=beauty
"Menifee, CA",,retail,446120,Naked Beauty Lounge,,,,33.8331571,-117.5312251,,,n_11507873544,shop=beauty
"Menifee, CA",,retail,452210,Ross,"330 North McKinley Street, Corona, CA, 92879",+1 951-278-2788,,33.8870386,-117.5198354,,,n_11559062103,"shop=department_store, brand=Ross"
"Menifee, CA",,retail,446120,LaserAway,"350 North McKinley Street, Corona, CA, 92879",,,33.8871725,-117.5211859,,,n_11559062104,"shop=beauty, brand=LaserAway"
"Menifee, CA",,retail,446120,Jade Nails,,,,33.6666301,-117.2626978,,,n_11597433366,shop=beauty
"Menifee, CA",,retail,446120,Dream Tan,,,,33.6668355,-117.2634526,,,n_11597464169,shop=beauty
"Menifee, CA",,retail,445120,Food Mart,,,,33.6676101,-117.2649714,,,n_11597464173,shop=convenience
"Menifee, CA",,retail,452319,Dollar Tree,,,https://www.dollartree.com/locations/ca/riverside/7451/,33.8834083,-117.364573,,,n_11624932957,"shop=variety_store, brand=Dollar Tree"
"Menifee, CA",,retail,453991,,,,,33.8477075,-117.543849,,,n_11636595664,shop=tobacco
"Menifee, CA",,retail,445120,ExtraMile,,,,33.8483076,-117.544247,,,n_11636595665,"shop=convenience, brand=ExtraMile"
"Menifee, CA",,retail,445110,Seoul Asian Market,,,,33.5560139,-117.1751889,,,n_11643156201,shop=supermarket
"Menifee, CA",,retail,452210,Burlington,,,,33.4775294,-117.1028367,,,n_11660997232,"shop=department_store, brand=Burlington"
"Menifee, CA",,retail,445110,Amazon Fresh,,,,33.5575843,-117.1793272,,,n_11685351271,"shop=supermarket, brand=Amazon Fresh"
"Menifee, CA",,retail,445110,Stater Bros. Markets,"1271 North State Street, San Jacinto, CA, 92583",+1 951-487-9070,https://www.staterbros.com/stores/180,33.8041696,-116.9707775,,,n_11809317183,"shop=supermarket, brand=Stater Bros."
"Menifee, CA",,retail,445110,Stater Bros. Markets,"41849 Florida Avenue, Hemet, CA, 92544",+1 951-652-2388,https://www.staterbros.com/stores/75,33.7467912,-116.9316848,,,n_11809317184,"shop=supermarket, brand=Stater Bros."
"Menifee, CA",,retail,445110,Stater Bros.,"3125 West Florida Avenue, Hemet, CA, 92545",+1 951-537-1190,https://www.staterbros.com/stores/195,33.745628,-117.0053453,,,n_11809317187,"shop=supermarket, brand=Stater Bros."
"Menifee, CA",,retail,445110,ALDI,"32130 Temecula Parkway, Temecula, CA, 92592",+1 855-955-2534,https://stores.aldi.us/ca/temecula/32130-temecula-pkwy,33.482943,-117.0968201,,,n_11809317188,"shop=supermarket, brand=ALDI"
"Menifee, CA",,retail,445110,Ralphs,"30125 Antelope Road, Menifee, CA, 92584",+1 951-679-2117,https://www.ralphs.com/stores/grocery/ca/menifee/menifee-town-center/703/00140,33.6842435,-117.1689336,,,n_11809317190,"shop=supermarket, brand=Ralphs"
"Menifee, CA",,retail,445110,ALDI,"80 Citrus Avenue, Perris, CA, 92571",+1 833-479-7074,https://stores.aldi.us/ca/perris/80-citrus-ave,33.8086196,-117.2279697,,,n_11809317191,"shop=supermarket, brand=ALDI"
"Menifee, CA",,retail,445110,Stater Bros. Markets,"47 West Nuevo Road, Perris, CA, 92571",+1 951-657-1823,https://www.staterbros.com/stores/113,33.79977,-117.2271154,,,n_11809317192,"shop=supermarket, brand=Stater Bros."
"Menifee, CA",,retail,445110,Stater Bros. Markets,"16750 Lakeshore Drive, Lake Elsinore, CA, 92530",+1 951-674-1349,https://www.staterbros.com/stores/98,33.6868861,-117.3679824,,,n_11809317193,"shop=supermarket, brand=Stater Bros."
"Menifee, CA",,retail,445110,Ralphs Fresh Fare,"5225 Canyon Crest Drive, Riverside, CA, 92507",+1 951-784-3123,https://www.ralphs.com/stores/grocery/ca/riverside/canyon-crest-town-center/703/00609,33.9559109,-117.3321018,,,n_11809317216,"shop=supermarket, brand=Ralphs"
"Menifee, CA",,retail,445110,Sprouts Farmers Market,"24101 Hemlock Avenue, Moreno Valley, CA, 92557",+1 951-567-7549,https://www.sprouts.com/store/ca/moreno-valley/447-moreno-valley/,33.941835,-117.242605,,,n_11809317221,"shop=supermarket, brand=Sprouts Farmers Market"
"Menifee, CA",,retail,445110,Stater Bros. Markets,"11875 Pigeon Pass Road, Moreno Valley, CA, 92557",+1 951-924-2575,https://www.staterbros.com/stores/193,33.9482951,-117.2621968,,,n_11809317223,"shop=supermarket, brand=Stater Bros."
"Menifee, CA",,retail,445110,Barons Market,,,,33.5142365,-117.1024405,,,n_12012657186,shop=supermarket
"Menifee, CA",,retail,445120,Circle K,"19470 Brown Street, 92570",,,33.8375779,-117.2955635,,,n_12037843269,shop=convenience
"Menifee, CA",,retail,446120,Sephora,,,,33.9070356,-117.4599771,,,n_12065657131,"shop=cosmetics, brand=Sephora"
"Menifee, CA",,retail,445120,7-Eleven,,,,33.7218634,-117.1566854,,,n_12133171075,"shop=convenience, brand=7-Eleven"
"Menifee, CA",,retail,446120,Sephora,,,,33.5244184,-117.153641,,,n_12150138744,"shop=cosmetics, brand=Sephora"
"Menifee, CA",,retail,446120,Nails Now,,,,33.5100251,-117.1266307,,,n_12181371166,shop=beauty
"Menifee, CA",,retail,446120,Nugenes Nails,,,,33.5098762,-117.12767,,,n_12181371170,shop=beauty
"Menifee, CA",,retail,446120,Above & Beyond Beauty: The Hive Style House,,,,33.5098317,-117.1277278,,,n_12181371175,shop=beauty
"Menifee, CA",,retail,446120,European Wax Center,,,,33.5054368,-117.1471994,,,n_12193712919,"shop=beauty, brand=European Wax Center"
"Menifee, CA",,retail,446120,Vivian Spa & Nails,,,,33.5061326,-117.1472377,,,n_12193712926,shop=beauty
"Menifee, CA",,retail,446120,Beauty By Threading,,,,33.505364,-117.1487384,,,n_12193712931,shop=beauty
"Menifee, CA",,retail,446120,Salon 29,,,,33.5054105,-117.1472535,,,n_12193712933,shop=beauty
"Menifee, CA",,retail,446120,SalonDLM,,,,33.5039915,-117.1516028,,,n_12195904672,shop=beauty
"Menifee, CA",,retail,453991,Smoke & Dreams,,,,33.5037951,-117.1510165,,,n_12195904685,shop=tobacco
"Menifee, CA",,retail,446120,Talk of the Town Luxury Salon Suites,,,,33.5041434,-117.1516249,,,n_12195904689,shop=beauty
"Menifee, CA",,retail,446120,Aloha Nails & Botique,,,,33.5036909,-117.1511826,,,n_12195904690,shop=beauty
"Menifee, CA",,retail,452210,Burlington,,,,33.9097407,-117.4612338,,,n_12228545200,"shop=department_store, brand=Burlington"
"Menifee, CA",,retail,446120,Sola Salons,,,,33.5258538,-117.153628,,,n_12289023146,"shop=beauty, brand=Sola Salons"
"Menifee, CA",,retail,445110,Asian Mini Mart - Menifee's Asian Market,"29800 Bradley Road, Menifee, CA, 92586",(951) 923-2682,https://asianminimartmenifee.com,33.6882935,-117.1879535,,,n_12303149795,"shop=supermarket, brand=Asian Mini Mart, operator=Asian Mini Mart"
"Menifee, CA",,retail,446120,Kreate Beauty Supply House,,,,33.4832007,-117.0853275,,,n_12360490052,shop=beauty
"Menifee, CA",,retail,446120,Canny Nails & Spa,,,,33.4851031,-117.0811274,,,n_12360490060,shop=beauty
"Menifee, CA",,retail,445310,Temecula Wine & Spirits,,,,33.4862229,-117.0773866,,,n_12360490061,shop=alcohol
"Menifee, CA",,retail,446120,Bvon Nails,,,,33.4846134,-117.079354,,,n_12360490068,shop=beauty
"Menifee, CA",,retail,446120,Mojave Rain Salon & Apothecary,,,,33.4859481,-117.0773203,,,n_12360490077,shop=beauty
"Menifee, CA",,retail,446120,European Wax Center,,,,33.4841268,-117.0816186,,,n_12360490088,"shop=beauty, brand=European Wax Center"
"Menifee, CA",,retail,446120,TT Nails & Spa,,,,33.4787943,-117.1013299,,,n_12363488750,shop=beauty
"Menifee, CA",,retail,445120,,,,,33.4791807,-117.1034447,,,n_12363488765,shop=convenience
"Menifee, CA",,retail,446120,Salon de Cheveux,,,,33.480992,-117.1009122,,,n_12363503328,shop=beauty
"Menifee, CA",,retail,453991,,,,,33.4820431,-117.1010546,,,n_12363503333,shop=tobacco
"Menifee, CA",,retail,446120,Tip & Toe Spa,,,,33.4820129,-117.1010399,,,n_12363503341,shop=beauty
"Menifee, CA",,retail,446120,Sally’s Nail Spa,,,,33.4815851,-117.0896094,,,n_12372730049,shop=beauty
"Menifee, CA",,retail,453991,,,,,33.4822077,-117.0896651,,,n_12372730052,shop=tobacco
"Menifee, CA",,retail,446120,Bath & Body Works,,,,33.479941,-117.0960365,,,n_12372730064,"shop=cosmetics, brand=Bath & Body Works"
"Menifee, CA",,retail,445120,7-Eleven,,,,33.4818394,-117.0927962,,,n_12372730065,"shop=convenience, brand=7-Eleven"
"Menifee, CA",,retail,446120,Red Persimmon Nails & Spa,,,,33.4809086,-117.0921743,,,n_12372730071,shop=beauty
"Menifee, CA",,retail,445292,See's Candies,,,,33.4808739,-117.0922669,,,n_12372730073,"shop=confectionery, brand=See's Candies"
"Menifee, CA",,retail,445310,Grazing Theory Wine and Cheese Shop,,,,33.4791266,-117.0974853,,,n_12392689117,shop=wine
"Menifee, CA",,retail,445310,Marshall Stuart Fine Wines,,,,33.4788978,-117.0974154,,,n_12392689128,shop=wine
"Menifee, CA",,retail,446120,Majestic Brows Threading Salon,,,,33.4823996,-117.0947922,,,n_12392840815,shop=beauty
"Menifee, CA",,retail,446120,Ladive Nails & Spa,,,,33.5535503,-117.138143,,,n_12434056746,shop=beauty
"Menifee, CA",,retail,446120,European Wax Center,,,,33.5532653,-117.1381405,,,n_12434056751,"shop=beauty, brand=European Wax Center"
"Menifee, CA",,retail,446120,Esmee Nails,,,,33.5132635,-117.103,,,n_12434499914,shop=beauty
"Menifee, CA",,retail,446120,Vivacious Beauty Lounge,"9444 Magnolia Avenue, Riverside, CA, 92503",,,33.9207761,-117.4453238,,,n_12451973296,shop=beauty
"Menifee, CA",,retail,452319,Dollar Tree,"30910 Benton Road, Winchester, CA, 92596",,,33.5919626,-117.1206691,,,n_12454199300,"shop=variety_store, brand=Dollar Tree"
"Menifee, CA",,retail,446120,Kiara Threading,,,,33.5198556,-117.1594704,,,n_12457681586,shop=beauty
"Menifee, CA",,retail,446191,Artisan’s Palate,,,,33.5199723,-117.1596314,,,n_12457765706,shop=health_food
"Menifee, CA",,retail,446120,Phoenix Salon Suites,,,,33.5216096,-117.1605805,,,n_12457765712,shop=beauty
"Menifee, CA",,retail,452319,Dollar Tree,,,,33.9267941,-116.9137945,,,n_12461705316,"shop=variety_store, brand=Dollar Tree"
"Menifee, CA",,retail,445120,ExtraMile,"826 Ramsey Street, CA",,,33.9257729,-116.8858274,,,n_12461735648,"shop=convenience, brand=ExtraMile"
"Menifee, CA",,retail,452319,Five Below,,,,33.909035,-117.4571352,,,n_12545049657,"shop=variety_store, brand=Five Below"
"Menifee, CA",,retail,452319,Daiso Japan,,,,33.9106399,-117.4619363,,,n_12545056750,"shop=variety_store, brand=Daiso"
"Menifee, CA",,retail,445110,Smart & Final,,,,33.941463,-117.280522,,,n_12554581703,shop=grocery
"Menifee, CA",,retail,446120,Lilly Beauty VIP Lounge,,,,33.5190429,-117.1519216,,,n_12582575694,shop=beauty
"Menifee, CA",,retail,446120,Temecula Salon-Day Spa,,,,33.5190464,-117.1520202,,,n_12582575695,shop=beauty
"Menifee, CA",,retail,446120,Félicie Nail Salon,,,,33.5190472,-117.151749,,,n_12582575696,shop=beauty
"Menifee, CA",,retail,445120,La Favorita,,,,33.7812767,-117.2449266,,,n_12631289323,shop=convenience
"Menifee, CA",,retail,446120,Nail Design,,,,33.7814058,-117.2449124,,,n_12632055525,shop=beauty
"Menifee, CA",,retail,452319,Absolute Dollar Store,,,,33.9444368,-117.4554084,,,n_12669100455,shop=variety_store
"Menifee, CA",,retail,446120,Karen Allen Salon,,,,33.5240432,-117.1537327,,,n_12674426726,shop=beauty
"Menifee, CA",,retail,446120,LaserAway,,,,33.5240089,-117.1538351,,,n_12674426756,"shop=beauty, brand=LaserAway"
"Menifee, CA",,retail,445292,Sunny Candy,,,,33.5247265,-117.154538,,,n_12682634843,shop=confectionery
"Menifee, CA",,retail,446120,Bath & Body Works,,,,33.5247881,-117.1543902,,,n_12682634857,"shop=cosmetics, brand=Bath & Body Works"
"Menifee, CA",,retail,446120,Perfume Gallery,,,,33.524646,-117.1550818,,,n_12703995101,shop=perfumery
"Menifee, CA",,retail,446120,Ten Perfect Nails,,,,33.5258099,-117.1530758,,,n_12703995116,shop=beauty
"Menifee, CA",,retail,445292,Rocky Mountain Chocolate Factory,,,,33.5244765,-117.1543718,,,n_12703995120,"shop=confectionery, brand=Rocky Mountain Chocolate Factory"
"Menifee, CA",,retail,452319,Miniso,,,,33.524382,-117.1546719,,,n_12703995131,"shop=variety_store, brand=Miniso"
"Menifee, CA",,retail,446120,Healthy Nail Spa,,,,33.5257706,-117.1497108,,,n_12724511642,shop=beauty
"Menifee, CA",,retail,445120,Fuel Up! Food Mart,,,,33.5262703,-117.1573758,,,n_12724511647,shop=convenience
"Menifee, CA",,retail,446120,Bella Vida Medspa,,,,33.5226718,-117.1572251,,,n_12724511653,shop=beauty
"Menifee, CA",,retail,446120,Rejuv Laser Spa,,,,33.5257805,-117.149876,,,n_12724511659,shop=beauty
"Menifee, CA",,retail,445110,Aldi,"24856 Iris Avenue, Moreno Valley, CA, 92551",,,33.8876201,-117.2280536,,,n_12809975744,"shop=supermarket, brand=Aldi"
"Menifee, CA",,retail,445120,Rocket,,,,33.6757996,-117.3241556,,,n_12858915040,"shop=convenience, brand=Rocket"
"Menifee, CA",,retail,445120,7-Eleven,,,,33.6762557,-117.3247974,,,n_12858915042,"shop=convenience, brand=7-Eleven"
"Menifee, CA",,retail,445120,Shell,,,,33.88898,-117.323781,,,n_12917485008,"shop=convenience, brand=Shell"
"Menifee, CA",,retail,445120,7-Eleven,,,,33.8033219,-116.9726385,,,n_12917498717,"shop=convenience, brand=7-Eleven"
"Menifee, CA",,retail,445110,Pioneer Cash & Carry,,,,33.9244037,-117.4411089,,,n_13012894630,shop=supermarket
"Menifee, CA",,retail,445120,ampm,,,,33.8958277,-117.4909665,,,w_31965641,"shop=convenience, brand=ampm, operator=ampm"
"Menifee, CA",,retail,445110,Ralphs,"23801 Washington Avenue, Murrieta, CA, 92562",+1 951-677-2297,https://www.ralphs.com/stores/grocery/ca/murrieta/plaza-del-oro-sc/703/00118,33.570396,-117.2346176,,,w_43971826,"shop=supermarket, brand=Ralphs"
"Menifee, CA",,retail,446110,CVS Pharmacy,,,https://www.cvs.com/store-locator/murrieta-ca-pharmacies/23791-washington-ave-murrieta-ca-92562/storeid=9157,33.570831,-117.2350658,,,w_43972233,"shop=chemist, amenity=pharmacy, brand=CVS Pharmacy"
"Menifee, CA",,retail,445120,,,,,33.5631192,-117.207894,,,w_43990964,shop=convenience
"Menifee, CA",,retail,445110,WinCo Foods,,,,33.5305916,-117.1539787,,,w_55881435,"shop=supermarket, brand=WinCo Foods"
"Menifee, CA",,retail,446110,CVS Pharmacy,,,https://www.cvs.com/store-locator/temecula-ca-pharmacies/40365-winchester-rd-temecula-ca-92591/storeid=9550,33.5328068,-117.1520642,,,w_55883366,"shop=chemist, brand=CVS Pharmacy"
"Menifee, CA",,retail,446120,Mai Roc Stylez,,,,33.5068031,-117.1485551,,,w_56228083,shop=beauty
"Menifee, CA",,retail,445120,Food Mart,,,,33.5099658,-117.1248463,,,w_56228607,"shop=convenience, operator=Shell"
"Menifee, CA",,retail,445120,ampm,,,,33.6607426,-117.2990249,,,w_62333837,"shop=convenience, brand=ampm"
"Menifee, CA",,retail,445120,ExtraMile,"31640 Mission Trail, Lake Elsinore, CA, 92530-4565",+1-951- 674-6393,https://www.chevronextramile.com/station-finder/31640-mission-trl-lake-elsinore-ca-92530-4565-id90802/,33.6609592,-117.3010311,,,w_62333855,"shop=convenience, brand=ExtraMile"
"Menifee, CA",,retail,445120,7-Eleven,,,https://www.7-eleven.com/locations/ca/lake-elsinore/31805-grape-st-35344,33.6630137,-117.2978361,,,w_62334279,"shop=convenience, brand=7-Eleven"
"Menifee, CA",,retail,445120,ampm,,,,33.4807909,-117.1024696,,,w_69963744,"shop=convenience, brand=ampm"
"Menifee, CA",,retail,446120,NeoMed Spa,,,,33.4781745,-117.1043726,,,w_69964608,shop=beauty
"Menifee, CA",,retail,445120,Jacksons,,,,33.4799854,-117.1005451,,,w_71051360,"shop=convenience, operator=Shell"
"Menifee, CA",,retail,452210,Kohl's,"32085 Temecula Parkway, Temecula, CA, 92592",+1 951-302-2112,https://www.kohls.com/stores/ca/temecula-606.shtml,33.4787327,-117.0989807,,,w_71055081,"shop=department_store, brand=Kohl's"
"Menifee, CA",,retail,445110,Western Eagle Foundation,,,,33.5275159,-117.1596727,,,w_77965388,shop=supermarket
"Menifee, CA",,retail,445120,ampm,,,,33.7745834,-117.4874196,,,w_79157366,"shop=convenience, brand=ampm"
"Menifee, CA",,retail,452210,Target,"3520 Tyler Street, Riverside, CA, 92503-4103",+1 951-351-8271,https://www.target.com/sl/riverside/212,33.9062554,-117.4598538,,,w_79785977,"shop=department_store, brand=Target"
"Menifee, CA",,retail,445110,Northgate Market,,,,33.9123283,-117.4639772,,,w_79785981,shop=supermarket
"Menifee, CA",,retail,445110,Ralphs,"33145 Temecula Parkway, Temecula, CA, 92592",+1 951-303-3102,https://www.ralphs.com/stores/grocery/ca/temecula/vail-ranch/703/00686,33.4843053,-117.0798201,,,w_79876658,"shop=supermarket, brand=Ralphs"
"Menifee, CA",,retail,445120,Circle K,,,,33.4855795,-117.0794378,,,w_79876665,"shop=convenience, brand=Circle K, operator=Mobil"
"Menifee, CA",,retail,445110,Smart & Final,"32937 Temecula Parkway, Temecula, CA, 92592",+1 951-302-7046,https://stores.bestbuy.com/ca/temecula/32937-us-hwy-79-1076.html,33.4840947,-117.0810197,,,w_79876790,"shop=supermarket, brand=Smart & Final"
"Menifee, CA",,retail,445120,ampm,,,,33.5031684,-117.1495378,,,w_82652028,"shop=convenience, brand=ampm"
"Menifee, CA",,retail,445120,ampm,,,,33.5384656,-117.1441606,,,w_83872318,"shop=convenience, brand=ampm"
"Menifee, CA",,retail,445120,Circle K,,,,33.4990603,-117.1531304,,,w_84267712,"shop=convenience, brand=Circle K"
"Menifee, CA",,retail,452210,Walmart,"41200 Murrieta Hot Springs Road, Murrieta, CA, 92562",+1 951-696-7135,https://www.walmart.com/store/2952-murrieta-ca,33.5526275,-117.1926596,,,w_85104682,"shop=department_store, brand=Walmart, operator=Walmart"
"Menifee, CA",,retail,445120,ampm,,,,33.5210879,-117.1660603,,,w_86199019,"shop=convenience, brand=ampm"
"Menifee, CA",,retail,452210,Kohl's,"24661 Madison Avenue, Murrieta, CA, 92562",+1 951-461-7512,https://www.kohls.com/stores/ca/murrieta-585.shtml,33.5617304,-117.2079207,,,w_86304634,"shop=department_store, brand=Kohl's"
"Menifee, CA",,retail,452210,Burlington,"39855 Alta Murrieta Drive, Murrieta, CA, 92563",+1 951-677-8204,https://stores.burlington.com/ca/murrieta/748,33.5602418,-117.1798048,,,w_91800016,"shop=department_store, brand=Burlington"
"Menifee, CA",,retail,445120,7-Eleven,,,https://www.7-eleven.com/locations/ca/murrieta/41260-murrieta-hot-sprgs-33062,33.5521993,-117.1956537,,,w_97036337,"shop=convenience, brand=7-Eleven"
"Menifee, CA",,retail,445120,Ortega Oaks Candy Store and Goods,"34950 Ortega Highway, Lake Elsinore",,http://www.the74candystore.com,33.6127893,-117.4262931,,,w_100946310,shop=convenience
"Menifee, CA",,retail,445120,Rocket,41010 California Oaks Road,,,33.5671508,-117.2055697,,,w_103761590,shop=convenience
"Menifee, CA",,retail,452210,Target,"41040 California Oaks Road, Murrieta, CA, 92562-5749",+1 951-696-7527,https://www.target.com/sl/murrieta/1283,33.5657853,-117.2031842,,,w_103761598,"shop=department_store, brand=Target"
"Menifee, CA",,retail,445110,Target,"27818 Clinton Keith Road, Murrieta, CA, 92562-8554",+1 951-704-1123,https://www.target.com/sl/murrieta-north/2499,33.6041842,-117.1729956,,,w_103915988,"shop=supermarket, brand=Target"
"Menifee, CA",,retail,445110,Albertsons,"41000 California Oaks Road, Murrieta, CA, 92562",+1 951-600-1027,https://local.albertsons.com/ca/murrieta/41000-california-oaks-rd.html,33.5669208,-117.2037429,,,w_103916755,"shop=supermarket, brand=Albertsons"
"Menifee, CA",,retail,446110,Walgreens,,,https://www.walgreens.com/locator/walgreens-40663+california+oaks+rd-murrieta-ca-92562/id=9884,33.5725091,-117.2041664,,,w_104732019,"shop=chemist, brand=Walgreens"
"Menifee, CA",,retail,445110,Barons Market,40545 California Oaks Road,,,33.575282,-117.2030913,,,w_104732029,shop=supermarket
"Menifee, CA",,retail,452319,Dollar Tree,"40565 California Oaks Road, Murrieta, CA, 92562",,https://www.dollartree.com/locations/ca/murrieta/2326/,33.5746052,-117.2035709,,,w_104732035,"shop=variety_store, brand=Dollar Tree"
"Menifee, CA",,retail,452319,Dollar Tree,,,https://www.dollartree.com/locations/ca/murrieta/8515/,33.5999088,-117.1768948,,,w_104904926,"shop=variety_store, brand=Dollar Tree"
"Menifee, CA",,retail,445110,Lake Elsinore Market,,,,33.6570566,-117.3757891,,,w_104936600,shop=supermarket
"Menifee, CA",,retail,452210,Target,"27100 Eucalyptus Avenue, Moreno Valley, CA, 92555",+1 951-571-8014,https://www.target.com/sl/moreno-valley-east/2309,33.9380129,-117.1896229,,,w_105081867,"shop=department_store, brand=Target, operator=Target"
"Menifee, CA",,retail,445310,BevMo!,24390 Village Walk Place,,,33.5681114,-117.213651,,,w_106912519,"shop=alcohol, brand=BevMo!"
"Menifee, CA",,retail,445120,7-Eleven,"40981 California Oaks Road, Murrieta, CA, 92562-5748",+1 951-696-8291,https://www.7-eleven.com/locations/ca/murrieta/40981-california-oaks-rd-39498,33.567928,-117.2067377,,,w_106940575,"shop=convenience, brand=7-Eleven"
"Menifee, CA",,retail,445120,Circle K,,,,33.4752688,-117.1281125,,,w_107476657,"shop=convenience, brand=Circle K"
"Menifee, CA",,retail,445110,Smart & Final,25060 Madison Avenue,,,33.5586535,-117.1998536,,,w_108260268,"shop=supermarket, brand=Smart & Final"
"Menifee, CA",,retail,452210,TJ Maxx,,,,33.682905,-117.1724048,,,w_108692924,"shop=department_store, brand=TJ Maxx"
"Menifee, CA",,retail,452210,Kohl's,"30252 Haun Road, Menifee, CA, 92584",+1 951-301-9605,https://www.kohls.com/stores/ca/menifee-1282.shtml,33.6818382,-117.1722419,,,w_108692927,"shop=department_store, brand=Kohl's"
"Menifee, CA",,retail,452210,Target,"30340 Haun Road, Menifee, CA, 92584-6806",+1 951-723-6151,https://www.target.com/sl/menifee/2471,33.680334,-117.1722311,,,w_108692929,"shop=department_store, brand=Target"
"Menifee, CA",,retail,445120,,,,,33.59222,-117.1239142,,,w_108781532,shop=convenience
"Menifee, CA",,retail,446110,CVS Pharmacy,,,https://www.cvs.com/store-locator/winchester-ca-pharmacies/30736-benton-rd-winchester-ca-92596/storeid=8848,33.5914594,-117.1223625,,,w_108781536,"shop=chemist, brand=CVS Pharmacy"
"Menifee, CA",,retail,445230,Fresh Oranges,,,,34.0453634,-117.1591102,,,w_111562510,shop=greengrocer
"Menifee, CA",,retail,445120,ampm,,,,33.5948624,-117.2470947,,,w_112118758,"shop=convenience, brand=ampm"
"Menifee, CA",,retail,445110,Stater Bros.,"36010 Hidden Springs Road, Wildomar, CA, 92595",+1 951-678-3191,https://www.staterbros.com/stores/174,33.597239,-117.2477823,,,w_112118769,"shop=supermarket, brand=Stater Bros."
"Menifee, CA",,retail,445120,Shell Select,23805 Clinton Keith Road,,,33.5961718,-117.2433322,,,w_112118998,"shop=convenience, brand=Shell Select"
"Menifee, CA",,retail,445120,ExtraMile,"23905 Catt Road, Wildomar, CA, 92595",,,33.5975658,-117.2433992,,,w_112119159,"shop=convenience, brand=ExtraMile"
"Menifee, CA",,retail,452210,Big Lots,"25260 Madison Avenue, Murrieta, CA, 92562",+1 951-698-1417,https://local.biglots.com/ca/murrieta/25260-madison-ave,33.5559334,-117.1963879,,,w_112261226,"shop=department_store, brand=Big Lots"
"Menifee, CA",,retail,446110,Walgreens,40420 Murrieta Hot Springs Road,,https://www.walgreens.com/locator/walgreens-40420+murrieta+hot+springs+rd-murrieta-ca-92563/id=1995,33.5557471,-117.1769051,,,w_112263196,"shop=chemist, brand=Walgreens"
"Menifee, CA",,retail,445120,Shell Select,40452 Murrieta Hot Springs Road,,,33.5556969,-117.1780533,,,w_112263197,"shop=convenience, brand=Shell Select"
"Menifee, CA",,retail,445110,Trader Joe's,40388 Murrieta Hot Springs Road,,https://locations.traderjoes.com/ca/murrieta/258/,33.5539161,-117.1759818,,,w_112264176,"shop=supermarket, brand=Trader Joe's"
"Menifee, CA",,retail,445310,,,,,33.5276652,-117.0656569,,,w_112648064,shop=wine
"Menifee, CA",,retail,445310,Baily Winery,,,,33.5232184,-117.0825659,,,w_112648079,shop=wine
"Menifee, CA",,retail,445230,Gless Ranch,"19985 Van Buren Boulevard, Riverside, 92508",,,33.8884814,-117.3169941,,,w_118135165,shop=greengrocer
"Menifee, CA",,retail,445110,Maxi Foods Market,,,,33.9830605,-117.3788607,,,w_118725902,shop=supermarket
"Menifee, CA",,retail,445110,Albertsons,"30901 Riverside Drive, Lake Elsinore, CA, 92530",+1 951-245-4461,https://local.albertsons.com/ca/lake-elsinore/30901-riverside-dr.html,33.686074,-117.3670048,,,w_118778627,"shop=supermarket, brand=Albertsons"
"Menifee, CA",,retail,445310,Juice Bar,,,,33.507533,-117.1470753,,,w_119971976,shop=beverages
"Menifee, CA",,retail,445230,,,,,33.4784718,-117.1013449,,,w_119980286,"shop=greengrocer, operator=Stater Bros."
"Menifee, CA",,retail,445210,,,,,33.4780025,-117.1015885,,,w_119980289,"shop=butcher, operator=Stater Bros."
"Menifee, CA",,retail,445310,,,,,33.4780969,-117.1017451,,,w_119980291,"shop=alcohol, operator=Stater Bros."
"Menifee, CA",,retail,452319,,,,,33.4782448,-117.1016458,,,w_119980666,"shop=general, operator=Stater Bros."
"Menifee, CA",,retail,445110,,,,,33.4782028,-117.1013875,,,w_119980668,"shop=supermarket, operator=Stater Bros."
"Menifee, CA",,retail,445110,Stater Bros.,"31813 Temecula Parkway, Temecula, CA, 92592",+1 951-303-1244,https://www.staterbros.com/stores/138,33.4783244,-117.1015101,,,w_119980687,"shop=supermarket, brand=Stater Bros."
"Menifee, CA",,retail,446120,Regal Nails,,,,33.4806537,-117.0945239,,,w_120078796,"shop=beauty, brand=Regal Nails"
"Menifee, CA",,retail,445110,Walmart Supercenter,"32225 Temecula Parkway, Temecula, CA, 92592",+1 951-506-7613,https://www.walmart.com/store/2708-temecula-ca,33.4801997,-117.0943595,,,w_120079321,"shop=supermarket, brand=Walmart, operator=Wal-Mart"
"Menifee, CA",,retail,452319,,,,,33.4799123,-117.0941488,,,w_120081022,"shop=general, operator=Wal-Mart"
"Menifee, CA",,retail,445230,,,,,33.4805777,-117.0938951,,,w_120081023,"shop=greengrocer, operator=Wal-Mart"
"Menifee, CA",,retail,452210,Ross,"39845 Alta Murrieta Drive, Murrieta, CA, 92563",+1 951-698-5533,,33.5607329,-117.1798543,,,w_120759719,"shop=department_store, brand=Ross"
"Menifee, CA",,retail,446120,,,,,33.4855851,-117.0767152,,,w_121005211,shop=beauty
"Menifee, CA",,retail,452210,Target,"29676 Rancho California Road, Temecula, CA, 92591-5283",+1 951-676-2668,https://www.target.com/sl/rancho-california/359,33.5068591,-117.1459364,,,w_122475222,"shop=department_store, brand=Target"
"Menifee, CA",,retail,445120,Country Store,,,,33.6759857,-117.1374318,,,w_124287743,shop=convenience
"Menifee, CA",,retail,445110,Albertsons,"8938 Trautwein Road, Riverside, CA, 92508",+1 951-656-6603,https://local.albertsons.com/ca/riverside/8938-trautwein-rd.html,33.8902499,-117.3228481,,,w_124563432,"shop=supermarket, brand=Albertsons"
"Menifee, CA",,retail,452210,Kohl's,"19260 Van Buren Boulevard, Riverside, CA, 92508",+1 951-780-0785,https://www.kohls.com/stores/ca/riverside-603.shtml,33.8891057,-117.3273083,,,w_124676178,"shop=department_store, brand=Kohl's"
"Menifee, CA",,retail,446110,Walgreens,,,https://www.walgreens.com/locator/walgreens-8917+trautwein+rd-riverside-ca-92508/id=7786,33.8889062,-117.3249526,,,w_124676184,"shop=chemist, brand=Walgreens"
"Menifee, CA",,retail,452319,Dollar Tree,,,https://locations.99only.com/ca/temecula/discount-store-334.html,33.5332684,-117.1517536,,,w_127570995,"shop=variety_store, brand=Dollar Tree"
"Menifee, CA",,retail,445110,Pavilions,"22451 Antonio Parkway, Rancho Santa Margarita, CA, 92688",+1 (949) 858-0164,https://local.pavilions.com/ca/rancho-santa-margarita/22451-antonio-pkwy.html,33.6368277,-117.5915834,,,w_129382676,"shop=supermarket, brand=Pavilions"
"Menifee, CA",,retail,445110,Vons,"11800 De Palma Road, Temescal Valley, CA, 92883",+1 951-603-0809,https://local.vons.com/ca/temescal-valley/11800-de-palma-rd.html,33.7474233,-117.4531732,,,w_130007118,"shop=supermarket, brand=Vons"
"Menifee, CA",,retail,445110,Vons,"535 North Mckinley Street, Corona, CA, 92879",+1 951-278-8012,https://local.vons.com/ca/corona/535-n-mckinley-st.html,33.8914363,-117.5201353,,,w_130007813,"shop=supermarket, brand=Vons"
"Menifee, CA",,retail,452319,Dollar Tree,,,https://www.dollartree.com/locations/ca/temecula/4730/,33.4776667,-117.1043184,,,w_130598818,"shop=variety_store, brand=Dollar Tree"
"Menifee, CA",,retail,446120,iTan,,,,33.4809345,-117.0969209,,,w_130608593,shop=beauty
"Menifee, CA",,retail,445110,Vons,"38995 Sky Canyon Drive, Murrieta, CA, 92563",+1 951-600-9583,https://local.vons.com/ca/murrieta/38995-sky-canyon-dr.html,33.5542735,-117.1385704,,,w_132686785,"shop=supermarket, brand=Vons"
"Menifee, CA",,retail,445110,Vons,"3520 Riverside Plaza Drive, Riverside, CA, 92506",+1 951-342-7924,https://local.vons.com/ca/riverside/3520-riverside-plaza.html,33.954656,-117.3895196,,,w_132978568,"shop=supermarket, brand=Vons"
"Menifee, CA",,retail,445110,Cardenas,"3840 La Sierra Ave, 92505",,,33.9041017,-117.478606,,,w_132979433,"shop=supermarket, brand=Cardenas"
"Menifee, CA",,retail,445110,Vons,"27220 Sun City Boulevard, Sun City, CA, 92586",+1 951-679-0127,https://local.vons.com/ca/sun-city/27220-sun-city-blvd.html,33.7127958,-117.1931381,,,w_133439846,"shop=supermarket, brand=Vons"
"Menifee, CA",,retail,445110,Vons,"29530 Rancho California Road, Temecula, CA, 92591",+1 951-695-6773,https://local.vons.com/ca/temecula/29530-rancho-california-rd.html,33.5052095,-117.1479007,,,w_133440185,"shop=supermarket, brand=Vons"
"Menifee, CA",,retail,445110,Vons,"33644 Yucaipa Boulevard, Yucaipa, CA, 92399",+1 909-797-7052,https://local.vons.com/ca/yucaipa/33644-yucaipa-blvd.html,34.0353939,-117.070136,,,w_133957909,"shop=supermarket, brand=Vons"
"Menifee, CA",,retail,445110,Ralphs,"31481 Santa Margarita Parkway, Rancho Santa Margarita, CA, 92688",+1 949-589-0156,https://www.ralphs.com/stores/grocery/ca/rancho-santa-margarita/mercado-del-lago-rancho-santa-margarita-shopping-center/703/00078,33.6507379,-117.5821386,,,w_134726917,"shop=supermarket, brand=Ralphs"
"Menifee, CA",,retail,452210,Ross,"32155 Temecula Parkway, Temecula, CA, 92592",+1 951-303-3028,,33.4793869,-117.0967961,,,w_137918366,"shop=department_store, brand=Ross"
"Menifee, CA",,retail,452210,Marshalls,,,,33.4795754,-117.0963294,,,w_137918492,"shop=department_store, brand=Marshalls"
"Menifee, CA",,retail,452319,Dollar Tree,,,,33.9169775,-117.4551744,,,w_138392363,"shop=variety_store, brand=Dollar Tree"
"Menifee, CA",,retail,452319,Dollar Tree,,,https://www.dollartree.com/locations/ca/riverside/2977/,33.9086219,-117.45962,,,w_138676221,"shop=variety_store, brand=Dollar Tree"
"Menifee, CA",,retail,445110,Sprouts Farmers Market,"32413 Highway 79 South, Temecula, CA, 92592",+1 951-303-0087,https://www.sprouts.com/store/ca/temecula/hwy-79-south/,33.4808551,-117.0917949,,,w_139326447,"shop=supermarket, brand=Sprouts Farmers Market"
"Menifee, CA",,retail,445120,7-Eleven,32060 Clinton Keith Road,,https://www.7-eleven.com/locations/ca/wildomar/32060-clinton-keith-rd-33595,33.5938091,-117.2470066,,,w_140949392,"shop=convenience, brand=7-Eleven"
"Menifee, CA",,retail,445120,Circle K,,,,33.4787042,-117.1376458,,,w_142866030,"shop=convenience, brand=Circle K"
"Menifee, CA",,retail,445120,Food Mart,,,,33.4820956,-117.1431606,,,w_142872802,"shop=convenience, operator=Shell"
"Menifee, CA",,retail,445120,Rocket,,,,33.9431385,-117.4546136,,,w_143012871,"shop=convenience, brand=Rocket"
"Menifee, CA",,retail,445120,Food Mart,,,,33.4542325,-117.1014316,,,w_145219011,"shop=convenience, brand=Pechanga"
"Menifee, CA",,retail,446120,Professional Nail,,,,33.4803003,-117.0997282,,,w_148535933,shop=beauty
"Menifee, CA",,retail,452210,Ross,40438 Winchester Road,,,33.5294564,-117.150748,,,w_165130434,"shop=department_store, brand=Ross"
"Menifee, CA",,retail,445110,Roots,40458 Winchester Road,,,33.5279936,-117.1500933,,,w_165130551,shop=supermarket
"Menifee, CA",,retail,453991,Smoke Shop,,,,33.4779958,-117.1043991,,,w_165474698,shop=tobacco
"Menifee, CA",,retail,446120,Pro Happy Nails & Spa,,951-303-3655,,33.4823996,-117.0896816,,,w_165556238,shop=beauty
"Menifee, CA",,retail,446110,CVS Pharmacy,,,https://www.cvs.com/store-locator/temecula-ca-pharmacies/30640-rancho-california-rd-temecula-ca-92591/storeid=9920,33.5100937,-117.1256092,,,w_165557241,"shop=chemist, brand=CVS Pharmacy"
"Menifee, CA",,retail,445230,Rancho Fruit Market,,,,33.4931049,-117.1481122,,,w_179343618,shop=greengrocer
"Menifee, CA",,retail,453991,Quality Tobacco Smoke Shop,,,,33.9192962,-117.4490125,,,w_186995684,shop=tobacco
"Menifee, CA",,retail,445310,Riverside Liquor,,,,33.917569,-117.4507509,,,w_186995778,shop=alcohol
"Menifee, CA",,retail,445120,On Z Run Market,,,,33.9212976,-117.4456282,,,w_186995849,shop=convenience
"Menifee, CA",,retail,452210,Goody's,,,,33.9272718,-117.4513055,,,w_186996271,"shop=department_store, brand=Goody's"
"Menifee, CA",,retail,445110,Stater Bros.,"9225 Magnolia Avenue, Riverside, CA, 92503",+1 951-343-2568,https://www.staterbros.com/stores/1,33.9239098,-117.4419333,,,w_187122964,"shop=supermarket, brand=Stater Bros."
"Menifee, CA",,retail,445310,Cavalier Liquor,,,,33.9166502,-117.4656618,,,w_187561006,shop=alcohol
"Menifee, CA",,retail,445110,Smart & Final,,,,33.9168778,-117.4649894,,,w_187561007,"shop=supermarket, brand=Smart & Final"
"Menifee, CA",,retail,445110,Hank's Farmer Market,,,,33.9461488,-117.4795185,,,w_189114346,shop=supermarket
"Menifee, CA",,retail,445120,Cachanilla Discount,,,,33.9471775,-117.469184,,,w_189114378,shop=convenience
"Menifee, CA",,retail,445210,,,,,33.521154,-117.1537443,,,w_201214534,"shop=butcher, operator=Costco"
"Menifee, CA",,retail,445110,Walmart Supercenter,"479 North McKinley Street, Corona, CA, 92879",+1 951-270-0707,https://www.walmart.com/store/1912-corona-ca,33.8907905,-117.5172947,,,w_201454867,"shop=supermarket, brand=Walmart, operator=Walmart"
"Menifee, CA",,retail,445310,,,,,33.534233,-117.0752962,,,w_204487932,shop=wine
"Menifee, CA",,retail,446110,CVS Pharmacy,,,https://www.cvs.com/store-locator/riverside-ca-pharmacies/3361-market-st-riverside-ca-92501/storeid=8897,33.9868228,-117.373281,,,w_207536999,"shop=chemist, brand=CVS Pharmacy"
"Menifee, CA",,retail,445110,Smart & Final,,,,33.9834173,-117.3650026,,,w_233262371,"shop=supermarket, brand=Smart & Final"
"Menifee, CA",,retail,445120,7-Eleven,"3315 14th Street, Riverside, CA, 92501",+1 951-682-1786,https://www.7-eleven.com/locations/ca/riverside/3315-14th-st-39756,33.9746805,-117.3739047,,,w_233264639,"shop=convenience, brand=7-Eleven"
"Menifee, CA",,retail,445292,See's Candies,"3525 Central Avenue, Riverside, CA",,,33.9538645,-117.3891095,,,w_233267709,"shop=confectionery, brand=See's Candies"
"Menifee, CA",,retail,446110,Walgreens,,,https://www.walgreens.com/locator/walgreens-6600+magnolia+ave-riverside-ca-92506/id=7262,33.9529536,-117.3960939,,,w_233268220,"shop=chemist, brand=Walgreens"
"Menifee, CA",,retail,452210,Target,"3333 Arlington Avenue, Riverside, CA, 92506-3252",+1 951-784-6430,https://www.target.com/sl/riverside-arlington/291,33.9478633,-117.3822237,,,w_233293291,"shop=department_store, brand=Target"
"Menifee, CA",,retail,445120,Circle K,,,,33.9362112,-117.4058763,,,w_233400555,"shop=convenience, brand=Circle K"
"Menifee, CA",,retail,445120,7-Eleven,"7020 Magnolia Avenue, Riverside, CA, 92506-2803",+1 951-787-7133,https://www.7-eleven.com/locations/ca/riverside/7020-magnolia-avenue-20019,33.9457601,-117.4009059,,,w_233401438,"shop=convenience, brand=7-Eleven"
"Menifee, CA",,retail,445120,7-Eleven,"5958 Magnolia Avenue, Riverside, CA, 92506-1884",+1 951-788-0105,https://www.7-eleven.com/locations/ca/riverside/5958-magnolia-ave-27635,33.9611504,-117.3910249,,,w_233433864,"shop=convenience, brand=7-Eleven"
"Menifee, CA",,retail,452210,Ross,"4080 Madison Street, Riverside, CA, 92504",+1 951-687-9930,,33.9449047,-117.4142219,,,w_233523952,"shop=department_store, brand=Ross"
"Menifee, CA",,retail,446110,CVS Pharmacy,"8280 Magnolia Avenue, Riverside, CA, 92504",+1-951-687-1308,https://www.cvs.com/store-locator/cvs-pharmacy-address/8280+Magnolia+Avenue-Riverside-CA-92504/storeid=9849,33.9327335,-117.4232743,,,w_233662991,"shop=chemist, brand=CVS Pharmacy"
"Menifee, CA",,retail,445110,Maxi Foods Market,"8616 California Avenue, Riverside, CA, 92504",+1-951-688-0538,https://maxifoodsmarkets.com/,33.9353087,-117.4347234,,,w_238511025,shop=supermarket
"Menifee, CA",,retail,445110,Stater Bros.,"17050 Van Buren Boulevard, Riverside, CA, 92508",+1 951-780-2261,https://www.staterbros.com/stores/80,33.883493,-117.365078,,,w_245593028,"shop=supermarket, brand=Stater Bros."
"Menifee, CA",,retail,445120,ampm,,,,33.6407944,-117.1675402,,,w_270493384,"shop=convenience, brand=ampm"
"Menifee, CA",,retail,445110,Albertsons,"28047 Scott Road, Murrieta, CA, 92563",+1 951-246-1586,https://local.albertsons.com/ca/murrieta/28047-scott-rd.html,33.6393115,-117.1697926,,,w_270493388,"shop=supermarket, brand=Albertsons"
"Menifee, CA",,retail,445120,,,,,33.6411011,-117.1688048,,,w_270493389,shop=convenience
"Menifee, CA",,retail,446110,Walgreens,,,https://www.walgreens.com/locator/walgreens-33060+antelope+rd-murrieta-ca-92563/id=10948,33.6409365,-117.1669397,,,w_270493393,"shop=chemist, brand=Walgreens"
"Menifee, CA",,retail,445292,See's Candies,26483 Ynez Road,,,33.5221152,-117.1579499,,,w_273632366,"shop=confectionery, brand=See's Candies"
"Menifee, CA",,retail,452319,Dollar Tree,,,https://www.dollartree.com/locations/ca/temecula/4294/,33.5200321,-117.1599592,,,w_273632690,"shop=variety_store, brand=Dollar Tree"
"Menifee, CA",,retail,445110,Food 4 Less,,,,33.5228401,-117.1607963,,,w_273632796,"shop=supermarket, brand=Food 4 Less"
"Menifee, CA",,retail,452210,TJ Maxx,,,,33.5222387,-117.1607882,,,w_273632797,"shop=department_store, brand=TJ Maxx"
"Menifee, CA",,retail,452210,Macy's Women’s,,,https://www.macys.com/stores/ca/temecula/promenade-temecula_535.html,33.5232731,-117.1541197,,,w_274205545,"shop=department_store, brand=Macy's"
"Menifee, CA",,retail,452210,"Macy's Mens’, Kids’, & Household",,,,33.5242564,-117.1558731,,,w_274205546,"shop=department_store, brand=Macy's"
"Menifee, CA",,retail,452210,JCPenney,,,,33.5254167,-117.1546129,,,w_274437309,"shop=department_store, brand=JCPenney"
"Menifee, CA",,retail,445120,Circle K,,,,33.6857377,-117.176118,,,w_281240034,"shop=convenience, brand=Circle K"
"Menifee, CA",,retail,445110,Lopez Market,,,,33.4982611,-117.1530719,,,w_283644062,shop=supermarket
"Menifee, CA",,retail,445120,Rancho Liquor,,,,33.4974518,-117.1527215,,,w_283644064,shop=convenience
"Menifee, CA",,retail,452210,JCPenney,,,,33.9105386,-117.4567562,,,w_287801788,"shop=department_store, brand=JCPenney"
"Menifee, CA",,retail,452210,Macy's,,,https://www.macys.com/stores/ca/riverside/galleria-at-tyler_536.html,33.9086811,-117.4561868,,,w_287802800,"shop=department_store, brand=Macy's"
"Menifee, CA",,retail,445110,Walmart Neighborhood Market,"30491 Avenida de las Flores, Rancho Santa Margarita, CA, 92688",+1 949-207-5070,https://www.walmart.com/store/5600/rancho-santa%20margarita-ca/whats-new,33.6407585,-117.6014094,,,w_290774331,"shop=supermarket, brand=Walmart, operator=Walmart"
"Menifee, CA",,retail,452210,Target,"30602 Santa Margarita Parkway, Rancho Santa Margarita, CA, 92688",+1 949-459-1543,https://www.target.com/sl/rancho-santa-margarita/914,33.6414325,-117.5982754,,,w_290774337,"shop=department_store, brand=Target"
"Menifee, CA",,retail,452210,Ross,"30612 Santa Margarita Parkway, Rancho Santa Margarita, CA, 92688",+1 949-589-1559,,33.6410319,-117.5971875,,,w_291218657,"shop=department_store, brand=Ross"
"Menifee, CA",,retail,446110,Walgreens,"30592 Santa Margarita Parkway, Rancho Santa Margarita, CA, 92688",,,33.6431345,-117.5977626,,,w_291218663,"shop=chemist, brand=Walgreens"
"Menifee, CA",,retail,452210,Big Lots,"27411 Ynez Road, Temecula, CA, 92591",+1 951-506-1092,https://local.biglots.com/ca/temecula/27411-ynez-rd,33.5056657,-117.1524645,,,w_302131932,"shop=department_store, brand=Big Lots"
"Menifee, CA",,retail,445110,88 Ranch Marketplace,,,,33.5048632,-117.1520909,,,w_302131935,shop=supermarket
"Menifee, CA",,retail,445110,Albertsons,"30530 Rancho California Road, Temecula, CA, 92591",+1 951-694-0244,https://local.albertsons.com/ca/temecula/30530-rancho-california-rd.html,33.5101411,-117.127211,,,w_312523091,"shop=supermarket, brand=Albertsons"
"Menifee, CA",,retail,445120,7-Eleven,,,,33.5069109,-117.1433022,,,w_314939376,"shop=convenience, brand=7-Eleven"
"Menifee, CA",,retail,445120,ampm,,,,33.7064943,-117.3591075,,,w_318116963,"shop=convenience, brand=ampm, operator=Arco"
"Menifee, CA",,retail,445120,Chevron,"16770 Van Buren Boulevard, Riverside, CA, 92504",,,33.8828545,-117.3702469,,,w_323351773,"shop=convenience, brand=Chevron"
"Menifee, CA",,retail,445120,Beyond Food Mart,,,,33.8448796,-117.5373463,,,w_331767047,shop=convenience
"Menifee, CA",,retail,446110,Walgreens,,,https://www.walgreens.com/locator/walgreens-16020+perris+blvd-moreno+valley-ca-92551/id=9616,33.8878389,-117.2254832,,,w_331884563,"shop=chemist, brand=Walgreens"
"Menifee, CA",,retail,445120,Shell,"21712 Plano Trabuco Drive, Trabuco Canyon, CA, 92679",,,33.6469425,-117.5772655,,,w_332067973,"shop=convenience, brand=Shell"
"Menifee, CA",,retail,445110,Smart & Final Extra!,"21672 Plano Trabuco Drive, Trabuco Canyon, CA, 92679",,,33.6477053,-117.5761183,,,w_332067974,"shop=supermarket, brand=Smart & Final"
"Menifee, CA",,retail,445120,Food Mart,,,,33.6418386,-117.6043042,,,w_353362451,shop=convenience
"Menifee, CA",,retail,452319,Dollar General,,,https://www.dollargeneral.com/store-directory/ca/hemet/13575,33.7481648,-116.8922912,,,w_367842439,"shop=variety_store, brand=Dollar General"
"Menifee, CA",,retail,445110,Stater Bros.,"43396 Florida Avenue, Hemet, CA, 92544",+1 951-927-8555,https://www.staterbros.com/stores/119,33.7490495,-116.903787,,,w_368216878,"shop=supermarket, brand=Stater Bros."
"Menifee, CA",,retail,445110,Sprouts Farmers Market,"39606 Winchester Road, Temecula, CA, 92591",+1 951-694-3680,https://www.sprouts.com/store/ca/temecula/rancho-temecula/,33.5413623,-117.1424899,,,w_368995231,"shop=supermarket, brand=Sprouts Farmers Market"
"Menifee, CA",,retail,445110,Stater Bros.,"210 East Stetson Avenue, Hemet, CA, 92543",+1 951-925-5545,https://www.staterbros.com/stores/46,33.7308584,-116.9700958,,,w_377340416,"shop=supermarket, brand=Stater Bros."
"Menifee, CA",,retail,445110,Dollar General Market,"Hemet, CA",+1 951-330-2022,https://www.dollargeneral.com/store-directory/ca/hemet/14023,33.7284034,-116.9704337,,,w_377346006,"shop=supermarket, brand=Dollar General"
"Menifee, CA",,retail,445110,Stater Bros.,"1537 South San Jacinto Avenue, San Jacinto, CA, 92583",+1 951-487-0319,https://www.staterbros.com/stores/121,33.7722238,-116.9566343,,,w_380184993,"shop=supermarket, brand=Stater Bros."
"Menifee, CA",,retail,445120,,,,,33.7481145,-116.9012109,,,w_383937909,shop=convenience
"Menifee, CA",,retail,445120,Shell,,,,34.004276,-117.063718,,,w_389112218,"shop=convenience, brand=Shell"
"Menifee, CA",,retail,445120,Fastrip,"13710 Calimesa Boulevard, Yucaipa, CA, 92399",(909) 795-8317,,34.0043622,-117.0628811,,,w_389112220,shop=convenience
"Menifee, CA",,retail,445120,ampm,,,,33.9937086,-117.0577573,,,w_389116537,"shop=convenience, brand=ampm"
"Menifee, CA",,retail,445120,7-Eleven,"301 COUNTYLINE, Calimesa, CA, 92320-1213",+1 909-795-6735,https://www.7-eleven.com/locations/ca/calimesa/301-countyline-13980,34.0039128,-117.0477824,,,w_389116548,"shop=convenience, brand=7-Eleven"
"Menifee, CA",,retail,445120,,,,,33.7807917,-116.9582575,,,w_393943043,shop=convenience
"Menifee, CA",,retail,445120,,,,,33.7806162,-116.9592813,,,w_393944792,shop=convenience
"Menifee, CA",,retail,452319,Dollar General,,,https://www.dollargeneral.com/store-directory/ca/san-jacinto/13805,33.7800205,-116.9596126,,,w_393945449,"shop=variety_store, brand=Dollar General"
"Menifee, CA",,retail,445110,Sprouts Farmers Market,"2207 West Florida Avenue, Hemet, CA, 92545",+1 951-537-1975,https://www.sprouts.com/store/ca/hemet/w-florida-ave/,33.7456734,-116.9950037,,,w_393970064,"shop=supermarket, brand=Sprouts Farmers Market"
"Menifee, CA",,retail,445120,,,,,33.748046,-116.9581383,,,w_397171152,shop=convenience
"Menifee, CA",,retail,445120,,,,,33.5639909,-117.2068588,,,w_401778820,shop=convenience
"Menifee, CA",,retail,445120,ampm,,,,33.6273885,-117.2748461,,,w_401780091,"shop=convenience, brand=ampm"
"Menifee, CA",,retail,445120,,,,,33.6844518,-117.1894284,,,w_401786505,shop=convenience
"Menifee, CA",,retail,445120,ampm,,,,33.7443142,-117.0060371,,,w_401789612,"shop=convenience, brand=ampm"
"Menifee, CA",,retail,445120,ampm,,,,33.8014892,-117.2312379,,,w_401791884,"shop=convenience, brand=ampm"
"Menifee, CA",,retail,445120,Ampm,,,,33.8403969,-117.2552656,,,w_401792808,shop=convenience
"Menifee, CA",,retail,445120,ExtraMile,,,,33.5188587,-117.1627285,,,w_401824025,"shop=convenience, brand=ExtraMile"
"Menifee, CA",,retail,445120,Circle K,"4730 Pala Road, Fallbrook, CA",,,33.3287941,-117.1625423,,,w_404164740,"shop=convenience, brand=Circle K"
"Menifee, CA",,retail,445120,ampm,"450 East 1st Street, Beaumont, CA, 92223",,,33.9221103,-116.9762862,,,w_404165231,"shop=convenience, brand=ampm"
"Menifee, CA",,retail,445120,,"502 Beaumont Avenue, Beaumont, CA, 92223",,,33.9281199,-116.9767687,,,w_404165562,shop=convenience
"Menifee, CA",,retail,445120,ampm,"1696 East 6th Street, Beaumont, CA",,,33.929889,-116.9473151,,,w_404165610,"shop=convenience, brand=ampm"
"Menifee, CA",,retail,445120,ampm,"2228 West Ramsey Street, Banning, CA, 92220",,,33.9251103,-116.9014367,,,w_404165837,"shop=convenience, brand=ampm"
"Menifee, CA",,retail,445120,24 7 Food Mart,"780 East Ramsey Street, Banning, CA, 92220",,,33.925073,-116.8683681,,,w_404166171,shop=convenience
"Menifee, CA",,retail,445110,Goodwin's Organics,,,https://www.goodwinsorganics.com/,33.9759458,-117.3154326,,,w_406368679,shop=supermarket
"Menifee, CA",,retail,445292,Tom's Farms Candy Shoppe,,,,33.7725618,-117.4875667,,,w_419355854,shop=confectionery
"Menifee, CA",,retail,445110,Tom's Farms Farmers Market,,,,33.7725678,-117.4877487,,,w_419355855,shop=supermarket
"Menifee, CA",,retail,445120,Kristi's Korner Country Store,,,,33.6463114,-117.4175038,,,w_422854500,shop=convenience
"Menifee, CA",,retail,445120,Lea's Mini Mart,,,,33.6444969,-117.3545248,,,w_430078467,shop=convenience
"Menifee, CA",,retail,445120,Valley Mart Deli,,,,33.6162862,-117.3070836,,,w_430109854,shop=convenience
"Menifee, CA",,retail,446110,CVS Pharmacy,"22361 Antonio Parkway, Rancho Santa Margarita, CA, 92688",,https://www.cvs.com/store-locator/rancho-santa-margarita-ca-pharmacies/22361-antonio-pkwy-rancho-santa-margarita-ca-92688/storeid=6770,33.6382606,-117.5906675,,,w_431471101,"shop=chemist, brand=CVS Pharmacy"
"Menifee, CA",,retail,445310,BevMo!,"22372 El Paseo, Rancho Santa Margarita, 92688",9492163506,https://bevmo.com/,33.639877,-117.5917991,,,w_432308271,"shop=alcohol, brand=BevMo!"
"Menifee, CA",,retail,446120,Ulta Beauty,"30682 Santa Margarita Parkway, Rancho Santa Margarita, CA, 92688",+1 949-635-9301,https://www.ulta.com/stores/rancho-santa-margarita-ca-499,33.642829,-117.5960621,,,w_436653872,"shop=cosmetics, brand=Ulta Beauty"
"Menifee, CA",,retail,452210,Kohl's,"1479 East Second Street, Beaumont, CA, 92223",+1 951-845-9682,https://www.kohls.com/stores/ca/beaumont-1186.shtml,33.9224148,-116.9569903,,,w_437102484,"shop=department_store, brand=Kohl's"
"Menifee, CA",,retail,445120,Mother's Nutritional Center,"Moreno Valley, CA, 92553",,,33.9383105,-117.2515534,,,w_444448962,shop=convenience
"Menifee, CA",,retail,452210,Big Lots,,,,33.9376639,-117.2513706,,,w_444448963,"shop=department_store, brand=Big Lots"
"Menifee, CA",,retail,445110,Superior,"Moreno Valley, CA, 92553",,,33.9375539,-117.2467054,,,w_444451771,shop=supermarket
"Menifee, CA",,retail,446120,H&P Nails,"Moreno Valley, CA, 92553",,,33.9377521,-117.2462262,,,w_444461192,shop=beauty
"Menifee, CA",,retail,452319,Family Dollar,"Moreno Valley, CA, 92553",,,33.9377492,-117.2457127,,,w_444461195,"shop=variety_store, brand=Family Dollar"
"Menifee, CA",,retail,445110,Walmart Supercenter,"6250 Valley Springs Parkway, Riverside, CA, 92507",+1 951-653-4849,https://www.walmart.com/store/1899-riverside-ca,33.9385297,-117.2861306,,,w_444490322,"shop=supermarket, brand=Walmart, operator=Walmart"
"Menifee, CA",,retail,446110,Passion Lounge,"6211 Valley Springs Parkway, Riverside, CA, 92507",,,33.93968,-117.2885598,,,w_444490325,shop=chemist
"Menifee, CA",,retail,452210,Target,"2755 Canyon Springs Parkway, Riverside, CA, 92507",+1 951-697-6778,https://www.target.com/sl/riverside-se/1843,33.9386113,-117.2824824,,,w_444490336,"shop=department_store, brand=Target"
"Menifee, CA",,retail,445120,ampm,"6287 Day Street, Riverside, CA, 92507",,,33.9381883,-117.2795689,,,w_444490340,"shop=convenience, brand=ampm"
"Menifee, CA",,retail,452319,99 Cents Only Stores,"12530 Day Street, Moreno Valley, CA, 92553",,https://locations.99only.com/ca/morenovalley/discount-store-317.html,33.9382331,-117.2782001,,,w_444637157,"shop=variety_store, brand=99 Cents Only Stores"
"Menifee, CA",,retail,446110,Nutrition Zone,"12430 Day Street, Moreno Valley, CA, 92553",,,33.9399854,-117.2783395,,,w_444637192,shop=chemist
"Menifee, CA",,retail,446120,Cuccio Nail Spa,"12530 Day Street, Moreno Valley, CA, 92553",,,33.9382454,-117.2777014,,,w_444637202,shop=beauty
"Menifee, CA",,retail,452319,Fallas Discount Store,"12530 Day Street, Moreno Valley, CA, 92553",,,33.9382418,-117.2778827,,,w_444637203,shop=variety_store
"Menifee, CA",,retail,445120,,,,,33.784211,-117.2266136,,,w_446385900,shop=convenience
"Menifee, CA",,retail,445120,Shell,,,,34.0218221,-117.3355599,,,w_452293813,"shop=convenience, brand=Shell"
"Menifee, CA",,retail,445110,Stater Bros.,"1193 Magnolia Avenue, Corona, CA, 92879",+1 951-736-1399,https://www.staterbros.com/stores/103,33.8654895,-117.546533,,,w_452922760,"shop=supermarket, brand=Stater Bros."
"Menifee, CA",,retail,445120,,,,,33.8817185,-117.2256378,,,w_472683484,shop=convenience
"Menifee, CA",,retail,452210,Target,"3527 West Florida Avenue, Hemet, CA, 92545-3564",+1 951-652-9585,https://www.target.com/sl/hemet/761,33.7453396,-117.0091376,,,w_479131020,"shop=department_store, brand=Target"
"Menifee, CA",,retail,445120,7-Eleven,"8703 Indiana Avenue, Riverside, CA, 92503-5766",+1 951-689-4233,https://www.7-eleven.com/locations/ca/riverside/8703-indiana-ave-13957,33.9226242,-117.4271775,,,w_486933520,"shop=convenience, brand=7-Eleven"
"Menifee, CA",,retail,445120,Circle K,,,,33.626251,-117.2704955,,,w_514661952,"shop=convenience, brand=Circle K"
"Menifee, CA",,retail,445110,Walmart Supercenter,"1861 South San Jacinto Avenue, San Jacinto, CA, 92583",+1 951-487-1492,https://www.walmart.com/store/5425-san-jacinto-ca,33.7679395,-116.9555406,,,w_530465253,"shop=supermarket, brand=Walmart, operator=Walmart"
"Menifee, CA",,retail,445120,Circle K,,,,33.8867497,-117.3317229,,,w_534605113,"shop=convenience, brand=Circle K"
"Menifee, CA",,retail,445120,Trabuco General Store,,,,33.6600111,-117.5902367,,,w_543597681,shop=convenience
"Menifee, CA",,retail,445110,Baron's,,,,33.5907188,-117.2498025,,,w_546661979,shop=supermarket
"Menifee, CA",,retail,446110,Rite Aid,,,https://www.riteaid.com/locations/ca/wildomar/32450-clinton-keith-road.html,33.5896005,-117.2511665,,,w_546662790,"shop=chemist, brand=Rite Aid"
"Menifee, CA",,retail,446120,Expectation Nails & Spa,"8610 California Avenue, Riverside, CA, 92504",+1-951-687-9999,,33.9357183,-117.4348398,,,w_559600551,shop=beauty
"Menifee, CA",,retail,453991,USA Tobacco,,,,33.9455587,-117.4367895,,,w_560826276,shop=tobacco
"Menifee, CA",,retail,445120,Rocket,6020 Arlington Avenue,,,33.9456605,-117.4342135,,,w_562609840,"shop=convenience, brand=Rocket"
"Menifee, CA",,retail,445110,Walmart Supercenter,"1800 North Perris Boulevard, Perris, CA, 92571",+1 951-940-0440,https://www.walmart.com/store/1747-perris-ca,33.8061898,-117.2295891,,,w_570464083,"shop=supermarket, brand=Walmart, operator=Walmart"
"Menifee, CA",,retail,445120,,"97 Beaumont, CA",,,33.9211572,-116.9778758,,,w_592573653,shop=convenience
"Menifee, CA",,retail,445120,Food Mart,,,,33.9279312,-117.4206195,,,w_609836056,shop=convenience
"Menifee, CA",,retail,445120,7-Eleven,"23021 Sunnymead Boulevard, Moreno Valley, CA, 92553",,https://www.7-eleven.com/locations/ca/moreno-valley/23021-sunnymead-23520,33.9391569,-117.2609662,,,w_629305165,"shop=convenience, brand=7-Eleven"
"Menifee, CA",,retail,452210,Target,"18287 Collier Avenue, Lake Elsinore, CA, 92530-2755",+1 951-674-2620,https://www.target.com/sl/lake-elsinore/2195,33.68903,-117.3427773,,,w_637365404,"shop=department_store, brand=Target"
"Menifee, CA",,retail,445120,Circle K,,,,33.6930269,-117.3353384,,,w_637953090,"shop=convenience, brand=Circle K"
"Menifee, CA",,retail,446110,Walgreens,"1811 San Jacinto Avenue, San Jacinto, CA, 92583",,https://www.walgreens.com/locator/walgreens-1811+s+san+jacinto+ave-san+jacinto-ca-92583/id=9021,33.7687571,-116.9581134,,,w_640089661,"shop=chemist, brand=Walgreens"
"Menifee, CA",,retail,446110,Rite Aid,"1605 San Jacinto Avenue, San Jacinto, CA",,https://www.riteaid.com/locations/ca/san-jacinto/1605-south-san-jacinto-ave.html,33.7706123,-116.9581032,,,w_640092745,"shop=chemist, brand=Rite Aid"
"Menifee, CA",,retail,445120,,,,,33.5498964,-117.1406299,,,w_656118830,shop=convenience
"Menifee, CA",,retail,445110,Albertsons,"39140 Winchester Road, Murrieta, CA, 92563",+1 951-600-4461,https://local.albertsons.com/ca/murrieta/39140-winchester-rd.html,33.5510677,-117.1386269,,,w_656118833,"shop=supermarket, brand=Albertsons"
"Menifee, CA",,retail,445120,Speedway,"39055 Winchester Road, Murrieta, CA, 92563",,https://www.speedway.com/locations/CA/Murrieta/39055-WINCHESTER-RD,33.551232,-117.1412156,,,w_656120164,"shop=convenience, brand=Speedway"
"Menifee, CA",,retail,445310,,,,,33.7869492,-117.0327718,,,w_658123442,shop=beverages
"Menifee, CA",,retail,446110,CVS Pharmacy,,951-800-8773,https://www.cvs.com/store-locator/san-jacinto-ca-pharmacies/102-s-sanderson-ave-san-jacinto-ca-92582/storeid=8943,33.786715,-117.0075527,,,w_660880474,"shop=chemist, brand=CVS Pharmacy"
"Menifee, CA",,retail,446110,Rite Aid,"260 North Sanderson Avenue, Hemet, CA, 92545",,,33.7504172,-117.0058882,,,w_661084920,"shop=chemist, brand=Rite Aid"
"Menifee, CA",,retail,445110,Stater Bros.,"25904 Newport Road, Menifee, CA, 92584",+1 951-672-6780,https://www.staterbros.com/stores/111,33.6864803,-117.2068451,,,w_665215018,"shop=supermarket, brand=Stater Bros."
"Menifee, CA",,retail,445110,Walmart Supercenter,"1231 South Sanderson Avenue, Hemet, CA, 92545",+1-951-766-1164,https://www.walmart.com/store/1853-hemet-ca,33.7264213,-117.0099888,,,w_665474713,"shop=supermarket, brand=Walmart, operator=Walmart"
"Menifee, CA",,retail,445120,,,,,33.7280255,-117.0072393,,,w_665495708,shop=convenience
"Menifee, CA",,retail,446110,CVS Pharmacy,,,,33.9194738,-117.4896926,,,w_665996269,"shop=chemist, brand=CVS Pharmacy"
"Menifee, CA",,retail,446110,CVS Pharmacy,,,https://www.cvs.com/store-locator/corona-ca-pharmacies/11950-de-palma-rd-corona-ca-92883/storeid=8816,33.7467547,-117.4513385,,,w_665996271,"shop=chemist, brand=CVS Pharmacy"
"Menifee, CA",,retail,445110,Stater Bros.,"29995 Canyon Hills Road, Lake Elsinore, CA, 92532",+1 951-244-2014,https://www.staterbros.com/stores/187,33.6662335,-117.2624356,,,w_665997474,"shop=supermarket, brand=Stater Bros."
"Menifee, CA",,retail,446110,CVS Pharmacy,27749 Clinton Keith Road,,https://www.cvs.com/store-locator/murrieta-ca-pharmacies/27749-clinton-keith-road-murrieta-ca-92562/storeid=7786,33.5981906,-117.1770443,,,w_669056454,"shop=chemist, brand=CVS Pharmacy"
"Menifee, CA",,retail,445110,Albertsons,"1260 East Ontario Avenue, Corona, CA, 92881",+1 951-734-8451,https://local.albertsons.com/ca/corona/1260-e-ontario-ave.html,33.846809,-117.5423286,,,w_669772108,"shop=supermarket, brand=Albertsons"
"Menifee, CA",,retail,445110,Walmart Supercenter,"1290 East Ontario Avenue, Corona, CA, 92881",+1 951-278-0924,https://www.walmart.com/store/2842-corona-ca,33.8460508,-117.5413059,,,w_669772110,"shop=supermarket, brand=Walmart, operator=Walmart"
"Menifee, CA",,retail,445120,,,,,33.8422753,-117.5338773,,,w_669772175,shop=convenience
"Menifee, CA",,retail,445120,ampm,,,,33.8441706,-117.5361071,,,w_669772191,"shop=convenience, brand=ampm"
"Menifee, CA",,retail,446110,CVS Pharmacy,,,https://www.cvs.com/store-locator/corona-ca-pharmacies/1299-e-ontario-ave-corona-ca-92881/storeid=9190,33.8472243,-117.539576,,,w_669772207,"shop=chemist, brand=CVS Pharmacy"
"Menifee, CA",,retail,445110,WinCo Foods,,,,33.7454826,-117.1929554,,,w_670761576,"shop=supermarket, brand=WinCo Foods"
"Menifee, CA",,retail,445120,Circle K,,,,33.7435547,-117.1930969,,,w_670761578,"shop=convenience, brand=Circle K"
"Menifee, CA",,retail,445120,ExtraMile,,,,33.9105139,-117.2698416,,,w_673008354,"shop=convenience, brand=ExtraMile"
"Menifee, CA",,retail,445120,Circle K,,,,33.9105459,-117.27055,,,w_673008357,"shop=convenience, brand=Circle K"
"Menifee, CA",,retail,446110,Walgreens,,,https://www.walgreens.com/locator/walgreens-60+n+highland+springs+ave-banning-ca-92220/id=5182,33.9299892,-116.9462292,,,w_674888954,"shop=chemist, brand=Walgreens"
"Menifee, CA",,retail,446110,Rite Aid,,,https://www.riteaid.com/locations/ca/menifee/28995-newport-road.html,33.68438,-117.1544444,,,w_677097686,"shop=chemist, brand=Rite Aid"
"Menifee, CA",,retail,445110,Stater Bros.,"29061 Newport Road, Menifee, CA, 92584",+1 951-723-6141,https://www.staterbros.com/stores/197,33.6837265,-117.1526066,,,w_677097692,"shop=supermarket, brand=Stater Bros."
"Menifee, CA",,retail,452210,Kohl's,"2489 Tuscany Road, Corona, CA, 92881",+1 951-272-1137,https://www.kohls.com/stores/ca/corona-592.shtml,33.8257432,-117.51914,,,w_677106662,"shop=department_store, brand=Kohl's"
"Menifee, CA",,retail,445110,Walmart Supercenter,"1540 East 2nd Street, Beaumont, CA, 92223",+1 951-845-1529,https://www.walmart.com/store/5156-beaumont-ca,33.9250992,-116.9515539,,,w_681566915,"shop=supermarket, brand=Walmart, operator=Walmart"
"Menifee, CA",,retail,445110,Albertsons,"Banning, CA, 92220",+1 951-769-1779,https://local.albertsons.com/ca/banning/300-s-highland-springs-ave--7.html,33.9248209,-116.9448408,,,w_681719724,"shop=supermarket, brand=Albertsons"
"Menifee, CA",,retail,452319,Dollar Tree,"1486 2nd Street, Beaumont, 92223",,https://www.dollartree.com/locations/ca/beaumont/3621/,33.9239351,-116.9562416,,,w_681719736,"shop=variety_store, brand=Dollar Tree"
"Menifee, CA",,retail,445110,ALDI,"1638 East Second Street, Beaumont, CA, 92223-3166",+1 951-755-1281,https://stores.aldi.us/ca/beaumont/1638-e-second-st,33.9253912,-116.9493498,,,w_681726563,"shop=supermarket, brand=ALDI"
"Menifee, CA",,retail,452210,Ross,"1646 East 2nd Street, Beaumont, CA, 92223",+1 951-845-4482,,33.9253801,-116.9484133,,,w_681726564,"shop=department_store, brand=Ross"
"Menifee, CA",,retail,445110,Stater Bros.,"1430 Beaumont Avenue, Beaumont, CA, 92223",+1 951-845-8770,https://www.staterbros.com/stores/173,33.948255,-116.9757815,,,w_681734600,"shop=supermarket, brand=Stater Bros."
"Menifee, CA",,retail,445310,Beaumont Market,,,,33.9289891,-116.9657559,,,w_681750772,shop=alcohol
"Menifee, CA",,retail,445120,Chevron,,,,33.9361276,-117.190108,,,w_683491007,"shop=convenience, brand=Chevron"
"Menifee, CA",,retail,445110,Food 4 Less,,,,33.9279515,-116.9483189,,,w_683592544,"shop=supermarket, brand=Food 4 Less"
"Menifee, CA",,retail,445110,Stater Bros.,"1661 East 6th Street, Beaumont, CA, 92223",+1 951-845-2248,https://www.staterbros.com/stores/86,33.9285053,-116.9498943,,,w_683592546,"shop=supermarket, brand=Stater Bros."
"Menifee, CA",,retail,452210,Marshalls,,,,33.9226746,-116.9456074,,,w_683627957,"shop=department_store, brand=Marshalls"
"Menifee, CA",,retail,446120,Blooming Lotus Beauty Parlor,,,,33.9234884,-116.944232,,,w_683627965,shop=beauty
"Menifee, CA",,retail,446120,Kim's Fantasy Nails,,,,33.9235731,-116.9442342,,,w_683627967,shop=beauty
"Menifee, CA",,retail,445310,Shopping Bag,,,,33.9291943,-116.9690684,,,w_683647525,shop=alcohol
"Menifee, CA",,retail,445120,ampm,,,,33.8066831,-117.5060119,,,w_689213296,"shop=convenience, brand=ampm"
"Menifee, CA",,retail,445120,Arco - Convenience Store,,,,33.9752246,-117.3394567,,,w_694201427,shop=convenience
"Menifee, CA",,retail,446110,Walgreens,,,https://www.walgreens.com/locator/walgreens-1745+university+ave-riverside-ca-92507/id=7990,33.9759606,-117.3495351,,,w_694201493,"shop=chemist, brand=Walgreens"
"Menifee, CA",,retail,445120,ExtraMile,,,,33.8964868,-117.4715556,,,w_694938716,"shop=convenience, brand=ExtraMile"
"Menifee, CA",,retail,446110,Walgreens,,,https://www.walgreens.com/locator/walgreens-10992+magnolia+ave-riverside-ca-92505/id=13833,33.9044064,-117.4736997,,,w_694939172,"shop=chemist, brand=Walgreens"
"Menifee, CA",,retail,445120,7-Eleven,,,https://www.7-eleven.com/locations/ca/riverside/6692-indiana-ave-36872,33.9439099,-117.3894205,,,w_695742103,"shop=convenience, brand=7-Eleven"
"Menifee, CA",,retail,445120,Fast Mart,,,,33.9348373,-117.4036875,,,w_695745048,shop=convenience
"Menifee, CA",,retail,445120,,,,,33.6855594,-117.1676164,,,w_697179717,shop=convenience
"Menifee, CA",,retail,445120,Circle K,,,,33.983331,-117.3418954,,,w_705890579,"shop=convenience, brand=Circle K"
"Menifee, CA",,retail,445120,7-Eleven,,,https://www.7-eleven.com/locations/ca/riverside/1155-w-la-cadena-dr-37140,34.0023841,-117.3525939,,,w_705891844,"shop=convenience, brand=7-Eleven"
"Menifee, CA",,retail,445120,Circle K,,,,33.9951542,-117.3648218,,,w_705892409,"shop=convenience, brand=Circle K"
"Menifee, CA",,retail,445120,Circle K,,,,33.8816731,-117.5135217,,,w_706084682,"shop=convenience, brand=Circle K"
"Menifee, CA",,retail,445120,Circle K,,,,33.8844534,-117.3500462,,,w_706085133,"shop=convenience, brand=Circle K"
"Menifee, CA",,retail,445120,Circle K,,,,33.9156207,-117.3249848,,,w_706085766,"shop=convenience, brand=Circle K"
"Menifee, CA",,retail,445120,ampm,,,,33.9156616,-117.3212186,,,w_706085805,"shop=convenience, brand=ampm"
"Menifee, CA",,retail,446110,CVS Pharmacy,,,https://www.cvs.com/store-locator/riverside-ca-pharmacies/491-e-alessandro-blvd-riverside-ca-92508/storeid=9803,33.9159112,-117.3230727,,,w_706543972,"shop=chemist, brand=CVS Pharmacy"
