Location,Search Keyword,Segment,NAICS Code,Business Name,Address,Phone Number,Website,Latitude,Longitude,Rating,User Ratings,Place ID,Types
"Earlimart, CA",,retail,445120,,,,,35.9718172,-119.291393,,,n_2434557606,shop=convenience
"Earlimart, CA",,retail,445120,,,,,35.9737699,-119.2931573,,,n_2434557661,shop=convenience
"Earlimart, CA",,retail,445120,Circle K,,,,35.6009818,-119.327416,,,n_4096771114,"shop=convenience, brand=Circle K"
"Earlimart, CA",,retail,445230,State Market ,Cecil Avenue,16617250469,,35.7756838,-119.2447418,,,n_4115219491,shop=greengrocer
"Earlimart, CA",,retail,445120,SaveMart,,,,36.0821006,-119.037375,,,n_4217389783,shop=convenience
"Earlimart, CA",,retail,452319,Dollar General,,,https://www.dollargeneral.com/store-directory/ca/porterville/18056,36.0576399,-118.9910806,,,n_5662366451,"shop=variety_store, brand=Dollar General"
"Earlimart, CA",,retail,452319,Dollar Tree,"Porterville, CA, 93257",,https://www.dollartree.com/locations/ca/porterville/1245/,36.0790571,-119.0481727,,,n_6594911873,"shop=variety_store, brand=Dollar Tree"
"Earlimart, CA",,retail,452210,Target,"1363 West Henderson Avenue, Porterville, CA, 93257",+1 559-719-2203,https://www.target.com/sl/porterville/2420,36.0781272,-119.0472938,,,n_6594911876,"shop=department_store, brand=Target"
"Earlimart, CA",,retail,452210,Marshalls,"Porterville, CA, 93257",,,36.0787227,-119.0461248,,,n_6594911879,"shop=department_store, brand=Marshalls"
"Earlimart, CA",,retail,452210,Kohl's,"1275 West Henderson Avenue, Porterville, CA, 93257",+1 559-789-0149,https://www.kohls.com/stores/ca/porterville-1403.shtml,36.0787335,-119.0450277,,,n_6594916185,"shop=department_store, brand=Kohl's"
"Earlimart, CA",,retail,446120,Ulta Beauty,"1267 West Henderson Avenue, Porterville, CA, 93257",+1 559-783-8280,https://www.ulta.com/stores/porterville-ca-1243,36.0788755,-119.0444651,,,n_6594916186,"shop=beauty, brand=Ulta Beauty"
"Earlimart, CA",,retail,445110,Food 4 Less,,,,36.0816676,-119.0462696,,,n_6594968360,"shop=supermarket, brand=Food 4 Less"
"Earlimart, CA",,retail,445120,Shell,,,,36.0808184,-119.040378,,,n_6595277847,"shop=convenience, brand=Shell"
"Earlimart, CA",,retail,445120,,,,,36.0506639,-119.0267059,,,n_6608920057,shop=convenience
"Earlimart, CA",,retail,445120,Shell,"809 East Putnam Avenue, Porterville, CA, 93257",5597849079,,36.0689479,-118.999189,,,n_8108778964,"shop=convenience, brand=Shell"
"Earlimart, CA",,retail,445120,Speedway,"1100 East Prosperity Avenue, Tulare, CA, 93274",,https://www.speedway.com/locations/CA/Tulare/1100-E-Prosperity-Ave,36.2264782,-119.3302097,,,n_9178743880,"shop=convenience, brand=Speedway"
"Earlimart, CA",,retail,445120,Speedway,"253 West Sierra Road, Earlimart, CA, 93219",,https://www.speedway.com/locations/CA/Earlimart/253-E-SIERRA-AVE,35.8916701,-119.2748892,,,n_9178781529,"shop=convenience, brand=Speedway"
"Earlimart, CA",,retail,445310,Human bean,"West Olive Avenue, 93257",,,36.0655291,-119.05026,,,n_9892179317,shop=beverages
"Earlimart, CA",,retail,445120,Smart and final,West Olive Avenue,,,36.0649231,-119.0492113,,,n_9919487317,shop=convenience
"Earlimart, CA",,retail,445120,Qwik stop,"1445 West Henderson Avenue, Porterville, CA",+15597811018,,36.0799052,-119.0491985,,,n_9962311257,shop=convenience
"Earlimart, CA",,retail,445120,Chevron,,,,35.6747223,-119.2281874,,,n_10555780262,"shop=convenience, brand=Chevron"
"Earlimart, CA",,retail,445110,La Canasta Market,,,,35.5940429,-119.3370115,,,n_10933353315,shop=supermarket
"Earlimart, CA",,retail,453110,Fernando's Flower Shop,,,,35.594074,-119.3372073,,,n_10933353316,shop=florist
"Earlimart, CA",,retail,445110,Tortilleria Zeamays,,,,35.5946026,-119.3388376,,,n_10935426389,shop=supermarket
"Earlimart, CA",,retail,445110,Fiesta Latina Market,,,,35.5944602,-119.3398171,,,n_10935426392,shop=supermarket
"Earlimart, CA",,retail,453991,House Of Fun Smokeshop,,,,35.5940521,-119.3387482,,,n_10935426549,shop=tobacco
"Earlimart, CA",,retail,445310,Quick N Super,,,,35.5939386,-119.3385244,,,n_10935426550,shop=alcohol
"Earlimart, CA",,retail,445210,Amigos Meat Market,,,,35.601204,-119.3344966,,,n_10935426655,shop=butcher
"Earlimart, CA",,retail,452319,99 Cents Only Stores,,,https://locations.99only.com/ca/wasco/discount-store-402.html,35.6022404,-119.3416049,,,n_10935426838,"shop=variety_store, brand=99 Cents Only Stores"
"Earlimart, CA",,retail,445120,ampm,,,,35.6019565,-119.345505,,,n_10935427030,"shop=convenience, brand=ampm"
"Earlimart, CA",,retail,452210,Ross,"2337 Highway 46, Wasco, CA, 93280-1167",+1 661-758-2952,,35.6002857,-119.352004,,,n_10935427292,"shop=department_store, brand=Ross"
"Earlimart, CA",,retail,445110,Tropicana Supermarkets,,,,35.6003123,-119.352975,,,n_10935427296,shop=supermarket
"Earlimart, CA",,retail,452319,Dollar Tree,,,https://www.dollartree.com/locations/ca/wasco/6810/,35.6003185,-119.353157,,,n_10935427297,"shop=variety_store, brand=Dollar Tree"
"Earlimart, CA",,retail,445299,California Animal Products,"4560 South K Street, Tulare, CA, 93274",+1-559-688-4848,https://californiaanimalproducts.com,36.1640607,-119.3346197,,,n_11572090850,"shop=dairy, operator=John Candeias"
"Earlimart, CA",,retail,445120,,,,,36.0218616,-119.0390903,,,n_11820049975,shop=convenience
"Earlimart, CA",,retail,445120,,,,,36.1811274,-119.3320933,,,n_12100184996,shop=convenience
"Earlimart, CA",,retail,452210,Big Lots,,,,35.7894115,-119.2465657,,,n_12229014399,"shop=department_store, brand=Big Lots"
"Earlimart, CA",,retail,445120,ampm,,,,36.2040272,-119.1038318,,,n_13031903015,"shop=convenience, brand=ampm"
"Earlimart, CA",,retail,452319,Dollar Tree,,,,36.2020295,-119.101636,,,n_13031931625,"shop=variety_store, brand=Dollar Tree"
"Earlimart, CA",,retail,446110,Rite Aid,,,,36.2024914,-119.1016323,,,n_13031931626,"shop=chemist, brand=Rite Aid"
"Earlimart, CA",,retail,445110,Save Mart,,,,36.2022595,-119.1016505,,,n_13031931627,"shop=supermarket, brand=Save Mart"
"Earlimart, CA",,retail,445110,Town & Country,"1310 West Olive Avenue, 93257",,,36.0668798,-119.0465507,,,n_13040337002,shop=grocery
"Earlimart, CA",,retail,452319,Dollar General,"1316 West Olive Avenue, 93257",,,36.0663523,-119.0470266,,,n_13040337003,shop=variety_store
"Earlimart, CA",,retail,445120,Love's,,,,36.180901,-119.330175,,,w_224317920,"shop=convenience, brand=Love's"
"Earlimart, CA",,retail,445120,Flying J Travel Center,"17047 Zachary Avenue, Bakersfield, CA, 93263",,https://locations.pilotflyingj.com/us/ca/bakersfield/17047-zachary-ave,35.5312775,-119.1880036,,,w_230491575,shop=convenience
"Earlimart, CA",,retail,445110,Grocery Outlet,"170 East Cross Avenue, Tulare, CA, 93274",,,36.2142762,-119.347859,,,w_488361695,"shop=supermarket, brand=Grocery Outlet"
"Earlimart, CA",,retail,445120,,,,,36.0581944,-119.0082825,,,w_556246155,shop=convenience
"Earlimart, CA",,retail,445110,Walmart Supercenter,"401 North Central Avenue, Wasco, CA, 93280",+1 661-772-8061,https://www.walmart.com/store/5859-wasco-ca,35.6043111,-119.359397,,,w_558683289,"shop=supermarket, brand=Walmart, operator=Walmart"
"Earlimart, CA",,retail,452210,Walmart,"1250 West Henderson Avenue, Porterville, CA, 93257",+1 559-783-8195,https://www.walmart.com/store/1877-porterville-ca,36.0833854,-119.0454315,,,w_690834796,"shop=department_store, brand=Walmart, operator=Walmart"
"Earlimart, CA",,retail,445110,Walmart Supercenter,"530 Woollomes Avenue, Delano, CA, 93215",+1 661-370-4061,https://www.walmart.com/store/5215-delano-ca,35.7439735,-119.247985,,,w_691034344,"shop=supermarket, brand=Walmart, operator=Walmart"
"Earlimart, CA",,retail,452210,Walmart,"1110 East Prosperity Avenue, Tulare, CA, 93274",+1 559-684-1300,https://www.walmart.com/store/2536-tulare-ca,36.2286231,-119.3291026,,,w_691041803,"shop=department_store, brand=Walmart, operator=Walmart"
"Earlimart, CA",,retail,445110,ALDI,"490 Woollomes Avenue, Delano, CA, 93215",+1 833-479-7098,https://stores.aldi.us/ca/delano/490-woollomes-ave,35.7462165,-119.2504015,,,w_934888150,"shop=supermarket, brand=ALDI"
"Earlimart, CA",,retail,445110,ALDI,"770 South Jaye Street, Porterville, CA, 93257-5310",+1 442-666-7351,https://stores.aldi.us/ca/porterville/770-s-jaye-st,36.0525599,-119.0255033,,,w_956214732,"shop=supermarket, brand=ALDI"
"Earlimart, CA",,retail,445110,Grocery Outlet,"50 West Olive Avenue, Porterville, CA, 93257",+15597811788,,36.0655932,-119.0174689,,,w_1014433441,"shop=supermarket, brand=Grocery Outlet"
"Earlimart, CA",,retail,452319,Dollar Tree,"50 West Olive Avenue, Porterville, CA, 93257",+15595446167,https://www.dollartree.com/locations/ca/porterville/6313/,36.066008,-119.0174852,,,w_1014433443,"shop=variety_store, brand=Dollar Tree"
"Earlimart, CA",,retail,445120,Alpaugh Grocery Store,"5411 Tule Road, Alpaugh, CA, 93201",,,35.8878775,-119.4876092,,,w_1087946551,shop=convenience
"Earlimart, CA",,retail,445120,A&M Food Market,,,,35.6741938,-119.232407,,,w_1132094474,shop=convenience
"Earlimart, CA",,retail,445120,Sherwood Handy Market,,,,36.072674,-119.059691,,,w_1144085617,shop=convenience
"Earlimart, CA",,retail,445120,Circle K,,,,36.2265442,-119.3143373,,,w_1153400649,"shop=convenience, brand=Circle K"
"Earlimart, CA",,retail,445110,Target,"2195 East Prosperity Avenue, Tulare, CA, 93274",+1 559-631-1128,https://www.target.com/sl/tulare/2349,36.2239581,-119.3141767,,,w_1153400663,"shop=supermarket, brand=Target"
"Earlimart, CA",,retail,445120,Willes Market,,,,36.2102923,-119.091921,,,w_1274414455,shop=convenience
"Earlimart, CA",,retail,445120,,,,,36.2101685,-119.1006242,,,w_1274414468,shop=convenience
"Earlimart, CA",,retail,445120,Circle K,,,,36.2264213,-119.3363308,,,w_1320003325,"shop=convenience, brand=Circle K"
"Earlimart, CA",,retail,445120,,,,,35.7894154,-119.248485,,,w_1321547249,shop=convenience
