Location,Search Keyword,Segment,NAICS Code,Business Name,Address,Phone Number,Website,Latitude,Longitude,Rating,User Ratings,Place ID,Types
"Chino, CA",,retail,445110,Saigon City Marketplace,,,,33.7382341,-117.9561985,,,n_259915965,shop=supermarket
"Chino, CA",,retail,445110,99 Ranch Market,"140 West Valley Boulevard, 91776",6263078899,https://99ranch.com/,34.0776395,-118.100828,,,n_270042537,"shop=supermarket, brand=99 Ranch Market"
"Chino, CA",,retail,445110,168 Market,1421 East Valley Boulevard,+1 (626) 282-5168,https://www.168markets.com/,34.080386,-118.1099551,,,n_339046430,shop=supermarket
"Chino, CA",,retail,445110,168 Market,"933 East Las Tunas Drive, San Gabriel, CA, 91776",+1 (626) 285-5168,https://www.168markets.com/,34.1045388,-118.0873216,,,n_339047662,shop=supermarket
"Chino, CA",,retail,445310,Library Liquor,"8145 Arroyo Drive, Rosemead, CA, 91770",,,34.0425682,-118.0924814,,,n_343192253,shop=alcohol
"Chino, CA",,retail,445110,Mitsuwa Marketplace,515 West Las Tunas Drive,+1 (626) 457-2899,https://mitsuwa.com/sg/,34.1027317,-118.106821,,,n_347054514,"shop=supermarket, brand=Mitsuwa Marketplace"
"Chino, CA",,retail,445310,Ten Ren Tea 天仁茗茶,"154 West Valley Boulevard, CA, 91776",,,34.0794676,-118.1019955,,,n_392203901,shop=beverages
"Chino, CA",,retail,452319,Claro's Italian Market,,,,34.0806137,-118.0862094,,,n_402945367,shop=general
"Chino, CA",,retail,445110,Ralphs,"915 South Brookhurst Street, Anaheim, CA, 92804",+1 714-635-3670,https://www.ralphs.com/stores/grocery/ca/anaheim/brookhurst-sc/703/00296,33.819545,-117.9601612,,,n_471293427,"shop=supermarket, brand=Ralphs"
"Chino, CA",,retail,445110,Stater Bros.,"610 South Brookhurst Street, Anaheim, CA, 92804",+1 714-774-3933,https://www.staterbros.com/stores/166,33.8242583,-117.9579726,,,n_471293428,"shop=supermarket, brand=Stater Bros."
"Chino, CA",,retail,445120,7-Eleven,"10488 Valley View Street, Buena Park, CA, 90620-4450",+1 714-826-4912,https://www.7-eleven.com/locations/ca/buena-park/10488-valley-view-st-25600,33.8102175,-118.0278216,,,n_471299654,"shop=convenience, brand=7-Eleven"
"Chino, CA",,retail,452319,99 Cents Only Stores,"1617 North Hacienda Boulevard, La Puente, CA, 91744",+1-626-918-6699,https://locations.99only.com/ca/lapuente/discount-store-56.html,34.0495307,-117.9472794,,,n_509864872,"shop=variety_store, brand=99 Cents Only Stores"
"Chino, CA",,retail,446120,Natural Nails & Spa,"12223 Highland Ave, Etiwanda, CA, 91739",+1 909 463 7039,,34.1342399,-117.5385525,,,n_519579477,shop=beauty
"Chino, CA",,retail,445120,Arrow Liquor,,,,34.1015596,-117.7933772,,,n_537193217,shop=convenience
"Chino, CA",,retail,445120,The Copper Lamp,,,,34.1514994,-118.0036145,,,n_539321032,shop=convenience
"Chino, CA",,retail,445120,7-Eleven,"400 West Foothill, Monrovia, CA, 91016-2026",+1 626-358-5112,https://www.7-eleven.com/locations/ca/monrovia/400-w-foothill-20295,34.1508814,-118.0078632,,,n_539321036,"shop=convenience, brand=7-Eleven"
"Chino, CA",,retail,445120,Arco,,,,33.9894323,-118.063985,,,n_556218782,"shop=convenience, amenity=fuel, brand=Arco"
"Chino, CA",,retail,445120,7-Eleven,"2410 South Fullerton Road, Rowland Heights, CA, 91748-4414",+1 626-912-7506,https://www.7-eleven.com/locations/ca/rowland-heights/2410-s-fullerton-rd-20434,33.9760544,-117.9094003,,,n_560374099,"shop=convenience, brand=7-Eleven"
"Chino, CA",,retail,445120,Chevron,,,,33.9766237,-117.909158,,,n_560374100,"shop=convenience, amenity=fuel;atm, brand=Chevron"
"Chino, CA",,retail,445120,Mobil,,,,34.0366255,-118.038132,,,n_565329534,"shop=convenience, amenity=fuel, brand=Mobil"
"Chino, CA",,retail,445120,Arco,,,,34.2237944,-117.4034603,,,n_572572143,"shop=convenience, amenity=fuel, brand=Arco"
"Chino, CA",,retail,445120,Shell,,,,34.2241177,-117.4028321,,,n_572572147,"shop=convenience, amenity=fuel, brand=Shell"
"Chino, CA",,retail,445120,7-Eleven,,,,34.1916076,-117.360445,,,n_572572194,"shop=convenience, amenity=fuel, brand=7-Eleven"
"Chino, CA",,retail,445292,See's Candies,,,,34.0780501,-118.1137876,,,n_577032093,"shop=confectionery, brand=See's Candies"
"Chino, CA",,retail,445110,Cali Mart,,,,34.0783087,-118.1131332,,,n_577032096,shop=supermarket
"Chino, CA",,retail,445120,7-Eleven,"10008 Valley Boulevard, El Monte, CA, 91731-1702",+1 626-579-0659,https://www.7-eleven.com/locations/ca/el-monte/10008-valley-blvd-25625,34.0784233,-118.0526223,,,n_579354911,"shop=convenience, brand=7-Eleven"
"Chino, CA",,retail,445120,76,"10243 Valley Boulevard, El Monte, CA, 91731",,,34.0770355,-118.0468226,,,n_579354925,"shop=convenience, amenity=fuel, brand=76"
"Chino, CA",,retail,445120,76,,,https://www.76.com/station/U76-AMERICAN-ROYAL-PETROLEUM-INC-0000888990/,34.0514289,-118.000031,,,n_580751411,"shop=convenience, amenity=fuel, brand=76"
"Chino, CA",,retail,445120,Shell,,,,34.0348258,-117.97527,,,n_580751561,"shop=convenience, amenity=fuel, brand=Shell"
"Chino, CA",,retail,446110,CVS Pharmacy,"102 North San Gabriel Boulevard, San Gabriel, CA, 91775",+1 (626) 237-2054,https://www.cvs.com/store-locator/san-gabriel-ca-pharmacies/102-n-san-gabriel-blvd-san-gabriel-ca-91775/storeid=9160,34.1037572,-118.0903874,,,n_585201675,"shop=chemist, brand=CVS Pharmacy"
"Chino, CA",,retail,445120,Circle K,,,,34.1219656,-117.592998,,,n_588149661,"shop=convenience, amenity=fuel, brand=Circle K"
"Chino, CA",,retail,445110,Stater Bros.,"9750 19th Street, Rancho Cucamonga, CA, 91737",+1 909-989-4908,https://www.staterbros.com/stores/78,34.1341172,-117.5925666,,,n_588149667,"shop=supermarket, brand=Stater Bros."
"Chino, CA",,retail,452210,Burlington,"4777 Mills Circle, Ontario, CA, 91764-5200",+1 909-481-0421,https://stores.burlington.com/ca/ontario/274,34.0738835,-117.548736,,,n_588191790,"shop=department_store, brand=Burlington"
"Chino, CA",,retail,445120,Shell,,,,34.0765628,-117.550721,,,n_588191797,"shop=convenience, amenity=fuel, brand=Shell"
"Chino, CA",,retail,445120,Chevron,,,,34.0767726,-117.545882,,,n_588191815,"shop=convenience, amenity=fuel, brand=Chevron"
"Chino, CA",,retail,445292,See's Candies,"2690 Tuscany Rd, Corona, CA, 92881",,,33.8235952,-117.515283,,,n_596244759,"shop=confectionery, brand=See's Candies"
"Chino, CA",,retail,452210,Ross,"3425 East Foothill Boulevard, Pasadena, CA, 91107",+1 626-351-5334,,34.1505768,-118.0803385,,,n_663913193,"shop=department_store, brand=Ross"
"Chino, CA",,retail,445120,Mobil,,,,34.0110129,-118.081246,,,n_728122630,"shop=convenience, amenity=fuel, brand=Mobil"
"Chino, CA",,retail,445120,Arco,,,,34.0520505,-118.063948,,,n_740421419,"shop=convenience, amenity=fuel, brand=Arco"
"Chino, CA",,retail,445120,Shell,,,,34.0515189,-118.064693,,,n_740421459,"shop=convenience, amenity=fuel, brand=Shell"
"Chino, CA",,retail,445110,Siêu Thi Thuân Phát El Monte Superstore,"2650 Rosemead Blvd, South El Monte, CA, 91733",,,34.059963,-118.063463,,,n_740421460,shop=supermarket
"Chino, CA",,retail,445120,Mobil,,,,34.0629899,-118.065148,,,n_740421733,"shop=convenience, amenity=fuel, brand=Mobil"
"Chino, CA",,retail,445120,7-Eleven,"6262 Rosemead Boulevard, Temple City, CA, 91780",+1 626-292-5834,https://www.7-eleven.com/locations/ca/temple-city/6262-rosemead-blvd-34630,34.113062,-118.0733063,,,n_741072304,"shop=convenience, brand=7-Eleven"
"Chino, CA",,retail,445120,Chevron,,,,34.0328191,-117.575212,,,n_747641212,"shop=convenience, amenity=fuel, brand=Chevron"
"Chino, CA",,retail,445110,Del Mar Foods,,,,34.0620933,-118.0986244,,,n_771567447,shop=supermarket
"Chino, CA",,retail,445110,Arcadia Supermarket,,,,34.1272822,-118.0530946,,,n_774192247,shop=supermarket
"Chino, CA",,retail,445110,Grocery Outlet,"520 Workman Mill Rd, La Puente, CA, 91746",,,34.0398355,-117.997761,,,n_780633184,"shop=supermarket, brand=Grocery Outlet"
"Chino, CA",,retail,445110,Hawaii Supermarket,"120 East Valley Boulevard, 91776",6263070062,https://hawaii-supermarket.com/,34.0792536,-118.0988599,,,n_805610612,shop=supermarket
"Chino, CA",,retail,445120,76,,,https://www.76.com/station/U76-LA-PALMA-GAS-STATION-INC-0000804934/,33.855871,-117.83775,,,n_814446945,"shop=convenience, amenity=fuel, brand=76"
"Chino, CA",,retail,446120,Bath & Body Works,,,,33.8116642,-117.506828,,,n_820215535,"shop=cosmetics, brand=Bath & Body Works"
"Chino, CA",,retail,445120,Circle K,,,,33.8361245,-117.5222291,,,n_820215590,"shop=convenience, brand=Circle K"
"Chino, CA",,retail,445110,Trader Joe's,"2790 Cabot Drive, Corona, CA, 92883",+1 951-603-0299,https://locations.traderjoes.com/ca/corona/213/,33.8111592,-117.5062534,,,n_820215768,"shop=supermarket, brand=Trader Joe's"
"Chino, CA",,retail,445110,,,,,33.7646365,-117.4893216,,,n_821736565,shop=grocery
"Chino, CA",,retail,445110,Super A Foods,,,,34.1012115,-118.0750065,,,n_846262878,shop=supermarket
"Chino, CA",,retail,452210,Burlington,,,,34.1257216,-118.055214,,,n_856085038,"shop=department_store, brand=Burlington"
"Chino, CA",,retail,445120,7-Eleven,"1003 South Baldwin Avenue, Arcadia, CA, 91007-7235",+1 626-445-3777,https://www.7-eleven.com/locations/ca/arcadia/1003-s-baldwin-ave-17565,34.128606,-118.0550447,,,n_856085047,"shop=convenience, brand=7-Eleven"
"Chino, CA",,retail,445120,American Gas - Mini Mart,,,,34.0988332,-118.0507293,,,n_857725076,"shop=convenience, amenity=fuel"
"Chino, CA",,retail,445120,Baldwin Gas & Food Mart,,,,34.0904634,-118.0485115,,,n_857725109,"shop=convenience, amenity=fuel"
"Chino, CA",,retail,445120,7-Eleven,"3243 Santa Anita Avenue, El Monte, CA, 91733-1372",+1 626-442-7410,https://www.7-eleven.com/locations/ca/el-monte/3243-santa-anita-ave-16020,34.0672914,-118.0427725,,,n_857781265,"shop=convenience, brand=7-Eleven"
"Chino, CA",,retail,445120,,,,,34.0657294,-118.0428833,,,n_857781288,shop=convenience
"Chino, CA",,retail,445120,Mobil,,,,34.0408761,-118.049496,,,n_858012926,"shop=convenience, amenity=fuel, brand=Mobil"
"Chino, CA",,retail,445120,Chevron,,,,34.0166542,-118.078574,,,n_859558838,"shop=convenience, amenity=fuel, brand=Chevron"
"Chino, CA",,retail,445120,76,,,https://www.76.com/station/U76-APRO-LLC-254867-0000901027/,34.0018481,-118.084216,,,n_859559022,"shop=convenience, amenity=fuel, brand=76"
"Chino, CA",,retail,445110,Food 4 Less,,,,34.0018252,-118.0883925,,,n_859559131,"shop=supermarket, brand=Food 4 Less"
"Chino, CA",,retail,452210,Marshalls,,,,33.9823687,-118.099241,,,n_862963225,"shop=department_store, brand=Marshalls"
"Chino, CA",,retail,452319,Five Below,,+1 562-222-1715,https://locations.fivebelow.com/ca/pico-rivera/8850-washington-blvd,33.9827108,-118.099901,,,n_862963274,"shop=variety_store, brand=Five Below"
"Chino, CA",,retail,445120,Arco,,,,33.9967604,-118.124236,,,n_864089059,"shop=convenience, amenity=fuel, brand=Arco"
"Chino, CA",,retail,445110,El Tapatio Market,,,,33.9419162,-117.45522,,,n_928670437,shop=supermarket
"Chino, CA",,retail,445110,Cardenas,,,,33.9451026,-117.455547,,,n_928670572,"shop=supermarket, brand=Cardenas"
"Chino, CA",,retail,445110,Food 4 Less,,,,33.927576,-117.453369,,,n_928670577,"shop=supermarket, brand=Food 4 Less"
"Chino, CA",,retail,452210,Ross,"10255 Magnolia Avenue, Riverside, CA, 92503",+1 951-509-3541,,33.9133945,-117.4608972,,,n_928693054,"shop=department_store, brand=Ross"
"Chino, CA",,retail,445110,Walmart Supercenter,"5200 Van Buren Boulevard, Riverside, CA, 92503",+1 951-689-4595,https://www.walmart.com/store/2028-riverside-ca,33.9371231,-117.4553945,,,n_928693137,"shop=supermarket, brand=Walmart, operator=Walmart"
"Chino, CA",,retail,445110,Ralphs,"3601 East Foothill Boulevard, Pasadena, CA, 91107",+1 626-351-8806,https://www.ralphs.com/stores/grocery/ca/pasadena/foothill-rosemead-plaza/703/00730,34.1512877,-118.07553,,,n_934134981,"shop=supermarket, brand=Ralphs"
"Chino, CA",,retail,452210,Macy's,,,https://www.macys.com/stores/ca/arcadia/shops-at-santa-anita_482.html,34.1334304,-118.0517513,,,n_938901616,"shop=department_store, brand=Macy's"
"Chino, CA",,retail,452210,JCPenney,,,,34.1363964,-118.0506784,,,n_938901618,"shop=department_store, brand=JCPenney"
"Chino, CA",,retail,452210,Nordstrom,,,https://www.nordstrom.com/store-details/nordstrom-santa-anita,34.1353707,-118.0524219,,,n_938901619,"shop=department_store, brand=Nordstrom"
"Chino, CA",,retail,452210,Target,"3121 East Colorado Boulevard, Pasadena, CA, 91107-3814",+1 626-584-2931,https://www.target.com/sl/pasadena-east/1332,34.1469237,-118.0856589,,,n_942076158,"shop=department_store, brand=Target"
"Chino, CA",,retail,445110,Smart & Final,,,,34.1466662,-118.0832932,,,n_942076204,"shop=supermarket, brand=Smart & Final"
"Chino, CA",,retail,445110,Stater Bros.,"4680 La Sierra Avenue, Riverside, CA, 92505",+1 951-343-2580,https://www.staterbros.com/stores/22,33.9160206,-117.487558,,,n_943347768,"shop=supermarket, brand=Stater Bros."
"Chino, CA",,retail,445110,Stater Bros.,"3420 La Sierra Avenue, Riverside, CA, 92503",+1 951-343-2588,https://www.staterbros.com/stores/115,33.8971255,-117.4730212,,,n_943353228,"shop=supermarket, brand=Stater Bros."
"Chino, CA",,retail,445110,Ralphs,"3350 La Sierra Avenue, Riverside, CA, 92503",+1 951-637-1948,https://www.ralphs.com/stores/grocery/ca/riverside/la-sierra/703/00098,33.8954112,-117.4715996,,,n_943353907,"shop=supermarket, brand=Ralphs"
"Chino, CA",,retail,445110,Albertsons,"2975 Van Buren Boulevard, Riverside, CA, 92503",+1 951-689-2252,https://local.albertsons.com/ca/riverside/2975-van-buren-blvd.html,33.9098993,-117.436339,,,n_943356324,"shop=supermarket, brand=Albertsons"
"Chino, CA",,retail,452210,Big Lots,"4022 Madison Street, Riverside, CA, 92504",+1 951-352-7782,https://local.biglots.com/ca/riverside/4022-madison-st,33.9448316,-117.4128432,,,n_943363812,"shop=department_store, brand=Big Lots"
"Chino, CA",,retail,445110,Stater Bros.,"6160 Arlington Avenue, Riverside, CA, 92504",+1 951-343-2562,https://www.staterbros.com/stores/42,33.944865,-117.436334,,,n_943367513,"shop=supermarket, brand=Stater Bros."
"Chino, CA",,retail,452210,dd's Discounts,,,,33.9409375,-117.455168,,,n_943369589,"shop=department_store, brand=dd's Discounts"
"Chino, CA",,retail,445110,Food 4 Less,,,,33.9738463,-117.3469037,,,n_943378231,"shop=supermarket, brand=Food 4 Less"
"Chino, CA",,retail,445110,Rite Aid,,,,33.9601168,-117.3941411,,,n_943389742,shop=supermarket
"Chino, CA",,retail,445110,Ralphs,"6155 Magnolia Avenue, Riverside, CA, 92506",+1 951-274-9543,https://www.ralphs.com/stores/grocery/ca/riverside/magnolia-town-center/703/00144,33.9592269,-117.3943342,,,n_943390313,"shop=supermarket, brand=Ralphs"
"Chino, CA",,retail,445110,Stater Bros.,"315 East Alessandro Boulevard, Riverside, CA, 92508",+1 951-565-5426,https://www.staterbros.com/stores/201,33.9141018,-117.3281711,,,n_943398059,"shop=supermarket, brand=Stater Bros."
"Chino, CA",,retail,445110,Sprouts Farmers Market,"475 East Alessandro Boulevard, Riverside, CA, 92508",+1 951-565-5400,https://www.sprouts.com/store/ca/riverside/e-alessandro-blvd/,33.9139778,-117.3233769,,,n_943402481,"shop=supermarket, brand=Sprouts Farmers Market"
"Chino, CA",,retail,445110,Buy Low Market,,,,34.0618345,-118.0524514,,,n_989105051,shop=supermarket
"Chino, CA",,retail,445120,Adams' Pack Station,,,https://adamspackstation.com/,34.1948541,-118.0228268,,,n_989711453,"shop=convenience, operator=Maggie Moran"
"Chino, CA",,retail,445110,Quang Hoa Super Market,350 Garvey Avenue,,,34.0623299,-118.1175646,,,n_1011125373,shop=supermarket
"Chino, CA",,retail,445110,Albertsons,"260 West Foothill Parkway, Corona, CA, 92882",+1 951-340-1425,https://local.albertsons.com/ca/corona/260-w-foothill-pkwy.html,33.8435355,-117.574217,,,n_1055559709,"shop=supermarket, brand=Albertsons"
"Chino, CA",,retail,445110,,,,,33.9898366,-117.9346321,,,n_1106835565,shop=supermarket
"Chino, CA",,retail,445120,Shell,,,,34.1212716,-117.907152,,,n_1109831813,"shop=convenience, amenity=fuel, brand=Shell"
"Chino, CA",,retail,445120,7-Eleven,"281 East Pomona Boulevard, Monterey Park, CA, 91755-7237",+1 323-722-7752,https://www.7-eleven.com/locations/ca/monterey-park/281-east-pomona-blvd-17169,34.0339341,-118.1253892,,,n_1111079853,"shop=convenience, brand=7-Eleven"
"Chino, CA",,retail,445120,Mobil,,,,34.0187781,-117.592549,,,n_1144975506,"shop=convenience, amenity=fuel, brand=Mobil"
"Chino, CA",,retail,445120,7-Eleven,,,,34.0477327,-117.576581,,,n_1145325468,"shop=convenience, amenity=fuel, brand=7-Eleven"
"Chino, CA",,retail,445120,Baci's Vera Villa Market,,,,33.9571874,-117.6326668,,,n_1148739281,shop=convenience
"Chino, CA",,retail,446120,Beauty Source,,,,33.7334968,-117.7597046,,,n_1150448615,shop=beauty
"Chino, CA",,retail,446120,Esprit Nails & Spa,,,,33.7346923,-117.7618236,,,n_1153885188,shop=beauty
"Chino, CA",,retail,446120,Happy Nails,,,,33.7233246,-117.7713776,,,n_1153889720,shop=beauty
"Chino, CA",,retail,446120,Bath & Body Works,,,,34.1089201,-117.570698,,,n_1158422184,"shop=cosmetics, brand=Bath & Body Works"
"Chino, CA",,retail,453110,T. Austin Florist,,,,34.108863,-117.5708836,,,n_1158422891,shop=florist
"Chino, CA",,retail,445120,7-Eleven,"8118 Masi Drive, Rancho Cucamonga, CA, 91730-3902",+1 909-941-4400,https://www.7-eleven.com/locations/ca/rancho-cucamonga/8118-masi-dr-39209,34.105532,-117.5497614,,,n_1158471096,"shop=convenience, brand=7-Eleven"
"Chino, CA",,retail,445310,,,,,34.1067504,-117.5252332,,,n_1158745841,shop=alcohol
"Chino, CA",,retail,445110,Greenhills Market & Fast Food,,,,34.0291623,-117.6072896,,,n_1165054394,"shop=supermarket, amenity=fast_food"
"Chino, CA",,retail,445120,Vineyard Car Wash,,,,34.0288799,-117.6104103,,,n_1165054545,"shop=convenience, amenity=car_wash;car_detail;oil_change"
"Chino, CA",,retail,445120,Arco,"2456 Vineyard Ave, Ontario, CA, 91761",,,34.0294113,-117.611328,,,n_1165054664,"shop=convenience, brand=Arco"
"Chino, CA",,retail,452210,FAMSA,"2446 Vineyard Ave, Ontario, CA, 91761",,,34.0294588,-117.612437,,,n_1165054700,shop=department_store
"Chino, CA",,retail,452210,American Freight,,,,34.0294319,-117.607288,,,n_1165054768,"shop=department_store, brand=American Freight"
"Chino, CA",,retail,445120,Arrow & Grove Market & Liquor,,,,34.0996552,-117.6283052,,,n_1167574731,shop=convenience
"Chino, CA",,retail,452210,Sears,,,,34.1511208,-118.0708205,,,n_1210063375,"shop=department_store, brand=Sears"
"Chino, CA",,retail,445120,Chevron,,,,34.069386,-118.028137,,,n_1224094960,"shop=convenience, amenity=fuel;car_wash, brand=Chevron"
"Chino, CA",,retail,445230,Fairfax Market,,,https://disneyland.disney.go.com/dining/disney-california-adventure/fairfax-fruit-market/,33.8077507,-117.9174254,,,n_1231986596,shop=greengrocer
"Chino, CA",,retail,445230,Bayou Country Fruit Cart,,,https://disneyland.disney.go.com/dining/fruit/,33.8124015,-117.9219802,,,n_1231986700,shop=greengrocer
"Chino, CA",,retail,445292,Candy Palace,215 Main Street,,https://disneyland.disney.go.com/shops/disneyland/candy-palace-kitchen/,33.8113269,-117.9191133,,,n_1231987200,shop=confectionery
"Chino, CA",,retail,445292,Pooh Corner,,,https://disneyland.disney.go.com/shops/disneyland/pooh-corner/,33.8122578,-117.9232603,,,n_1231987202,shop=confectionery
"Chino, CA",,retail,445310,Mint Julep Bar,15 Front Street,,https://disneyland.disney.go.com/dining/disneyland/mint-julep-bar/,33.8111728,-117.9216625,,,n_1231987358,shop=beverages
"Chino, CA",,retail,445310,Lemonade Small World,,,,33.8137806,-117.9180498,,,n_1233368367,"shop=beverages, amenity=snack_stand"
"Chino, CA",,retail,445120,,,,,33.8588072,-117.9596716,,,n_1233397047,shop=convenience
"Chino, CA",,retail,445120,7-Eleven,"301 South Brookhurst Road, Fullerton, CA, 92833-3203",+1 714-447-3065,https://www.7-eleven.com/locations/ca/fullerton/301-s-brookhurst-rd-27746,33.8663531,-117.959846,,,n_1233397286,"shop=convenience, brand=7-Eleven"
"Chino, CA",,retail,445120,,,,,33.8588406,-117.9589287,,,n_1233397300,shop=convenience
"Chino, CA",,retail,445110,,,,,33.859883,-117.9573837,,,n_1233397827,shop=supermarket
"Chino, CA",,retail,445120,7-Eleven,"295 West Central Avenue, Brea, CA, 92821",+1 714-529-7831,https://www.7-eleven.com/locations/ca/brea/295-west-central-24506,33.932507,-117.8989545,,,n_1234340501,"shop=convenience, brand=7-Eleven"
"Chino, CA",,retail,445110,Ralphs,"305 West Imperial Highway, Brea, CA, 92821",+1 714-529-4505,https://www.ralphs.com/stores/grocery/ca/brea/brea-town-center/703/00192,33.9188241,-117.902639,,,n_1234340553,"shop=supermarket, brand=Ralphs"
"Chino, CA",,retail,453991,Islands Cigar,101D West Central Avenue,,,33.9326984,-117.8942713,,,n_1234340751,shop=tobacco
"Chino, CA",,retail,452319,99 Cents Only Stores,,,https://locations.99only.com/ca/brea/discount-store-221.html,33.9326139,-117.917016,,,n_1234350107,"shop=variety_store, brand=99 Cents Only Stores"
"Chino, CA",,retail,453110,,,,,33.932467,-117.9015455,,,n_1234350262,shop=florist
"Chino, CA",,retail,445120,ampm,,,,33.8184841,-117.880963,,,n_1234468325,"shop=convenience, brand=ampm"
"Chino, CA",,retail,445292,Marceline's Confectionery,"1580 South Disneyland Drive, Anaheim, 92802",,https://disneyland.disney.go.com/shopping/marcelines-confectionery/,33.8087355,-117.9226781,,,n_1234801139,shop=confectionery
"Chino, CA",,retail,446120,Sephora,"1570 South Disneyland Drive, Anaheim, CA, 92802",(714) 758-1700,https://www.sephora.com/happening/stores/anaheim-disneyland,33.8086141,-117.922394,,,n_1234801191,"shop=cosmetics, brand=Sephora"
"Chino, CA",,retail,446120,Second Street Beauty,"6286 Irvine Boulevard, CA",,,33.6971058,-117.7429835,,,n_1236719525,shop=beauty
"Chino, CA",,retail,445310,Total Wine,"471 South Associated Road, Brea, CA, 92821",+1 714-672-0323,https://www.totalwine.com/store-info/1105,33.9120237,-117.8820434,,,n_1250732968,"shop=alcohol, brand=Total Wine"
"Chino, CA",,retail,446120,Mlle. Antoinette’s Parfumerie,24 Orleans Street,,,33.8111524,-117.9214412,,,n_1256492317,shop=perfumery
"Chino, CA",,retail,445120,7-Eleven,"305 South San Gabriel Boulevard, San Gabriel, CA, 91776-1930",+1 626-545-2770,https://www.7-eleven.com/locations/ca/san-gabriel/305-s-san-gabriel-blvd-19202,34.0986889,-118.091241,,,n_1280332993,"shop=convenience, brand=7-Eleven"
"Chino, CA",,retail,445120,Rocket,"1200 Harbor Blvd., Anaheim, CA, 92805",,,33.8175956,-117.9146396,,,n_1304346625,"shop=convenience, brand=Rocket"
"Chino, CA",,retail,445120,Mobil,,,,33.9760301,-117.336732,,,n_1333487407,"shop=convenience, amenity=fuel, brand=Mobil"
"Chino, CA",,retail,445120,,,,,34.0384447,-117.3677504,,,n_1336514330,"shop=convenience, amenity=fuel;car_wash, brand=ARCO"
"Chino, CA",,retail,445120,,,,,34.0374987,-117.3674283,,,n_1336514558,"shop=convenience, amenity=fuel, brand=76"
"Chino, CA",,retail,445120,Mobil,,,,34.0666316,-117.324869,,,n_1339197354,"shop=convenience, amenity=fuel, brand=Mobil"
"Chino, CA",,retail,445310,,,,,34.0148058,-117.3402348,,,n_1343044220,shop=alcohol
"Chino, CA",,retail,445120,Shell,,,,33.9833054,-117.340305,,,n_1343105062,"shop=convenience, amenity=fuel, brand=Shell"
"Chino, CA",,retail,445120,Shell,,,,34.0334497,-117.32364,,,n_1357773801,"shop=convenience, brand=Shell"
"Chino, CA",,retail,445110,Stater Bros.,"1040 East Bastanchury Road, Fullerton, CA, 92835",+1 714-257-0460,https://www.staterbros.com/stores/129,33.8983315,-117.9111323,,,n_1399431829,"shop=supermarket, brand=Stater Bros."
"Chino, CA",,retail,445120,7-Eleven,"16970 Van Buren Boulevard, Riverside, CA, 92504",,,33.8825792,-117.3664149,,,n_1407504588,"shop=convenience, amenity=fuel, brand=7-Eleven"
"Chino, CA",,retail,445110,Grocery Outlet,"7260 N. Rosemead, 91775",,https://www.traderjoes.com/stores/index.asp,34.129108,-118.0725061,,,n_1419660412,"shop=supermarket, brand=Grocery Outlet"
"Chino, CA",,retail,445292,Trolley Treats,2741 Buena Vista Street,,https://disneyland.disney.go.com/shops/disney-california-adventure/trolley-treats/,33.8080123,-117.9191349,,,n_1421476451,shop=confectionery
"Chino, CA",,retail,452210,"Macy's Mens, Childern, & Furniture",,714-990-1400,https://www.macys.com/stores/ca/brea/brea-mall_524.html,33.9163225,-117.885144,,,n_1421587163,"shop=department_store, brand=Macy's"
"Chino, CA",,retail,446120,Glen Ivy Day Spa,,,,33.9153475,-117.887365,,,n_1421587168,shop=beauty
"Chino, CA",,retail,452210,Macy's Womens,,,,33.9148148,-117.885329,,,n_1421616628,"shop=department_store, brand=Macy's"
"Chino, CA",,retail,452210,JCPenney,,714-671-2882,,33.9166759,-117.886911,,,n_1421616629,"shop=department_store, brand=JCPenney"
"Chino, CA",,retail,452210,Nordstrom,,714-529-0123,https://www.nordstrom.com/store-details/nordstrom-brea-mall,33.9157764,-117.8882045,,,n_1421616637,"shop=department_store, brand=Nordstrom"
"Chino, CA",,retail,445310,,,,,33.9302148,-117.8941029,,,n_1429718361,shop=alcohol
"Chino, CA",,retail,445110,Mother's Market,,,,33.9125846,-117.8804903,,,n_1439087735,shop=supermarket
"Chino, CA",,retail,445210,,,,,33.912589,-117.8807094,,,n_1439087736,shop=butcher
"Chino, CA",,retail,445120,Rosa's Market - Deli,,,,34.1428984,-117.4012769,,,n_1475531211,shop=convenience
"Chino, CA",,retail,445230,Mortimer's Market,Buena Vista Street,,https://disneyland.disney.go.com/dining/fruit/,33.8082886,-117.919092,,,n_1483210923,shop=greengrocer
"Chino, CA",,retail,445120,Speedway,,,https://www.speedway.com/locations/CA/Riverside/4930-VAN-BUREN-BLVD,33.9346436,-117.454535,,,n_1488265978,"shop=convenience, brand=Speedway"
"Chino, CA",,retail,445230,Tomorrowland Fruit Cart,,,https://disneyland.disney.go.com/dining/fruit/,33.8119787,-117.9171676,,,n_1488768779,shop=greengrocer
"Chino, CA",,retail,445120,7-Eleven,"8201 Arlington Avenue, Riverside, CA, 92503-0430",+1 951-977-9567,https://www.7-eleven.com/locations/ca/riverside/8201-arlington-ave-a-b-27437,33.9466601,-117.460717,,,n_1489068975,"shop=convenience, brand=7-Eleven"
"Chino, CA",,retail,445120,7-Eleven,,,https://www.7-eleven.com/locations/ca/riverside/7410-wells-ave-13984,33.9339907,-117.4548578,,,n_1489068994,"shop=convenience, brand=7-Eleven"
"Chino, CA",,retail,445120,7-Eleven,"9580 Magnolia Avenue, Riverside, CA, 92503-3608",+1 951-689-4472,https://www.7-eleven.com/locations/ca/riverside/9580-magnolia-ave-15515,33.919212,-117.4477629,,,n_1489069004,"shop=convenience, brand=7-Eleven"
"Chino, CA",,retail,445120,7-Eleven,"5102 La Sierra Avenue, Riverside, CA, 92505-2527",+1 951-687-4404,https://www.7-eleven.com/locations/ca/riverside/5102-la-sierra-ave-13968,33.9233058,-117.491661,,,n_1489216626,"shop=convenience, brand=7-Eleven"
"Chino, CA",,retail,445110,Sprouts Farmers Market,"735 East Birch Street, Brea, CA, 92821",+1 714-482-1000,https://www.sprouts.com/store/ca/brea/e-birch-st/,33.9189987,-117.889389,,,n_1527196023,"shop=supermarket, brand=Sprouts Farmers Market"
"Chino, CA",,retail,445120,The Quarter Market,,,,34.0953863,-117.7197339,,,n_1634477787,shop=convenience
"Chino, CA",,retail,452210,Sears,,,,33.9377955,-117.2697392,,,n_1658487411,"shop=department_store, brand=Sears"
"Chino, CA",,retail,452210,JCPenney,,,,33.9380358,-117.2722497,,,n_1658487903,"shop=department_store, brand=JCPenney"
"Chino, CA",,retail,452210,Macy's,,,https://www.macys.com/stores/ca/morenovalley/moreno-valley-mall_540.html,33.9389615,-117.2734621,,,n_1658488021,"shop=department_store, brand=Macy's"
"Chino, CA",,retail,445110,Albertson's,,,,34.1626916,-118.0690713,,,n_1666897138,shop=supermarket
"Chino, CA",,retail,445310,Hacienda Beverage - Wine & Liquor Store,,,,33.9101716,-117.9034809,,,n_1722470076,shop=alcohol
"Chino, CA",,retail,445110,Stater Bros.,"375 North Azusa Avenue, West Covina, CA, 91791",+1 626-915-4951,https://www.staterbros.com/stores/106,34.0771636,-117.9094934,,,n_1732625320,"shop=supermarket, brand=Stater Bros."
"Chino, CA",,retail,452210,Kohl's,,,,34.1297738,-118.0742922,,,n_1743326182,"shop=department_store, brand=Kohl's"
"Chino, CA",,retail,453110,Far East Florist,"401 San Gabriel Boulevard, 91776",,,34.0977763,-118.0911826,,,n_1768825339,shop=florist
"Chino, CA",,retail,445120,,,,,34.1036485,-117.8074646,,,n_1772279897,shop=convenience
"Chino, CA",,retail,445120,ampm,,,,33.9103814,-117.8805438,,,n_1847715003,"shop=convenience, brand=ampm"
"Chino, CA",,retail,445110,Stater Bros.,"1145 East Alosta Avenue, Azusa, CA, 91702",+1 626-335-2310,https://www.staterbros.com/stores/57,34.129528,-117.8827593,,,n_1952134910,"shop=supermarket, brand=Stater Bros."
"Chino, CA",,retail,445110,Smart & Final Extra!,,,,34.1347425,-117.908062,,,n_1956746514,"shop=supermarket, brand=Smart & Final"
"Chino, CA",,retail,445120,7-Eleven,"861 West Route 66, Glendora, CA, 91740-4136",+1 626-335-9514,https://www.7-eleven.com/locations/ca/glendora/861-w-route-66-13995,34.1294866,-117.8811447,,,n_1956746562,"shop=convenience, brand=7-Eleven"
"Chino, CA",,retail,445110,Vons,"435 West Foothill Boulevard, Glendora, CA, 91741",+1 626-963-2913,https://local.vons.com/ca/glendora/435-w-foothill-blvd.html,34.1373253,-117.871569,,,n_1956776715,"shop=supermarket, brand=Vons"
"Chino, CA",,retail,445310,Liquorland,,,,34.0989922,-117.8717164,,,n_2053855076,"shop=alcohol, brand=Liquorland"
"Chino, CA",,retail,445292,Sweet Art Cafe,,714-289-4626,http://www.orangecandycompany.com/,33.7891178,-117.8536716,,,n_2162606529,shop=confectionery
"Chino, CA",,retail,445110,Trader Joe's,"604 West Huntington Drive, Monrovia, CA, 91016",+1 626-358-8884,https://locations.traderjoes.com/ca/monrovia/112/,34.1380129,-118.0121045,,,n_2184917998,"shop=supermarket, brand=Trader Joe's"
"Chino, CA",,retail,445120,7-Eleven,"455 East Foothill Boulevard, Azusa, CA, 91702-2518",+1 626-334-9729,https://www.7-eleven.com/locations/ca/azusa/455-e-foothill-blvd-17448,34.133957,-117.9026829,,,n_2295140340,"shop=convenience, brand=7-Eleven"
"Chino, CA",,retail,445292,See's Candies,"Monrovia, 91016",,,34.151003,-118.0023719,,,n_2343758104,"shop=confectionery, brand=See's Candies"
"Chino, CA",,retail,445110,Albertsons,"810 South State College Boulevard, Anaheim, CA, 92806",+1 714-533-4790,https://local.albertsons.com/ca/anaheim/810-s-state-college-blvd.html,33.8313152,-117.8886498,,,n_2373956215,"shop=supermarket, brand=Albertsons"
"Chino, CA",,retail,446120,Central Nails,,,,33.7746861,-117.9175334,,,n_2374404709,shop=beauty
"Chino, CA",,retail,446110,EZ Nutrition #2,,,,33.7810327,-117.9152696,,,n_2374404711,shop=chemist
"Chino, CA",,retail,446120,Katie's Nails,,,,33.7808574,-117.915805,,,n_2374404719,shop=beauty
"Chino, CA",,retail,452210,Ross,"13200 Harbor Boulevard, Garden Grove, CA, 92843",+1 714-636-1123,,33.7723887,-117.9190001,,,n_2374406813,"shop=department_store, brand=Ross"
"Chino, CA",,retail,452210,Big Lots,"1670 West Katella Avenue, Anaheim, CA, 92802",+1 714-534-6696,https://local.biglots.com/ca/anaheim/1670-w-katella-ave,33.8019146,-117.939827,,,n_2386564633,"shop=department_store, brand=Big Lots"
"Chino, CA",,retail,445110,Food 4 Less,,,,33.8020061,-117.9377578,,,n_2386564635,"shop=supermarket, brand=Food 4 Less"
"Chino, CA",,retail,445120,Sav-A-Minit,,,,33.9882887,-117.3723487,,,n_2416628450,shop=convenience
"Chino, CA",,retail,445230,Tustin Farmers Market,El Camino Real,,,33.7434561,-117.8234126,,,n_2428265554,shop=greengrocer
"Chino, CA",,retail,445110,Stater Bros.,"3325 East Chapman Avenue, Orange, CA, 92869",+1 714-997-7445,https://www.staterbros.com/stores/165,33.7889598,-117.8177251,,,n_2519063114,"shop=supermarket, brand=Stater Bros."
"Chino, CA",,retail,452319,dollar store,,,,33.7889253,-117.8171592,,,n_2519063129,shop=variety_store
"Chino, CA",,retail,453991,Tabacco Palace,,,,33.7886266,-117.8157027,,,n_2519063145,shop=tobacco
"Chino, CA",,retail,452210,Big Lots,"6336 East Santa Ana Canyon Road, Anaheim, CA, 92807",+1 714-637-7230,https://local.biglots.com/ca/anaheim/6336-e-santa-ana-canyon-rd,33.8561379,-117.7710523,,,n_2522472859,"shop=department_store, brand=Big Lots"
"Chino, CA",,retail,446120,Marc Leigh Salon & Spa,"1040 East Katella Avenue, Orange, 92867",,,33.8088655,-117.840834,,,n_2607426043,shop=beauty
"Chino, CA",,retail,445110,Ralphs,"3075 South Archibald Avenue Building C, Ontario, CA, 91761",+1 909-947-1884,https://www.ralphs.com/stores/grocery/ca/ontario/archibald-ranch-town-center/703/00752,34.0178788,-117.59212,,,n_2643164829,"shop=supermarket, brand=Ralphs"
"Chino, CA",,retail,445110,Sprouts Farmers Market,"27765 Santa Margarita Parkway, Mission Viejo, CA, 92691",+1 949-587-3003,https://www.sprouts.com/store/ca/mission-viejo/santa-margarita-pkwy/,33.6542966,-117.645924,,,n_2644804298,"shop=supermarket, brand=Sprouts Farmers Market"
"Chino, CA",,retail,446120,"Elite Hair, Nails & Spa",,,,33.8744695,-117.9037409,,,n_2668083563,shop=beauty
"Chino, CA",,retail,446120,Noble's Pool & Spa,,,,33.8737202,-117.9038486,,,n_2668099725,shop=beauty
"Chino, CA",,retail,445120,Fullerton Dairy Alta Dena Certified Dairy,,,,33.8722837,-117.9073382,,,n_2668105677,shop=convenience
"Chino, CA",,retail,445110,Big Food Saver,,,,34.0632749,-118.1030018,,,n_2681629433,shop=supermarket
"Chino, CA",,retail,445120,EZ Mart,,,,34.0057233,-117.4253749,,,n_2698887828,shop=convenience
"Chino, CA",,retail,445120,Country Kwik Market & Deli,,,,34.0413792,-117.7980598,,,n_2738810245,shop=convenience
"Chino, CA",,retail,445110,Trader Joe's,"12861 Towne Center Drive, Cerritos, CA, 90703",+1 562-402-5148,https://www.traderjoes.com/,33.8689672,-118.058037,,,n_2807667380,"shop=supermarket, brand=Trader Joe's"
"Chino, CA",,retail,452210,Marshalls,"5895 Lincoln Avenue, Buena Park, 90620",714-828-4760,http://www.marshallsonline.com/,33.832804,-118.0300711,,,n_2807682445,"shop=department_store, brand=Marshalls"
"Chino, CA",,retail,445110,Walmart Neighborhood Market,"5420 La Palma Avenue, La Palma, CA, 90623",+1 714-822-3152,https://www.walmart.com/store/3099-la-palma-ca,33.845619,-118.038726,,,n_2819134133,"shop=supermarket, brand=Walmart, operator=Walmart"
"Chino, CA",,retail,445110,Whole Foods Market,"465 Foothill Boulevard, Pasadena, CA, 91105",+1 626-204-2266,https://www.wholefoodsmarket.com/stores/pasadena,34.1510164,-118.072249,,,n_2875583535,"shop=supermarket, brand=Whole Foods Market"
"Chino, CA",,retail,445120,Valero,,,,33.8465453,-117.976468,,,n_2906670177,"shop=convenience, amenity=fuel, brand=Valero"
"Chino, CA",,retail,445120,7-Eleven,"8725 Orangethorpe Avenue, Buena Park, CA, 90621-3715",+1 714-739-2627,https://www.7-eleven.com/locations/ca/buena-park/8725-orangethorpe-ave-17840,33.8593984,-117.9807962,,,n_2906670234,"shop=convenience, brand=7-Eleven"
"Chino, CA",,retail,445292,Ghost Town Bakery & Soup Station,,,https://www.knotts.com/play/drinks-dining/ghost-town-bakery,33.8431156,-117.9994853,,,n_2950096030,shop=confectionery
"Chino, CA",,retail,445120,General Merchandise Store,,,,33.8438112,-117.9998441,,,n_2950105459,shop=convenience
"Chino, CA",,retail,445292,Ghost Town Candy Store,,,,33.8438635,-118.0005364,,,n_2950108047,shop=confectionery
"Chino, CA",,retail,445120,small world Gifts & Sundries,,,https://disneyland.disney.go.com/shops/disneyland-hotel/small-world-gifts-sundries/,33.8090788,-117.9268839,,,n_2978426465,shop=convenience
"Chino, CA",,retail,446120,Imperial Spa,,,,33.8928446,-117.9463132,,,n_2983915978,shop=beauty
"Chino, CA",,retail,446110,CVS Pharmacy,"1101 Hidden Valley Parkway, Norco, CA, 92860",,https://www.cvs.com/store-locator/norco-ca-pharmacies/1101-hidden-valley-parkway-norco-ca-92860/storeid=9718,33.8988936,-117.5439322,,,n_2984081692,"shop=chemist, brand=CVS Pharmacy"
"Chino, CA",,retail,445110,Stater Bros.,"2790 Hamner Avenue, Norco, CA, 92860",+1 951-734-1838,https://www.staterbros.com/stores/44,33.922669,-117.5602937,,,n_2984090085,"shop=supermarket, brand=Stater Bros."
"Chino, CA",,retail,445310,,,,,33.8709752,-117.9073157,,,n_2993281842,shop=alcohol
"Chino, CA",,retail,445110,Loma Linda Market Juice Bar,,,,34.0508525,-117.2595942,,,n_3052318786,shop=supermarket
"Chino, CA",,retail,445120,ampm,"15451 Fairfield Ranch Road, Chino Hills, 91709",,,33.9720282,-117.689388,,,n_3052536070,"shop=convenience, brand=ampm"
"Chino, CA",,retail,445110,99 Ranch Market,,,,34.0096175,-117.7406913,,,n_3052695500,"shop=supermarket, brand=99 Ranch Market"
"Chino, CA",,retail,445110,Albertsons,"3255 Grand Avenue, Chino Hills, CA, 91709",+1 909-590-3660,https://local.albertsons.com/ca/chino-hills/3255-grand-ave.html,34.0010634,-117.734328,,,n_3052709216,"shop=supermarket, brand=Albertsons"
"Chino, CA",,retail,445110,Sprouts Farmers Market,"3630 Grand Avenue, Chino Hills, CA, 91709",+1 909-548-0440,https://www.sprouts.com/store/ca/chino-hills/grand-ave/,34.0030531,-117.727472,,,n_3052718411,"shop=supermarket, brand=Sprouts Farmers Market"
"Chino, CA",,retail,446120,Nails,,,,33.8668001,-117.7511542,,,n_3088537022,shop=beauty
"Chino, CA",,retail,452210,TJ Maxx,,,,33.8655784,-117.7491133,,,n_3088537031,"shop=department_store, brand=TJ Maxx"
"Chino, CA",,retail,452210,Target,"8148 East Santa Ana Canyon Road, Anaheim, CA, 92808",+1 714-921-9091,https://www.target.com/sl/anaheim-hills/677,33.865535,-117.747066,,,n_3088537032,"shop=department_store, brand=Target"
"Chino, CA",,retail,446120,Ulta Beauty,"8140 E Santa Ana Canyon Road, Anaheim, CA, 92808",,,33.8653427,-117.748191,,,n_3088537035,"shop=cosmetics, brand=Ulta Beauty"
"Chino, CA",,retail,446120,Bath & Body Works,,,,33.8654415,-117.7487643,,,n_3088537037,"shop=cosmetics, brand=Bath & Body Works"
"Chino, CA",,retail,445120,Circle K,,,,33.6839932,-117.8162021,,,n_3134614835,"shop=convenience, brand=Circle K"
"Chino, CA",,retail,446120,Sunny Salon,,,,33.6806097,-117.8379868,,,n_3134653402,shop=beauty
"Chino, CA",,retail,453991,La Marca Cigars,"530 South Myrtle Avenue, Monrovia, CA",626) 775-4155,http://lamarcacigars.com/,34.1461584,-118.0007798,,,n_3186055056,shop=tobacco
"Chino, CA",,retail,453110,Monrovia Floral,"119 East Olive Avenue, Monrovia, CA",(626)358-1889,https://www.monfloral.com/,34.1449782,-118.0001125,,,n_3193084517,shop=florist
"Chino, CA",,retail,446120,The Vapor Lair,"210 East 4th Street, Santa Ana, CA",1.714.667.5247,https://thevaporlair.com/,33.747846,-117.8661609,,,n_3195181744,shop=beauty
"Chino, CA",,retail,445292,Candy Parlour,,,https://www.knotts.com/california-marketplace/candy-parlour,33.842334,-117.9981699,,,n_3215624860,shop=confectionery
"Chino, CA",,retail,452319,Dollar Tree,"9679 Chapman Avenue, Garden Grove, CA, 92841",+1 714-636-3640,https://www.dollartree.com/locations/ca/garden-grove/2053/,33.78983,-117.9641191,,,n_3276001461,"shop=variety_store, brand=Dollar Tree"
"Chino, CA",,retail,452210,Ross,"8361 On the Mall, Buena Park, CA, 90620",+1 714-952-1007,https://rossstores.com/,33.8455496,-117.9887412,,,n_3276020021,"shop=department_store, brand=Ross"
"Chino, CA",,retail,452210,Ross,"560 North Euclid Street, Anaheim, CA, 92801",+1 714-635-9380,,33.8391791,-117.9386309,,,n_3279443705,"shop=department_store, brand=Ross"
"Chino, CA",,retail,446110,Rite Aid,"15331 Baseline Avenue, Fontana, CA, 92336",(909) 574-2831,https://www.riteaid.com/locations/ca/fontana/15331-baseline-avenue.html,34.1208161,-117.4703,,,n_3360124567,"shop=chemist, brand=Rite Aid"
"Chino, CA",,retail,446120,Lovely Nails,,,,33.6797978,-117.6626956,,,n_3382225499,shop=beauty
"Chino, CA",,retail,445110,Champion Provisions Co 冠軍食品,"140 West Valley Blvd, 91776",626-571-8188,,34.0782644,-118.1021421,,,n_3445749908,shop=supermarket
"Chino, CA",,retail,445110,Nijiya Market,17869 Colima Road,626-913-9991,http://www.nijiya.com/,33.99079,-117.9148389,,,n_3445816736,shop=supermarket
"Chino, CA",,retail,452210,Ross,"3900 South Bristol Street, Santa Ana, CA, 92704",+1 714-546-2600,,33.6952942,-117.8874747,,,n_3463184622,"shop=department_store, brand=Ross"
"Chino, CA",,retail,445120,7-Eleven,"6915 Rosemead Boulevard, San Gabriel, CA, 91775-1412",+1 626-286-9697,https://www.7-eleven.com/locations/ca/san-gabriel/6915-rosemead-blvd-25481,34.1232911,-118.0733198,,,n_3476995243,"shop=convenience, brand=7-Eleven"
"Chino, CA",,retail,445310,BevMo!,"3730 Foothill Boulevard, Padadena, 91107",,,34.1500048,-118.072291,,,n_3477523635,"shop=alcohol, brand=BevMo!"
"Chino, CA",,retail,445110,Sprouts Farmers Market,"39 N. Rosemead Boulevard, Pasadena, CA, 91107",+1 626-696-1290,https://www.sprouts.com/store/ca/pasadena/n-rosemead-blvd/,34.1472457,-118.0740524,,,n_3477528943,"shop=supermarket, brand=Sprouts Farmers Market"
"Chino, CA",,retail,445292,See's Candies,"3641 Foothill Boulevard, Pasadena, 91107",,,34.1506019,-118.07461,,,n_3477534974,"shop=confectionery, brand=See's Candies"
"Chino, CA",,retail,445120,Fine wine * Craft Beer,"3689 E. Colorado Blvd., Pasadena, 91107",,,34.1466485,-118.0736313,,,n_3477546867,"shop=convenience, brand=7-Eleven"
"Chino, CA",,retail,445120,7-Eleven,"227 South Rosemead Boulevard, Pasadena, CA, 91107-4900",+1 626-793-4744,https://www.7-eleven.com/locations/ca/pasadena/227-s-rosemead-blvd-20297,34.142473,-118.0739183,,,n_3477563423,"shop=convenience, brand=7-Eleven"
"Chino, CA",,retail,445110,Trader Joe's,"856 West Arrow Highway, San Dimas, CA, 91773",+1 909-305-4757,https://locations.traderjoes.com/ca/san-dimas/28/,34.1036077,-117.821291,,,n_3489981986,"shop=supermarket, brand=Trader Joe's"
"Chino, CA",,retail,445110,Stater Bros.,"2243 Eagle Glen Parkway, Corona, CA, 92883",+1 951-372-2692,https://www.staterbros.com/stores/170,33.8229165,-117.5229986,,,n_3499335010,"shop=supermarket, brand=Stater Bros."
"Chino, CA",,retail,445110,Ralphs,"9470 Las Tunas Drive, Temple City, CA, 91780",+1 626-286-0898,https://www.ralphs.com/stores/grocery/ca/temple-city/temple-city/703/00053,34.1053054,-118.0640557,,,n_3507799463,"shop=supermarket, brand=Ralphs"
"Chino, CA",,retail,446120,Brow Mantra Threading Salon,"6614 Irvine Center Drive, Irvine, 92618",,,33.6690217,-117.76524,,,n_3583788677,shop=beauty
"Chino, CA",,retail,445292,See's Candies,"6616 Irvine Center Drive, Irvine, 92618",,,33.6689746,-117.765173,,,n_3583788678,"shop=confectionery, brand=See's Candies"
"Chino, CA",,retail,446120,Lovely Nails & Spa,"6646 Irvine Center Drive, Irvine, 92618",,,33.6683548,-117.764292,,,n_3583788690,shop=beauty
"Chino, CA",,retail,446120,M.O Beauty,"1193 South Diamond Bar Boulevard, Diamond Bar, CA, 91765",626-469-7860,https://customeyelashextensionsdiamondbar.com/,34.0015959,-117.8113907,,,n_3624200689,shop=beauty
"Chino, CA",,retail,445120,Circle K,,,,33.9948363,-117.758879,,,n_3624209230,"shop=convenience, brand=Circle K"
"Chino, CA",,retail,446120,Diamond Foot Spa,,,,34.0025319,-117.8092233,,,n_3625542647,shop=beauty
"Chino, CA",,retail,445310,Grizzly Peak Refreshments,,,,33.8078057,-117.9200195,,,n_3648076388,shop=beverages
"Chino, CA",,retail,452319,Dollar Tree,,,,33.6770858,-117.6647089,,,n_3649611306,"shop=variety_store, brand=Dollar Tree"
"Chino, CA",,retail,446120,Happy Nails,,,,33.6805686,-117.6670642,,,n_3651864606,shop=beauty
"Chino, CA",,retail,446110,Medical Plaza Pharmacy,,,,33.6738734,-117.6625552,,,n_3651866990,"shop=chemist, amenity=pharmacy"
"Chino, CA",,retail,445310,,,,,33.6611788,-117.6690663,,,n_3658066944,shop=alcohol
"Chino, CA",,retail,446120,Win Nails Spa,,,,33.6602573,-117.6681329,,,n_3658403229,shop=beauty
"Chino, CA",,retail,452319,99 Cents Only Stores,,,https://locations.99only.com/ca/riverside/discount-store-285.html,33.9747685,-117.4776779,,,n_3688664122,"shop=variety_store, brand=99 Cents Only Stores"
"Chino, CA",,retail,445120,G Food Mart,,,,33.9758807,-117.477415,,,n_3688664126,shop=convenience
"Chino, CA",,retail,452319,99 Cents Only Stores,,,https://locations.99only.com/ca/brea/discount-store-253.html,33.9127444,-117.892729,,,n_3688768516,"shop=variety_store, brand=99 Cents Only Stores"
"Chino, CA",,retail,446120,Sam I am Beauty Supply & Salon,"17914 Foothill Boulevard, Fontana, CA, 92335",,,34.1068911,-117.413614,,,n_3714105710,"shop=beauty, operator=Samuel Konadu"
"Chino, CA",,retail,445120,7-Eleven,"3740 Iowa Avenue, Riverside, CA, 92507",+1 951-680-9678,https://www.7-eleven.com/locations/ca/riverside/3740-iowa-ave-34218,33.9773522,-117.339499,,,n_3723880213,"shop=convenience, brand=7-Eleven"
"Chino, CA",,retail,453110,Mystic Florist,,,,33.8186108,-117.9755351,,,n_3726837337,shop=florist
"Chino, CA",,retail,446120,,,,,33.8186113,-117.9752288,,,n_3726837363,shop=beauty
"Chino, CA",,retail,445110,Walmart Neighborhood Market,"121 North Beach Boulevard, Anaheim, CA, 92801",+1 714-822-3179,https://www.walmart.com/store/3101-anaheim-ca,33.833236,-117.995057,,,n_3763124364,"shop=supermarket, brand=Walmart, operator=Walmart"
"Chino, CA",,retail,445120,,,,,34.0341687,-117.5749339,,,n_3776221787,shop=convenience
"Chino, CA",,retail,452319,Daiso Japan,,,,33.8031557,-118.009291,,,n_3777296983,"shop=variety_store, brand=Daiso"
"Chino, CA",,retail,453110,Florist,,,,33.8033815,-118.0148968,,,n_3777296987,shop=florist
"Chino, CA",,retail,445110,Superior Grocers,"151 South Hacienda Boulevard, City of Industry, CA, 91745",,,34.0220378,-117.9582938,,,n_3779274742,"shop=supermarket, brand=Superior Grocers"
"Chino, CA",,retail,446120,Paseo Nails,,,,33.8036466,-118.0403935,,,n_3873759417,shop=beauty
"Chino, CA",,retail,445120,Circle K,,,,33.8666324,-117.924039,,,n_3874205358,"shop=convenience, brand=Circle K"
"Chino, CA",,retail,446120,Phenix,,,,33.8798203,-117.9621683,,,n_3887241833,shop=beauty
"Chino, CA",,retail,446120,Divaa Beauty & Threading Studio,"9622 Base Line Road, Rancho cucamonga, CA, 91730",,,34.1223831,-117.595243,,,n_3972510645,shop=beauty
"Chino, CA",,retail,445120,ampm,"401 North Placentia Avenue, Fullerton, 92831",,,33.8744036,-117.8793031,,,n_4047288897,"shop=convenience, brand=ampm"
"Chino, CA",,retail,445120,ampm,"780 Brea Canyon Road, City of Industry, CA, 91789",,,34.0034773,-117.8458858,,,n_4047316839,"shop=convenience, brand=ampm"
"Chino, CA",,retail,445120,ampm,"1100 South Nogales Street, Rowland Heights, CA, 91748",,,33.9958827,-117.887862,,,n_4047327242,"shop=convenience, brand=ampm"
"Chino, CA",,retail,445120,ampm,"17175 Colima Road, Hacienda Heights, CA, 91745",,,33.9913412,-117.93243,,,n_4047361707,"shop=convenience, brand=ampm"
"Chino, CA",,retail,445120,ampm,"10121 Whittier Boulevard, Whittier, CA, 90606",,,33.9949609,-118.070694,,,n_4047379719,"shop=convenience, brand=ampm"
"Chino, CA",,retail,445120,ampm,"8505 Pioneer Boulevard, Whittier, CA, 90606",,,33.9668372,-118.0829705,,,n_4047382433,"shop=convenience, brand=ampm"
"Chino, CA",,retail,446120,Amazing Lash Studio,"3800 Barranca Parkway, Irvine, CA, 92606",,,33.6844751,-117.812381,,,n_4067301095,"shop=beauty, brand=Amazing Lash Studio"
"Chino, CA",,retail,445120,Sam's Liquour,,,,33.6626835,-117.668093,,,n_4069462829,shop=convenience
"Chino, CA",,retail,445120,7-Eleven,"2000 East La Palma Avenue, Anaheim, CA, 92805",+1 714-533-3783,https://www.7-eleven.com/locations/ca/anaheim/2000-east-la-palma-ave-35774,33.8469778,-117.888926,,,n_4091188311,"shop=convenience, brand=7-Eleven"
"Chino, CA",,retail,445310,Frisby Cellars Tasting Room,"20331 Lake Forest Drive, Lake Forest, 92630",,,33.6668824,-117.6637057,,,n_4109650002,shop=wine
"Chino, CA",,retail,445110,,,,,33.9918952,-118.091973,,,n_4132026875,shop=supermarket
"Chino, CA",,retail,445120,7-Eleven,"2717 East Colorado Boulevard, Pasadena, CA, 91107-4369",+1 626-793-0102,https://www.7-eleven.com/locations/ca/pasadena/2717-e-colorado-blvd-20269,34.1465436,-118.094295,,,n_4202858214,"shop=convenience, brand=7-Eleven"
"Chino, CA",,retail,452319,Family Dollar,14431 Ramona Blvd,(626) 338-8046,https://familydollar.com/,34.0883543,-117.9596334,,,n_4204720395,"shop=variety_store, brand=Family Dollar"
"Chino, CA",,retail,445110,Superior Grocers,"14433 Ramona Parkway, Baldwin Park, CA, 91706",(626) 646-1835,https://superiorgrocers.com/,34.0883604,-117.9590756,,,n_4204915090,"shop=supermarket, brand=Superior Grocers"
"Chino, CA",,retail,445120,Knicks and Knacks,Ramona Parkway,,,34.088359,-117.958674,,,n_4205400825,shop=convenience
"Chino, CA",,retail,452319,Dollar Tree,"4259 Maine Avenue, 91706",(626) 960-1647,https://www.dollartree.com/locations/ca/baldwin-park/4568/,34.0899067,-117.9617078,,,n_4209206793,"shop=variety_store, brand=Dollar Tree"
"Chino, CA",,retail,445110,El Super,"14103 Ramona Parkway, Baldwin Park, CA, 91706",(626) 869-5141,https://elsupermarkets.com/,34.0867188,-117.9664702,,,n_4213802489,"shop=supermarket, brand=El Super"
"Chino, CA",,retail,452210,Fallas,"14121 Ramona Parkway, 91706",(626) 338-1650,https://www.fallasstores.net/,34.0866271,-117.9661411,,,n_4213802490,shop=department_store
"Chino, CA",,retail,452319,99 Cents Only Stores,"14151 Ramona Parkway, 91706",(626) 962-4299,https://locations.99only.com/ca/baldwinpark/discount-store-72.html,34.0867274,-117.9654594,,,n_4213805189,"shop=variety_store, brand=99 Cents Only Stores"
"Chino, CA",,retail,445120,7-Eleven,"1275 West San Bernardino Road, Covina, CA, 91722",+1 626-966-4779,https://www.7-eleven.com/locations/ca/covina/1275-w-san-bernardino-rd-19251,34.0888169,-117.9163895,,,n_4215678390,"shop=convenience, brand=7-Eleven"
"Chino, CA",,retail,452210,Target,"3100 Baldwin Park Boulevard, Baldwin Park, CA, 91706-4703",+1 626-851-9404,https://www.target.com/sl/baldwin-park/1033,34.0694956,-117.9768767,,,n_4230275989,"shop=department_store, brand=Target"
"Chino, CA",,retail,452210,Macy's,"1111 Plaza Drive, 91790",(626) 962-5400,https://www.macys.com/stores/ca/westcovina/plaza-west-covina_485.html,34.0704868,-117.9290126,,,n_4270121591,"shop=department_store, brand=Macy's"
"Chino, CA",,retail,445120,Circle K,,,,34.0920002,-117.9740138,,,n_4277008693,"shop=convenience, brand=Circle K"
"Chino, CA",,retail,452210,Musica Latina,"4155 Maine Avenue, 91706",(626) 814-4458,,34.0883464,-117.9605705,,,n_4278586993,shop=department_store
"Chino, CA",,retail,445120,M & I Liquor Store,"14511 Pacific Avenue, 91706",,,34.0842172,-117.9587867,,,n_4278586995,shop=convenience
"Chino, CA",,retail,445120,7-Eleven,"4400 Maine Avenue, Baldwin Park, CA, 91706",+1 626-962-9470,https://www.7-eleven.com/locations/ca/baldwin-park/4400-maine-ave-39347,34.0924347,-117.9602285,,,n_4281935694,"shop=convenience, brand=7-Eleven"
"Chino, CA",,retail,445120,Alta Dena,"4390 Maine Avenue, 91706",(626) 337-8817,,34.0921881,-117.9603171,,,n_4281946298,shop=convenience
"Chino, CA",,retail,445120,Vince's Liquor Store,"4741 Maine Avenue, 91706",(626) 337-5080,,34.0992021,-117.960673,,,n_4281978399,shop=convenience
"Chino, CA",,retail,445120,Coles Market,"14503 Pacific Avenue, 91706",(626) 338-2861,,34.0843344,-117.9589697,,,n_4283556290,shop=convenience
"Chino, CA",,retail,445292,Pepsi Bottling Group,"4416 Azusa Canyon Road, 91706",(626) 338-5531,https://www.pepsico.com/,34.0928189,-117.9425673,,,n_4283569191,shop=confectionery
"Chino, CA",,retail,445110,Vallarta,"13940 Ramona Parkway, 91706",(626) 480-8960,https://vallartasupermarkets.com/,34.083305,-117.968609,,,n_4283574289,"shop=supermarket, brand=Vallarta"
"Chino, CA",,retail,445120,7-Eleven,"3705 Puente Avenue, Baldwin Park, CA, 91706",+1 626-962-8091,https://www.7-eleven.com/locations/ca/baldwin-park/3705-puente-ave-19329,34.0798171,-117.9523666,,,n_4284527609,"shop=convenience, brand=7-Eleven"
"Chino, CA",,retail,445120,Freeway Liquor,"130 Vincent Avenue, 91790",(626) 332-3330,,34.0739546,-117.9260038,,,n_4284527610,shop=convenience
"Chino, CA",,retail,445120,7-Eleven,"12954 Bess Avenue, Baldwin Park, CA, 91706",+1 626-337-8833,https://www.7-eleven.com/locations/ca/baldwin-park/12954-bess-ave-14024,34.0670863,-117.992144,,,n_4285397591,"shop=convenience, brand=7-Eleven"
"Chino, CA",,retail,452210,Target,"2462 Foothill Boulevard, La Verne, CA, 91750-3056",+1 909-593-2421,https://www.target.com/sl/laverne/226,34.1095009,-117.7596954,,,n_4285399489,"shop=department_store, brand=Target"
"Chino, CA",,retail,445120,7-Eleven,"15942 San Bernardino Road, Covina, CA, 91722",+1 626-962-0293,https://www.7-eleven.com/locations/ca/covina/15942-e-san-bernardino-rd-36703,34.0893795,-117.9344199,,,n_4288328090,"shop=convenience, brand=7-Eleven"
"Chino, CA",,retail,445120,7-Eleven,"803 West Arrow Highway, 91702",(626) 969-1968,https://www.7-eleven.com/locations/ca/azusa/803-w-arrow-hwy-33554,34.1072602,-117.916763,,,n_4295564589,"shop=convenience, brand=7-Eleven"
"Chino, CA",,retail,445110,La Amapola Market,,,,34.0705005,-117.934355,,,n_4311298189,shop=supermarket
"Chino, CA",,retail,445292,See's Candies,,,,34.0706786,-117.9325686,,,n_4311299989,"shop=confectionery, brand=See's Candies"
"Chino, CA",,retail,445110,Food 4 Less,3000 Baldwin Park Boulevard,(626) 856-0511,http://food4less.com,34.068815,-117.9790983,,,n_4311325889,"shop=supermarket, brand=Food 4 Less"
"Chino, CA",,retail,446120,ProfessioNail & Spa,"27412 Portola Parkway, Foothill Ranch, CA, 92610",+1 949 4204888,http://professionailandspa.net,33.6713842,-117.6530389,,,n_4322780837,shop=beauty
"Chino, CA",,retail,446120,8158 Human Hair Company,"4320 Mills Circle, Ontario, CA, 91764",+1 909 9803838,http://8158humanhaircompany.com,34.0731354,-117.5523684,,,n_4324696868,shop=beauty
"Chino, CA",,retail,445110,Claros Italian Market,,,,34.1401894,-118.0307174,,,n_4349254692,shop=supermarket
"Chino, CA",,retail,452210,Ross,"2200 East 17th Street, Santa Ana, CA, 92705",+1 714-647-1515,,33.7585121,-117.8359884,,,n_4356307296,"shop=department_store, brand=Ross"
"Chino, CA",,retail,452210,Marshalls,,,,33.7610841,-117.828643,,,n_4356308290,"shop=department_store, brand=Marshalls"
"Chino, CA",,retail,445120,,,,,33.7736535,-117.8353243,,,n_4356675889,shop=convenience
"Chino, CA",,retail,445310,KC Liquor,,,,33.7843271,-117.8362694,,,n_4359143889,shop=alcohol
"Chino, CA",,retail,446120,Sola Salons,,,,33.9115246,-117.8719106,,,n_4364180774,"shop=beauty, brand=Sola Salons"
"Chino, CA",,retail,453110,Bird of Paradise Couture Florals,"17775 Main Street, Irvine, CA, 92614",+1-949-474-7311,https://www.bopflorist.com/,33.6864824,-117.8572001,,,n_4466344696,shop=florist
"Chino, CA",,retail,445310,Honey Mee,,,,33.885167,-117.99571,,,n_4480349292,shop=beverages
"Chino, CA",,retail,445292,Sinfully Sweet Apple Company,"181 North 2nd Avenue, Upland, CA, 91786",+1-909-596-9327,https://sinfullysweetgourmettreats.com/,34.0957397,-117.6486726,,,n_4530064278,shop=confectionery
"Chino, CA",,retail,445292,See's Candies,"1117 Grand Avenue, Diamond Bar, 91765",,,34.0012406,-117.8125124,,,n_4566275992,"shop=confectionery, brand=See's Candies"
"Chino, CA",,retail,453110,Xavier's Florist,"1135 Grand Avenue, Diamond Bar, 91765",,https://xaviersflorist.com/,34.0007426,-117.8127126,,,n_4566275995,shop=florist
"Chino, CA",,retail,445110,Walmart Neighborhood Market,"1180 Diamond Bar Boulevard, Diamond Bar, CA, 91765",+1 909-378-4055,https://www.walmart.com/store/4762-diamond-bar-ca,34.0012181,-117.8095652,,,n_4566280151,"shop=supermarket, brand=Walmart, operator=Walmart"
"Chino, CA",,retail,446110,CVS Pharmacy,,,https://www.cvs.com/store-locator/diamond-bar-ca-pharmacies/747-grand-ave-diamond-bar-ca-91765/storeid=17259,34.0043561,-117.8215583,,,n_4569374605,"shop=chemist, brand=CVS Pharmacy"
"Chino, CA",,retail,446120,One Stop Beauty Shop,"1119 Grand Avenue, Diamond Bar, 91765",,,34.0011855,-117.8125432,,,n_4570857857,shop=beauty
"Chino, CA",,retail,446120,Orchid's Nails & Spa,"1121 Grand Avenue, Diamond Bar, 91765",,,34.0011396,-117.8125685,,,n_4570863147,shop=beauty
"Chino, CA",,retail,445120,Smoke Shop,"1127 Grand Avenue, Diamond Bar, 91765",,,34.0010467,-117.8126305,,,n_4570863149,shop=convenience
"Chino, CA",,retail,446120,Pure Bliss Nails & Beauty Bar,,,,34.0023945,-117.8114868,,,n_4570869957,shop=beauty
"Chino, CA",,retail,445310,Mike's Tobacco & Liquor,"Diamond Bar Boulevard, Diamond Bar, CA",,,34.0016709,-117.8092687,,,n_4572131789,shop=alcohol
"Chino, CA",,retail,446120,La Vie Nails & Spa,"Diamond Bar Boulevard, Diamond Bar, CA",,,34.0024989,-117.8092016,,,n_4572131796,shop=beauty
"Chino, CA",,retail,445310,,,,,34.0067057,-117.9084569,,,n_4578344626,shop=alcohol
"Chino, CA",,retail,445120,7-Eleven,"150 South Citrus Avenue, West Covina, CA, 91791",+1 626-339-8018,https://www.7-eleven.com/locations/ca/west-covina/150-s-citrus-ave-39342,34.0702712,-117.8896184,,,n_4580129319,"shop=convenience, brand=7-Eleven"
"Chino, CA",,retail,453110,Aroma Flowers,,,,34.0791882,-117.8881484,,,n_4580231035,shop=florist
"Chino, CA",,retail,446120,SET International Home Shopping,"9822 Bolsa Avenue, Westminster, CA, 92683",,https://www.sethomeshopping.com/,33.7441488,-117.9573908,,,n_4711456639,shop=beauty
"Chino, CA",,retail,446120,LN Lanie Beauty Supply,"9842 Bolsa Avenue, Westminster, CA",,,33.7443266,-117.957189,,,n_4711456643,shop=beauty
"Chino, CA",,retail,445292,Ten Lei Yến,,,https://tenleiyen.com/,33.7457868,-117.959816,,,n_4723976243,shop=confectionery
"Chino, CA",,retail,445110,T&K Food,,,,33.7464425,-117.960637,,,n_4723976257,shop=supermarket
"Chino, CA",,retail,445230,Tiến Phát,,,,33.7453377,-117.9672076,,,n_4723976285,shop=greengrocer
"Chino, CA",,retail,446120,A.K. Beauty Supply,,,,33.7453228,-117.9614963,,,n_4744702969,shop=beauty
"Chino, CA",,retail,446120,Truc Le Permanent Make-Up Center,,,,33.7454444,-117.9614989,,,n_4744702971,shop=beauty
"Chino, CA",,retail,446120,Miracle Wands;Đôi Đũa Thần Kỳ,,,,33.7455035,-117.9615003,,,n_4744702972,shop=beauty
"Chino, CA",,retail,446120,DT Skin Care Clinic,,+1-714-701-8555,http://www.dtskincareclinic.com/,33.7457064,-117.9621065,,,n_4744702981,shop=beauty
"Chino, CA",,retail,445110,Sprouts Farmers Market,"400 West Huntington Drive, Monrovia, CA, 91016",+1 626-358-6845,https://www.sprouts.com/store/ca/monrovia/w-huntington-dr/,34.1397044,-118.0079046,,,n_4748045985,"shop=supermarket, brand=Sprouts Farmers Market"
"Chino, CA",,retail,445120,Water Boy,,,,34.1395546,-118.0072892,,,n_4748045986,shop=convenience
"Chino, CA",,retail,445110,Baja Ranch,,,,34.1395216,-118.0065712,,,n_4748045991,shop=supermarket
"Chino, CA",,retail,446120,Mes Ami Nail and Beauty Spa,,,,33.9764112,-117.5740874,,,n_4748438127,shop=beauty
"Chino, CA",,retail,445110,Smart & Final Extra!,,,,33.9766395,-117.5743409,,,n_4748438128,"shop=supermarket, brand=Smart & Final"
"Chino, CA",,retail,445110,Ralphs,"211 East Foothill Boulevard, Arcadia, CA, 91006",+1 626-357-1942,https://www.ralphs.com/stores/grocery/ca/arcadia/arcadia/703/00041,34.1517997,-118.0246613,,,n_4751737924,"shop=supermarket, brand=Ralphs"
"Chino, CA",,retail,445120,7-Eleven,"102 East Huntington Drive, Arcadia, CA, 91006",+1 (626) 623-6015,https://www.7-eleven.com/locations/ca/arcadia/102-e-huntington-dr-39764,34.1396394,-118.0279402,,,n_4751749039,"shop=convenience, brand=7-Eleven"
"Chino, CA",,retail,445120,,,,,34.0639428,-117.6115145,,,n_4752689991,shop=convenience
"Chino, CA",,retail,445120,Circle K,,,,34.0631422,-117.611308,,,n_4752689994,"shop=convenience, brand=Circle K"
"Chino, CA",,retail,452210,Target,"701 Rio Rancho Road, Pomona, CA, 91766-7018",+1 909-634-3151,https://www.target.com/sl/pomona/2831,34.034892,-117.7558677,,,n_4755245380,"shop=department_store, brand=Target"
"Chino, CA",,retail,452210,Ross,"723 Rio Rancho Road, Pomona, CA, 91766-7018",+1 909-622-5706,,34.0351187,-117.7571283,,,n_4755245381,"shop=department_store, brand=Ross"
"Chino, CA",,retail,446120,Queen’s Secret,,,,33.7428507,-117.9685196,,,n_4757666337,shop=beauty
"Chino, CA",,retail,446120,Kim Văn Beauty Institute,,,,33.7430178,-117.9688025,,,n_4757666341,shop=beauty
"Chino, CA",,retail,446120,Cathy Nhung Artist,,,,33.7430414,-117.9684552,,,n_4757666348,shop=beauty
"Chino, CA",,retail,446120,,,,,33.7433255,-117.9684907,,,n_4757666387,shop=beauty
"Chino, CA",,retail,446120,The History of Whoo,,,,33.743317,-117.9684106,,,n_4757666389,shop=beauty
"Chino, CA",,retail,446120,Shiseido,,,,33.7433518,-117.968424,,,n_4757666390,"shop=cosmetics, brand=Shiseido"
"Chino, CA",,retail,446120,,,,,33.7438056,-117.9684281,,,n_4757666401,shop=cosmetics
"Chino, CA",,retail,452319,Dollar Tree,,,https://www.dollartree.com/locations/ca/ontario/4506/,34.0208376,-117.6498807,,,n_4759048130,"shop=variety_store, brand=Dollar Tree"
"Chino, CA",,retail,445110,Albertsons,"7070 Archibald Avenue, Corona, CA, 92880",+1 951-279-0333,https://local.albertsons.com/ca/corona/7070-archibald-ave.html,33.9594979,-117.591573,,,n_4760494769,"shop=supermarket, brand=Albertsons"
"Chino, CA",,retail,446120,Revol Nail & Salon,,,,33.959611,-117.5909321,,,n_4762210992,shop=beauty
"Chino, CA",,retail,453991,Master Smokes,,,,33.9593706,-117.5924954,,,n_4762211002,shop=tobacco
"Chino, CA",,retail,446120,Miracle Cosmetics,,,,33.7440675,-117.9688266,,,n_4774439048,shop=cosmetics
"Chino, CA",,retail,445110,Superior,,,,33.7466052,-117.8965434,,,n_4780335447,shop=supermarket
"Chino, CA",,retail,445110,SF Supermarket,"13861 Brookhurst Street, Garden Grove, CA",+1 714-539-6688,https://www.shunfatsupermarket.com,33.7611353,-117.956442,,,n_4785624872,"shop=supermarket, brand=SF Supermarket"
"Chino, CA",,retail,453110,Hoa Sen Flowers,,,,33.7607919,-117.9566842,,,n_4785624879,shop=florist
"Chino, CA",,retail,445292,Lindt,"501 20 City Boulevard West, 92868",7149409811,,33.7810329,-117.891891,,,n_4792179721,"shop=chocolate, brand=Lindt"
"Chino, CA",,retail,452210,Saks Off 5th,B2 City Boulevard East,,,33.7813147,-117.89154,,,n_4792180121,"shop=department_store, brand=Saks Off 5th"
"Chino, CA",,retail,452210,Neiman Marcus Last Call,"20 City Boulevard East, Orange, CA, 92868",+1-714-939-6806,,33.7810818,-117.891771,,,n_4792180221,"shop=department_store, brand=Neiman Marcus"
"Chino, CA",,retail,446120,Henry's Nails,,,,33.8833838,-117.3638283,,,n_4805051943,shop=beauty
"Chino, CA",,retail,445110,Mỹ Thuận Market,,,,33.758843,-117.9741539,,,n_4855341167,shop=supermarket
"Chino, CA",,retail,445120,7-Eleven,"14098 Red Hill Avenue, Tustin, CA, 92780",+1 714-832-7584,https://www.7-eleven.com/locations/ca/tustin/14090-red-hill-avenue-39017,33.7321235,-117.8162775,,,n_4870198388,"shop=convenience, brand=7-Eleven"
"Chino, CA",,retail,452210,Target,"2831 East Eastland Center Drive, West Covina, CA, 91791-1624",+1 626-859-0221,https://www.target.com/sl/west-covina/1028,34.0738442,-117.8844871,,,n_4888334902,"shop=department_store, brand=Target"
"Chino, CA",,retail,452319,Dollar Tree,,,https://www.dollartree.com/locations/ca/west-covina/4712/,34.0737287,-117.8829261,,,n_4888334904,"shop=variety_store, brand=Dollar Tree"
"Chino, CA",,retail,452210,Burlington,"2753 East Eastland Center Drive, West Covina, CA, 91791",+1 626-966-0661,https://stores.burlington.com/ca/west-covina/285,34.0731799,-117.884615,,,n_4888334913,"shop=department_store, brand=Burlington"
"Chino, CA",,retail,452210,Ross,"2753 East Eastland Center Drive, West Covina, CA, 91791",+1 626-966-9602,,34.0730488,-117.8853079,,,n_4888334914,"shop=department_store, brand=Ross"
"Chino, CA",,retail,452210,Marshalls,,,,34.0730555,-117.8863057,,,n_4888334915,"shop=department_store, brand=Marshalls"
"Chino, CA",,retail,445230,Tropical Imports,,,https://disneyland.disney.go.com/dining/disneyland/tropical-imports/,33.8116329,-117.9200492,,,n_4916167089,shop=greengrocer
"Chino, CA",,retail,446120,European Wax Center,"2785 North Main Street, Santa Ana",,https://locations.waxcenter.com/ca/santaana/santa-ana-0317.html,33.7738761,-117.866855,,,n_4932290898,"shop=beauty, brand=European Wax Center"
"Chino, CA",,retail,445120,7-Eleven,"15265 Culver Drive, Irvine, CA, 92604-3085",+1 949-552-2945,https://www.7-eleven.com/locations/ca/irvine/15265-culver-dr-26846,33.6972984,-117.7979238,,,n_4964265935,"shop=convenience, brand=7-Eleven, operator=7-Eleven"
"Chino, CA",,retail,445120,7-Eleven,"14460 Newport Avenue, Tustin, CA, 92780-5603",+1 714-838-2223,https://www.7-eleven.com/locations/ca/tustin/14460-newport-ave-ste-a-25817,33.7326174,-117.8270663,,,n_4972335794,"shop=convenience, brand=7-Eleven"
"Chino, CA",,retail,446120,,"1072 Walnut Avenue, Tustin, 92780",,,33.7312494,-117.8270798,,,n_4972867058,shop=beauty
"Chino, CA",,retail,446120,Beauty Unlimited,"1076 Walnut Avenue, Tustin, 92780",,,33.7312149,-117.8270291,,,n_4972867060,shop=beauty
"Chino, CA",,retail,446120,Lucky Nails and Spa,"14077 Newport Avenue, Tustin, CA, 92780",,,33.736142,-117.824706,,,n_4981149552,shop=beauty
"Chino, CA",,retail,445110,ALDI,"1403 Baldwin Avenue, Arcadia, CA, 91007-7922",+1 626-461-3200,https://stores.aldi.us/ca/arcadia/1403-s-baldwin-ave,34.1232915,-118.0564398,,,n_4993584022,"shop=supermarket, brand=ALDI"
"Chino, CA",,retail,445310,Refresh Station,,,,33.8455747,-118.0011637,,,n_4995766956,shop=beverages
"Chino, CA",,retail,446120,Hair Aria,"14581 Red Hill Avenue, Tustin, 92780",,,33.7272574,-117.8229473,,,n_5006060145,shop=beauty
"Chino, CA",,retail,446120,Hair Express,"14575 Red Hill Avenue, Tustin, 92780",,,33.7272988,-117.8229054,,,n_5006060147,shop=beauty
"Chino, CA",,retail,452319,Dollar Tree,"14551 Red Hill Avenue, Tustin, 92780",,,33.7275706,-117.822493,,,n_5006060156,"shop=variety_store, brand=Dollar Tree"
"Chino, CA",,retail,445120,7-Eleven,"20562 Regency Lane, Lake Forest, CA, 92630",+1 949-768-5433,https://www.7-eleven.com/locations/ca/lake-forest/20562-regency-ln-34527,33.6642999,-117.6652729,,,n_5006115376,"shop=convenience, brand=7-Eleven, operator=7-Eleven"
"Chino, CA",,retail,445310,Wonderland Liquor,"1178 West Katella Avenue, Anaheim, CA, 92802",,,33.8030177,-117.9277647,,,n_5078086623,shop=alcohol
"Chino, CA",,retail,445120,,,,,33.7684406,-117.8367547,,,n_5106101327,shop=convenience
"Chino, CA",,retail,452319,Dollar Tree,,,https://www.dollartree.com/locations/ca/anaheim/5131/,33.8494541,-117.8903945,,,n_5181139121,"shop=variety_store, brand=Dollar Tree"
"Chino, CA",,retail,452210,Ranch Market,,,,33.8411882,-117.9433468,,,n_5181139124,shop=department_store
"Chino, CA",,retail,445110,George's Deli & Produce,"706 W Rte 66, Glendora, CA, 91740",,,34.1283262,-117.877325,,,n_5222418496,shop=supermarket
"Chino, CA",,retail,445310,MacGuerder's Liquor,,,,33.9086223,-117.5811284,,,n_5232912157,shop=alcohol
"Chino, CA",,retail,452319,Geode Shop,,,,33.8437385,-117.999128,,,n_5251217274,shop=variety_store
"Chino, CA",,retail,445230,Sanchez Market,,,,34.0049273,-117.4247988,,,n_5255595512,shop=greengrocer
"Chino, CA",,retail,452210,Marshalls,"564 West Huntington Drive, Monrovia, CA, 91016",,,34.1380457,-118.0117043,,,n_5278670877,"shop=department_store, brand=Marshalls"
"Chino, CA",,retail,445120,7-Eleven,"660 East Foothill Boulevard, San Dimas, CA, 91773-1207",+1 909-599-2805,https://www.7-eleven.com/locations/ca/san-dimas/660-e-foothill-blvd-17210,34.1221231,-117.794637,,,n_5280907221,"shop=convenience, brand=7-Eleven"
"Chino, CA",,retail,452210,Sears,,,,33.9944991,-117.9287908,,,n_5303546938,"shop=department_store, brand=Sears"
"Chino, CA",,retail,452210,Burlington,,,,33.9929141,-117.926202,,,n_5303546940,"shop=department_store, brand=Burlington"
"Chino, CA",,retail,452210,Ross,"1600 Azusa Avenue, City of Industry, CA, 91748",+1 626-581-9489,,33.9930094,-117.9271048,,,n_5303546941,"shop=department_store, brand=Ross"
"Chino, CA",,retail,452210,JCPenney,,,,33.7772992,-117.870111,,,n_5307529473,"shop=department_store, brand=JCPenney"
"Chino, CA",,retail,452210,Macy's,,,https://www.macys.com/stores/ca/santaana/mainplace-mall_527.html,33.7762067,-117.86921,,,n_5307529474,"shop=department_store, brand=Macy's"
"Chino, CA",,retail,445110,Walmart Neighborhood Market,"14865 Telegraph Road, La Mirada, CA, 90638",+1 562-567-6488,https://www.walmart.com/store/5661-la-mirada-ca,33.9185466,-118.013281,,,n_5315597542,"shop=supermarket, brand=Walmart, operator=Walmart"
"Chino, CA",,retail,445110,Walmart Neighborhood Market,"12840 Beach Boulevard, Stanton, CA, 90680",+1 714-230-0126,https://www.walmart.com/store/4134-stanton-ca,33.7749668,-117.9911038,,,n_5315598124,"shop=supermarket, brand=Walmart, operator=Walmart"
"Chino, CA",,retail,445110,Walmart Supercenter,"3250 Big Dalton Avenue, Baldwin Park, CA, 91706",+1 626-814-2235,https://www.walmart.com/store/3522-baldwin-park-ca,34.071943,-117.963494,,,n_5315598270,"shop=supermarket, brand=Walmart, operator=Walmart"
"Chino, CA",,retail,445110,Walmart Neighborhood Market,"1425 North Hacienda Boulevard, La Puente, CA, 91744",+1 626-251-1877,https://www.walmart.com/store/3133-la-puente-ca,34.0471887,-117.949791,,,n_5315598911,"shop=supermarket, brand=Walmart, operator=Walmart"
"Chino, CA",,retail,445110,Walmart Neighborhood Market,"1560 West Sixth Street, Corona, CA, 92882",+1 951-393-6405,https://www.walmart.com/store/2487-corona-ca,33.87734,-117.596143,,,n_5315599506,"shop=supermarket, brand=Walmart, operator=Walmart"
"Chino, CA",,retail,445110,Walmart Supercenter,"1275 North Azusa Avenue, Covina, CA, 91722",+1 626-339-4161,https://www.walmart.com/store/2292-covina-ca,34.102622,-117.909601,,,n_5315599563,"shop=supermarket, brand=Walmart, operator=Walmart"
"Chino, CA",,retail,445310,The Bottle Shop,,,,34.1616804,-118.0540064,,,n_5322600800,shop=alcohol
"Chino, CA",,retail,445310,Happys Liquor,,,,34.1617791,-118.0530462,,,n_5322600801,shop=alcohol
"Chino, CA",,retail,445120,7-Eleven,"400 North Grand Avenue, Santa Ana, CA, 92701-4300",+1 714-647-0134,https://www.7-eleven.com/locations/ca/santa-ana/400-a-north-grand-avenue-27416,33.7482387,-117.8524259,,,n_5351859504,"shop=convenience, brand=7-Eleven"
"Chino, CA",,retail,446120,Luxe Nail Spa,,,,33.7002766,-117.8885889,,,n_5384151609,shop=beauty
"Chino, CA",,retail,445120,7-Eleven,"5432 Orangethorpe Avenue, La Palma, CA, 90623-1005",+1 714-523-0961,https://www.7-eleven.com/locations/ca/la-palma/5432-orangethorpe-ave-13769,33.8584199,-118.0388045,,,n_5432488353,"shop=convenience, brand=7-Eleven"
"Chino, CA",,retail,445120,7-Eleven,"12200 Artesia Boulevard, Artesia, CA, 90701-4345",+1 562-402-2333,https://www.7-eleven.com/locations/ca/artesia/12200-artesia-blvd-24629,33.8726851,-118.07233,,,n_5439038469,"shop=convenience, brand=7-Eleven"
"Chino, CA",,retail,445210,Brees' Meats,"11877 Valley View Street, Garden Grove, CA, 92845",,http://www.breesmeats.com/,33.7899855,-118.0299832,,,n_5497633115,shop=butcher
"Chino, CA",,retail,445110,Baja Ranch Market,"425 South Citrus Avenue, Covina, CA, 91723",,,34.0820028,-117.8913755,,,n_5567758896,shop=supermarket
"Chino, CA",,retail,446120,,,,,33.9067795,-117.6057519,,,n_5574879121,shop=beauty
"Chino, CA",,retail,446120,Restore Hyper Wellness,"2885 El Camino Real, Tustin, 92782",,,33.7247421,-117.7939092,,,n_5589171645,"shop=beauty, amenity=healthcare, brand=Restore Hyper Wellness"
"Chino, CA",,retail,453991,Vintage Cigars,,,,33.6972459,-117.8875268,,,n_5623311690,shop=tobacco
"Chino, CA",,retail,446120,Top 3D Nails,,,,33.6975931,-117.8875315,,,n_5623311693,shop=beauty
"Chino, CA",,retail,446120,Bonjour Spa Nails,,,,33.6988171,-117.886982,,,n_5623311694,shop=beauty
"Chino, CA",,retail,446120,Sheer Beauty Supply,,,,33.6988137,-117.8868101,,,n_5623311700,shop=beauty
"Chino, CA",,retail,452210,TJ Maxx,,,,33.6962521,-117.887513,,,n_5623311701,"shop=department_store, brand=TJ Maxx"
"Chino, CA",,retail,446120,Modern,,,,33.69673,-117.8867816,,,n_5623311705,shop=beauty
"Chino, CA",,retail,446120,SalonCentric,,,,33.6974454,-117.8878812,,,n_5625625830,shop=beauty
"Chino, CA",,retail,446120,Fresh,,,,33.6907904,-117.8879348,,,n_5631407036,shop=cosmetics
"Chino, CA",,retail,446120,Bath & Body Works,,,,33.6914886,-117.8876065,,,n_5631434712,"shop=cosmetics, brand=Bath & Body Works"
"Chino, CA",,retail,445292,See's Candies,"3333 Bristol Street, Costa Mesa, CA, 92626",+1 (714) 850-1529,https://chocolateshops.sees.com/ca/costamesa/chocolate_shops_costa-mesa_ca_1ca091.html,33.6907906,-117.8875606,,,n_5631434715,"shop=confectionery, brand=See's Candies"
"Chino, CA",,retail,446120,The Hair Shop,,,,33.6979856,-117.884989,,,n_5631445448,shop=beauty
"Chino, CA",,retail,446120,Removery,,,,33.6991926,-117.88501,,,n_5631486938,"shop=beauty, brand=Removery"
"Chino, CA",,retail,445110,,,,,33.9176645,-117.9666117,,,n_5632829928,shop=supermarket
"Chino, CA",,retail,446120,Hi-Fashion Nails,,,,33.8029202,-117.9391094,,,n_5665024736,shop=beauty
"Chino, CA",,retail,445120,3 Reyes,,,,33.80354,-117.9341303,,,n_5665025622,shop=convenience
"Chino, CA",,retail,452319,Dollar Tree,,,https://www.dollartree.com/locations/ca/garden-grove/4725/,33.8026121,-117.9435606,,,n_5665025628,"shop=variety_store, brand=Dollar Tree"
"Chino, CA",,retail,452210,dd's Discounts,,,,33.8020451,-117.939734,,,n_5665061122,"shop=department_store, brand=dd's Discounts"
"Chino, CA",,retail,445120,ExtraMile,,,,33.8026598,-117.9419283,,,n_5665061124,"shop=convenience, brand=ExtraMile"
"Chino, CA",,retail,445110,Smart & Final,,,,33.8018525,-117.943391,,,n_5666998927,"shop=supermarket, brand=Smart & Final"
"Chino, CA",,retail,445120,Las Brisas Mexican Food,,,,33.8040246,-117.9405995,,,n_5666998933,shop=convenience
"Chino, CA",,retail,446120,Girasol Beauty Salon,,,,33.8040358,-117.9419907,,,n_5666998934,shop=beauty
"Chino, CA",,retail,445120,Discount Tobacco,,,,33.8040211,-117.9421933,,,n_5666998937,shop=convenience
"Chino, CA",,retail,445120,Masala Indian Groceries,,,,33.8035944,-117.9425324,,,n_5666998939,shop=convenience
"Chino, CA",,retail,446120,3D Eyebrow Microblading,,,,33.8037571,-117.9401821,,,n_5666998942,shop=beauty
"Chino, CA",,retail,446120,Blue Skye Nails & Spa,,,,33.8012024,-117.9433741,,,n_5667003624,shop=beauty
"Chino, CA",,retail,445120,Misha's Nutrition,,,,33.8040294,-117.9421514,,,n_5667003629,shop=convenience
"Chino, CA",,retail,446120,Sona Treading,,,,33.8037663,-117.9425189,,,n_5667003634,shop=beauty
"Chino, CA",,retail,445310,P&J Liquor,,,,33.8034491,-117.9408178,,,n_5667003636,shop=alcohol
"Chino, CA",,retail,445120,7-Eleven,"1685 West Katella Avenue, Anaheim, CA, 92802-3021",+1 714-517-0963,https://www.7-eleven.com/locations/ca/anaheim/1685-w-katella-ave-34221,33.8035256,-117.9409133,,,n_5667005121,"shop=convenience, brand=7-Eleven"
"Chino, CA",,retail,446120,Rio Nails,,,,33.8040383,-117.9418676,,,n_5667005221,shop=beauty
"Chino, CA",,retail,445120,Alpha Mart,,,,33.807724,-117.9150021,,,n_5673600624,shop=convenience
"Chino, CA",,retail,445310,Liquor Market,,,,33.8039607,-117.9146421,,,n_5673603426,shop=alcohol
"Chino, CA",,retail,445120,Hookah's Tobacco,,,,33.8040138,-117.9403464,,,n_5674058622,shop=convenience
"Chino, CA",,retail,445120,Galaxy,,,,33.769548,-117.9209642,,,n_5674114328,shop=convenience
"Chino, CA",,retail,453110,Florreria Torres,,,,33.7595245,-117.9198962,,,n_5674114331,shop=florist
"Chino, CA",,retail,445120,ampm,,,,33.7689852,-117.9208547,,,n_5674123627,"shop=convenience, brand=ampm"
"Chino, CA",,retail,452319,Dollar Tree,,,https://www.dollartree.com/locations/ca/garden-grove/4678/,33.7718099,-117.9208189,,,n_5674123722,"shop=variety_store, brand=Dollar Tree"
"Chino, CA",,retail,446120,Natural Nails,,,,33.7702189,-117.9208221,,,n_5674123723,shop=beauty
"Chino, CA",,retail,445120,Harbor West Market,,,,33.7592149,-117.9199736,,,n_5674123725,shop=convenience
"Chino, CA",,retail,446120,Bella #1 Nails & Spa,"16475 Harbor Boulevard, Fountain Valley, CA, 92708",,,33.7241132,-117.9204246,,,n_5674136922,shop=beauty
"Chino, CA",,retail,445120,7-Eleven,"950 South Harbor, Santa Ana, CA, 92704",+1 714-531-1889,https://www.7-eleven.com/locations/ca/santa-ana/950-s-harbor-39725,33.7347524,-117.9203883,,,n_5674137021,"shop=convenience, brand=7-Eleven"
"Chino, CA",,retail,445120,7-Eleven,"16475 Harbor Boulevard, Fountain Valley, CA, 92708-1308",+1 714-839-4110,https://www.7-eleven.com/locations/ca/fountain-valley/16475-harbor-blvd-20607,33.7239892,-117.9204399,,,n_5674137122,"shop=convenience, brand=7-Eleven"
"Chino, CA",,retail,445120,7-Eleven,"10950 Warner Avenue, Fountain Valley, CA, 92708-3853",+1 714-968-4332,https://www.7-eleven.com/locations/ca/fountain-valley/10950-warner-ave-16927,33.7160161,-117.937834,,,n_5674137126,"shop=convenience, brand=7-Eleven"
"Chino, CA",,retail,445310,PM Beer & Wine,,,,33.7308125,-117.9191436,,,n_5674137221,shop=alcohol
"Chino, CA",,retail,445110,Stater Bros.,"11085 Warner Avenue, Fountain Valley, CA, 92708",+1 714-775-6343,https://www.staterbros.com/stores/77,33.7170308,-117.9353115,,,n_5674142522,"shop=supermarket, brand=Stater Bros."
"Chino, CA",,retail,445310,BevMo!,,,,33.8018933,-118.0138727,,,n_5687986509,"shop=alcohol, brand=BevMo!"
"Chino, CA",,retail,446120,Upscale Beauty,,,,33.8019545,-118.0134049,,,n_5687986512,shop=beauty
"Chino, CA",,retail,452210,Ross,"6900 Katella Avenue, Cypress, CA, 90630",+1 714-894-9876,,33.8018873,-118.0120436,,,n_5687987122,"shop=department_store, brand=Ross"
"Chino, CA",,retail,446120,Nail Art,,,,33.8019443,-118.0114936,,,n_5687987124,shop=beauty
"Chino, CA",,retail,445310,SGM Liquor,,,,33.8015885,-118.0114689,,,n_5687987128,shop=alcohol
"Chino, CA",,retail,446120,Sun Tanning,,,,33.8023737,-118.0114354,,,n_5687987131,shop=beauty
"Chino, CA",,retail,452319,Dollar Tree,,,https://www.dollartree.com/locations/ca/cypress/1823/,33.8040867,-118.0122156,,,n_5687987150,"shop=variety_store, brand=Dollar Tree"
"Chino, CA",,retail,446120,Relax Nails Spa,,,,33.8039373,-118.0114841,,,n_5687987157,shop=beauty
"Chino, CA",,retail,446120,Ulta Beauty,"3393 East Foothill Boulevard, Pasadena, CA, 91107",+1 626-351-3297,https://www.ulta.com/stores/pasadena-ca-143,34.1526005,-118.0801749,,,n_5695185840,"shop=beauty, brand=Ulta Beauty"
"Chino, CA",,retail,445120,,,,,33.8879279,-117.8412504,,,n_5701794869,shop=convenience
"Chino, CA",,retail,445299,Cheese Cave,,,,34.0970839,-117.7180842,,,n_5703393544,shop=cheese
"Chino, CA",,retail,446120,,,,,34.1500527,-118.0012369,,,n_5735305936,shop=beauty
"Chino, CA",,retail,446120,5 Star Massage Therapy and Spa,,,,34.1505017,-118.0029061,,,n_5735305945,shop=beauty
"Chino, CA",,retail,446120,Euphoria Nails,,,,34.1503823,-118.0028894,,,n_5735305947,shop=beauty
"Chino, CA",,retail,445120,Food Mart,"12161 Garden Grove Boulevard, Garden Grove, CA, 92843",,,33.7747169,-117.9206415,,,n_5775616209,shop=convenience
"Chino, CA",,retail,452210,Ross,"251 South Diamond Bar Boulevard, Diamond Bar, CA, 91765-1606",+1 909-396-0003,,34.0199467,-117.8113533,,,n_5786087875,"shop=department_store, brand=Ross"
"Chino, CA",,retail,445110,Sprouts Farmers Market,"239 Diamond Bar Boulevard, Diamond Bar, CA, 91765",+1 909-378-4980,https://www.sprouts.com/store/ca/diamond-bar/diamond-bar/,34.0201735,-117.811487,,,n_5786089197,"shop=supermarket, brand=Sprouts Farmers Market"
"Chino, CA",,retail,446120,Total Nails & Spa,"707 W 2nd Street, San Bernardino, CA, 92401",(909) 888-0348,,34.1024488,-117.299217,,,n_5835005198,shop=beauty
"Chino, CA",,retail,445292,See's Candies,"3333 Bear Street, Costa Mesa, CA, 92626",+1 (714) 557-5948,https://chocolateshops.sees.com/ca/costamesa/chocolate_shops_costa-mesa_ca_1ca047.html,33.6928494,-117.8928163,,,n_5850036963,"shop=confectionery, brand=See's Candies"
"Chino, CA",,retail,452210,TJ Maxx,,,,34.0787653,-117.5507536,,,n_5854939297,"shop=department_store, brand=TJ Maxx"
"Chino, CA",,retail,445120,Chevron ExtraMile,"3160 Baldwin Park Boulevard, Baldwin Park, CA, 91706",,,34.0699059,-117.9789297,,,n_5869572136,shop=convenience
"Chino, CA",,retail,445310,Mike's Liquor,"2003 Rosemead Boulevard, South El Monte, CA, 91733",,,34.0519807,-118.0646192,,,n_5875244155,shop=alcohol
"Chino, CA",,retail,445310,Ramos Market,"4122 Philadelphia Street, Chino, CA, 91710",,,34.0338981,-117.715045,,,n_5909332236,shop=alcohol
"Chino, CA",,retail,445310,Royal Liquor,"4086 Philadelphia Street, Chino, CA, 91710",,,34.0336613,-117.71599,,,n_5909332237,shop=alcohol
"Chino, CA",,retail,453110,Eveyln's Flower Shop,"4122 Philadelphia Street, Chino, CA, 91710",,,34.0338981,-117.714901,,,n_5909332238,shop=florist
"Chino, CA",,retail,445110,Northgate Market,,,,33.8377529,-117.8885064,,,n_5923169144,shop=supermarket
"Chino, CA",,retail,452319,99 Cents Only Stores,,,https://locations.99only.com/ca/anaheim/discount-store-100.html,33.8379378,-117.884779,,,n_5923169148,"shop=variety_store, brand=99 Cents Only Stores"
"Chino, CA",,retail,452210,Target,"2222 E Lincoln Ave, Anaheim, CA, 92806",+1-657-276-3773,https://www.target.com/sl/anaheim-east/3274,33.8379349,-117.886215,,,n_5923169149,"shop=department_store, brand=Target"
"Chino, CA",,retail,446120,BB Nails & Spa,"3133 Yorba Linda Boulevard, Fullerton, CA, 92831",,,33.8896593,-117.8704814,,,n_5949820082,shop=beauty
"Chino, CA",,retail,445210,Gem Meats & Produce,"3125 Yorba Linda Boulevard, Fullerton, CA, 92831",,,33.8897011,-117.8706894,,,n_5949820084,shop=butcher
"Chino, CA",,retail,445110,Big Saver Foods,"420 West 17th Street, Santa Ana, CA, 82706",,,33.7594138,-117.8717902,,,n_5970052162,shop=supermarket
"Chino, CA",,retail,445310,Granada Liquor,"5501 Orangethorpe Avenue, 90623",(714) 690-1294,https://www.facebook.com/Granada-Liquor-beer-wine-spirits-1554327081494763/timeline/,33.8591249,-118.0373335,,,n_5982049391,shop=alcohol
"Chino, CA",,retail,445310,First Stop Liquor,"6090 Orangethorpe Avenue, 90620",(714) 226-0279,,33.8580952,-118.0272562,,,n_5982049392,shop=alcohol
"Chino, CA",,retail,445310,The Marketplace,"10 Centerpointe Drive, 90623",,,33.8609947,-118.0295365,,,n_5982049585,shop=alcohol
"Chino, CA",,retail,445310,Liquor Mart,"4991 Orange Avenue, 90630",(714) 226-9878,,33.8127268,-118.0459969,,,n_5982049586,shop=alcohol
"Chino, CA",,retail,445310,Li,"4991 Orange Avenue, 90630",(949) 732-8263,,33.8246367,-118.0460448,,,n_5982183115,shop=alcohol
"Chino, CA",,retail,445310,Rome-In Li,"6265 Auto Center Drive, 90621",(714) 523-0323,,33.86901,-118.00155,,,n_6012129089,shop=alcohol
"Chino, CA",,retail,446120,SalonCentric,,,,33.9445898,-117.4165984,,,n_6057611684,shop=cosmetics
"Chino, CA",,retail,445110,Food 4 Less,"2140 Bristol Street, Santa Ana, CA, 92704",,,33.7178156,-117.8866518,,,n_6060122092,"shop=supermarket, brand=Food 4 Less"
"Chino, CA",,retail,445110,Northgate Market,"9101 Telegraph Road, 90660",,http://northgatemarkets.com,33.9601634,-118.1075823,,,n_6064356686,shop=supermarket
"Chino, CA",,retail,445110,99 Ranch Market,"1625 Azusa Avenue, Hacienda Heights, 91745",,https://99ranch.com/,33.993028,-117.933529,,,n_6065452887,"shop=supermarket, brand=99 Ranch Market"
"Chino, CA",,retail,445310,Ghost Rider Refesh Station,,,,33.8428832,-117.999251,,,n_6171974488,shop=beverages
"Chino, CA",,retail,445120,Circle S Food Store,"2310 West Chapman Avenue, Orange, CA, 92868",,,33.7874504,-117.8774064,,,n_6175769869,shop=convenience
"Chino, CA",,retail,445110,ALDI,"2268 Foothill Boulevard, La Verne, CA, 91750-2944",+1 909-447-9986,https://stores.aldi.us/ca/la-verne/2268-foothill-blvd,34.1112641,-117.7628001,,,n_6193416147,"shop=supermarket, brand=ALDI"
"Chino, CA",,retail,452319,Dollar Tree,"1475 Foothill Boulevard, La Verne, CA, 91750",,https://www.dollartree.com/locations/ca/la-verne/5257/,34.1180069,-117.7753418,,,n_6193759371,"shop=variety_store, brand=Dollar Tree"
"Chino, CA",,retail,453991,Samer Smoke Shop,"1463 Foothill Boulevard, La Verne, CA, 91750",,,34.1184249,-117.7753674,,,n_6193759374,shop=tobacco
"Chino, CA",,retail,445110,Sprouts Farmers Market,"1375 Foothill Boulevard, La Verne, CA, 91750",+1 909-582-2836,https://www.sprouts.com/store/ca/la-verne/la-verne/,34.1187895,-117.7775267,,,n_6195711532,"shop=supermarket, brand=Sprouts Farmers Market"
"Chino, CA",,retail,445120,Villa's Market,"1912 East Arrow Highway, La Verne, CA, 91750",,,34.0984735,-117.7748497,,,n_6196309907,shop=convenience
"Chino, CA",,retail,445310,A & C Liquor Store,"3836 Emerald Avenue, La Verne, CA, 91750",,,34.1151368,-117.7677149,,,n_6198775197,shop=alcohol
"Chino, CA",,retail,452210,Big Lots,"1955 Foothill Boulevard, La Verne, CA, 91750",+1 909-596-5765,https://local.biglots.com/ca/la-verne/1955-foothill-blvd,34.11515,-117.766717,,,n_6198775202,"shop=department_store, brand=Big Lots"
"Chino, CA",,retail,446120,Red Persimmon Spa & Nail,"1570 Foothill Boulevard, La Verne, CA, 91750",,,34.1150138,-117.7741981,,,n_6199322620,shop=beauty
"Chino, CA",,retail,446191,Nature's Way Health Foods Center,"1512 Foothill Boulevard, La Verne, CA, 91750",,,34.1150399,-117.7752578,,,n_6199329084,shop=health_food
"Chino, CA",,retail,446120,West Covina Massage Spa,"6670 South Sunset Avenue, West Covina, 91790",,,34.0691444,-117.9372225,,,n_6202205991,shop=beauty
"Chino, CA",,retail,446120,Century Nails,,,,34.0904078,-117.8818378,,,n_6214470471,shop=beauty
"Chino, CA",,retail,445310,Quick stop liquor & market,"430 North Azusa Avenue, Covina, 91791",,,34.0785061,-117.9069851,,,n_6306749015,shop=alcohol
"Chino, CA",,retail,446120,Cellinies Nail & SPA,,,,33.9165323,-117.2712709,,,n_6311987057,shop=beauty
"Chino, CA",,retail,446120,Jay Michaels,"4140 Lincoln Avenue, Cypress, CA, 90630",,,33.8313531,-118.0618222,,,n_6328616970,shop=beauty
"Chino, CA",,retail,453110,Cypress Florist,"4136 Lincoln Avenue, Cypress, CA, 90630",,,33.8313742,-118.0615553,,,n_6328616972,shop=florist
"Chino, CA",,retail,452210,Ross,"5895 Lincoln Avenue, Buena Park, CA, 90620",+1 714-484-1134,,33.8328059,-118.0296101,,,n_6328726800,"shop=department_store, brand=Ross"
"Chino, CA",,retail,445120,,,,,34.0808631,-118.0574658,,,n_6330045266,shop=convenience
"Chino, CA",,retail,452319,Daiso Japan,"5797 Rosemead Boulevard, 91780",(626) 382-2700,https://daisous.com/,34.1051107,-118.0745142,,,n_6335807985,"shop=variety_store, brand=Daiso"
"Chino, CA",,retail,446120,Amy Hair Nails Wigs,"5138 Bristol Street, Santa Ana, CA, 92704",+1 714-957-1671,,33.7191652,-117.8859977,,,n_6343802389,shop=beauty
"Chino, CA",,retail,446120,Cecy's Beauty Shop,"2100 Bristol Street, Santa Ana, CA, 92704",,,33.7192503,-117.8858286,,,n_6343802390,shop=beauty
"Chino, CA",,retail,445110,Jugos Mazatlan Produce Market,"1419 Warner Avenue, Santa Ana, CA, 92704",+1 714-751-4808,,33.7165103,-117.8869661,,,n_6343802394,shop=supermarket
"Chino, CA",,retail,445110,El Super,"2445 Bristol Street, Santa Ana, CA, 92704",+1 714-338-5023,,33.7141422,-117.8844119,,,n_6345634085,shop=supermarket
"Chino, CA",,retail,453110,,,,,34.0847728,-117.968363,,,n_6351483958,shop=florist
"Chino, CA",,retail,445110,Smart & Final Extra!,,,,33.9444788,-117.415976,,,n_6351752234,"shop=supermarket, brand=Smart & Final"
"Chino, CA",,retail,446120,L V Nails,,,,33.9450491,-117.4151941,,,n_6351890973,shop=beauty
"Chino, CA",,retail,445110,H Mart,Beach Boulevard,,,33.8865234,-117.995151,,,n_6359773285,"shop=supermarket, brand=H Mart"
"Chino, CA",,retail,446120,Mini Beauty Eyelash,"956 N Citrus Ave, Covina, CA, 91722",+1-626-888-1599,https://www.minibeauty.net/,34.0973509,-117.889742,,,n_6369024092,"shop=beauty, brand=Mini Beauty Eyelash, operator=Mini Beauty Eyelash"
"Chino, CA",,retail,446120,Fancy Nails,"944 N Citrus Ave, Covina, CA, 91722",(626) 339-6236,,34.0971978,-117.8895505,,,n_6369052614,"shop=beauty, operator=Fancy Nails"
"Chino, CA",,retail,446120,Siddhi Eyebrow Threading,"946 N Citrus Ave, Covina, CA, 91722",(626) 332-0377,,34.0972461,-117.8895236,,,n_6369059762,"shop=beauty, operator=Siddhi Eyebrow Threading"
"Chino, CA",,retail,445110,Alta Vista,,,,33.9445874,-117.4150902,,,n_6381060424,shop=supermarket
"Chino, CA",,retail,445310,Madison Market Liquor,,,,33.9453835,-117.414389,,,n_6383242926,shop=alcohol
"Chino, CA",,retail,446120,Dhaga threading,,,,33.7172632,-117.886604,,,n_6423021884,shop=beauty
"Chino, CA",,retail,446120,Kethy's Nails,,,,33.7168896,-117.8860383,,,n_6423023789,shop=beauty
"Chino, CA",,retail,452319,99 Cents Only Stores,,,https://locations.99only.com/ca/santaana/discount-store-77.html,33.7154894,-117.8843813,,,n_6505842096,"shop=variety_store, brand=99 Cents Only Stores"
"Chino, CA",,retail,445120,7-Eleven,"10500 Knott Avenue, Stanton, CA, 90680-1915",+1 714-761-0492,https://www.7-eleven.com/locations/ca/stanton/10500-knott-avenue-18771,33.8097749,-118.0102171,,,n_6512381745,"shop=convenience, brand=7-Eleven"
"Chino, CA",,retail,445292,See's Candies,,,,34.1334563,-117.3945428,,,n_6520281463,"shop=confectionery, brand=See's Candies"
"Chino, CA",,retail,445310,,,,,34.0718134,-117.5930298,,,n_6522079700,shop=alcohol
"Chino, CA",,retail,445110,Trader Joe's,"6225 Riverside Avenue, Riverside, CA, 92506",+1 951-781-2378,https://locations.traderjoes.com/ca/riverside/15/,33.9559471,-117.388437,,,n_6527437345,"shop=supermarket, brand=Trader Joe's"
"Chino, CA",,retail,445120,ampm,,,,33.8981702,-117.471167,,,n_6527644984,"shop=convenience, brand=ampm"
"Chino, CA",,retail,445120,ampm,,,,33.9259403,-117.451731,,,n_6527673995,"shop=convenience, brand=ampm"
"Chino, CA",,retail,452210,Ross,"820 East Alosta Avenue, Azusa, CA, 91702",+1 626-969-2557,,34.1285527,-117.8925517,,,n_6533174444,"shop=department_store, brand=Ross"
"Chino, CA",,retail,446120,Top Nails and Spa,,,,34.1267098,-117.8912388,,,n_6533174456,shop=beauty
"Chino, CA",,retail,452319,99 Cents Only Stores,,,https://locations.99only.com/ca/azusa/discount-store-90.html,34.1269385,-117.891242,,,n_6533174457,"shop=variety_store, brand=99 Cents Only Stores"
"Chino, CA",,retail,445110,Grocery Outlet,,,,34.1274847,-117.8911878,,,n_6533174459,"shop=supermarket, brand=Grocery Outlet"
"Chino, CA",,retail,453991,,,,,34.1079474,-117.5349945,,,n_6533290741,shop=tobacco
"Chino, CA",,retail,446120,,,,,34.1079556,-117.5349013,,,n_6533290742,shop=beauty
"Chino, CA",,retail,445292,See's Candies,,,,34.1114826,-117.5355257,,,n_6533290752,"shop=confectionery, brand=See's Candies"
"Chino, CA",,retail,445120,ampm,,,,34.0780377,-117.6202617,,,n_6533312289,"shop=convenience, brand=ampm"
"Chino, CA",,retail,446120,,,,,33.8347854,-117.9159907,,,n_6536740551,shop=beauty
"Chino, CA",,retail,453991,Cigar House,,,,33.8348917,-117.9155078,,,n_6536740554,shop=tobacco
"Chino, CA",,retail,446120,Queen Nails,,,,33.8350106,-117.9152471,,,n_6536740557,shop=beauty
"Chino, CA",,retail,445120,Los Barrios Market,,,,33.8414306,-117.9156121,,,n_6536748586,shop=convenience
"Chino, CA",,retail,446120,Lucky Nails,,,,34.1281414,-117.8886159,,,n_6538734220,shop=beauty
"Chino, CA",,retail,446120,Ulta Beauty,"1229 South Lone Hill Avenue, Glendora, CA, 91740",+1 909-592-5393,https://www.ulta.com/stores/glendora-ca-452,34.1164835,-117.833283,,,n_6562143455,"shop=beauty, brand=Ulta Beauty"
"Chino, CA",,retail,452210,Kohl's,"1225 South Lone Hill Avenue, Glendora, CA, 91740",+1 909-592-6960,https://www.kohls.com/stores/ca/glendora-595.shtml,34.1171053,-117.8333285,,,n_6562143456,"shop=department_store, brand=Kohl's"
"Chino, CA",,retail,445110,ALDI,"1251 South Lone Hill Avenue, Glendora, CA, 91740-4507",+1 909-294-3915,https://stores.aldi.us/ca/glendora/1251-s-lone-hill-ave,34.1172285,-117.8305927,,,n_6562143458,"shop=supermarket, brand=ALDI"
"Chino, CA",,retail,452210,Bloomingdale's,,,,33.7831848,-117.8915794,,,n_6565440216,"shop=department_store, brand=Bloomingdale's"
"Chino, CA",,retail,453991,Smoke shop,,,,33.9445914,-117.416541,,,n_6572004413,shop=tobacco
"Chino, CA",,retail,445120,Allsup's,,,,34.0007394,-117.364674,,,n_6632754635,"shop=convenience, brand=Allsup's"
"Chino, CA",,retail,445110,Ralphs,"7369 Milliken Avenue, Rancho Cucamonga, CA, 91730",+1 909-944-4827,https://www.ralphs.com/stores/details/703/00013,34.1199104,-117.5570447,,,n_6641488598,"shop=supermarket, brand=Ralphs"
"Chino, CA",,retail,445120,Campbell's Market,,,,33.9355089,-117.4866723,,,n_6642367383,shop=convenience
"Chino, CA",,retail,452319,Dollar Tree,,,https://www.dollartree.com/locations/ca/riverside/6583/,33.939538,-117.4551268,,,n_6642384729,"shop=variety_store, brand=Dollar Tree"
"Chino, CA",,retail,445120,Lucky 1,,,,33.9365292,-117.4795617,,,n_6642391291,shop=convenience
"Chino, CA",,retail,445310,La Sierra Liquor,,,,33.9190648,-117.486495,,,n_6642394394,shop=alcohol
"Chino, CA",,retail,445120,ampm,,,,33.9196677,-117.488524,,,n_6642395398,"shop=convenience, brand=ampm"
"Chino, CA",,retail,445310,Village Liquor,,,,33.9464692,-117.4811924,,,n_6642403304,shop=alcohol
"Chino, CA",,retail,445120,,,,,33.7512561,-117.8563271,,,n_6682103388,shop=convenience
"Chino, CA",,retail,445110,Grocery Outlet,,,,34.1390583,-117.9764732,,,n_6743320418,"shop=supermarket, brand=Grocery Outlet"
"Chino, CA",,retail,452319,99 Cents Only Stores,,,https://locations.99only.com/ca/duarte/discount-store-336.html,34.1404924,-117.9760941,,,n_6743320420,"shop=variety_store, brand=99 Cents Only Stores"
"Chino, CA",,retail,446110,Rite Aid,,,,34.1401913,-117.9757722,,,n_6743320422,"shop=chemist, brand=Rite Aid"
"Chino, CA",,retail,446191,One Veg World Duarte,,,,34.1397644,-117.9758824,,,n_6743320423,shop=health_food
"Chino, CA",,retail,452319,Dollar Tree,,,https://www.dollartree.com/locations/ca/duarte/1747/,34.1405398,-117.9785872,,,n_6743320425,"shop=variety_store, brand=Dollar Tree"
"Chino, CA",,retail,446120,Venus Threading,,,,34.1405813,-117.9783862,,,n_6743320426,shop=beauty
"Chino, CA",,retail,452210,TJ Maxx,,,,34.1413061,-117.9885093,,,n_6743320429,"shop=department_store, brand=TJ Maxx"
"Chino, CA",,retail,445110,ALDI,"731 Huntington Drive, Monrovia, CA, 91016-3613",+1 619-796-4973,https://stores.aldi.us/ca/monrovia/731-e-huntington-dr,34.1413663,-117.989089,,,n_6743320431,"shop=supermarket, brand=ALDI"
"Chino, CA",,retail,445120,ampm,,,,34.1401493,-117.9900369,,,n_6743320433,"shop=convenience, brand=ampm"
"Chino, CA",,retail,445120,7-Eleven,"1802 HUNTINGTON, Duarte, CA, 91010-2634",+1 626-357-9460,https://www.7-eleven.com/locations/ca/duarte/1802-huntington-27055,34.1394188,-117.9661864,,,n_6768356327,"shop=convenience, brand=7-Eleven"
"Chino, CA",,retail,445120,Louie's Liquor,,,,34.1330791,-117.9003543,,,n_6768385954,shop=convenience
"Chino, CA",,retail,452210,Target,"1050 Huntington Drive, Duarte, CA, 91010-2475",+1 626-303-8858,https://www.target.com/sl/duarte/302,34.1379446,-117.9831429,,,n_6768395462,"shop=department_store, brand=Target"
"Chino, CA",,retail,445120,7-Eleven,"1430 Mountain Avenue, Duarte, CA, 91010",+1 626-256-4219,https://www.7-eleven.com/locations/ca/duarte/1430-mountain-ave-35014,34.1371849,-117.9857172,,,n_6768413029,"shop=convenience, brand=7-Eleven"
"Chino, CA",,retail,446120,Bath & Body Works,,,,34.0006684,-117.729736,,,n_6852940903,"shop=cosmetics, brand=Bath & Body Works"
"Chino, CA",,retail,445120,Shell,,,,33.9157116,-117.323977,,,n_6894591824,"shop=convenience, brand=Shell"
"Chino, CA",,retail,446120,Mes Amies Nail & Spa,,,,34.0034769,-117.6532338,,,n_6901027321,shop=beauty
"Chino, CA",,retail,445120,Mobil Mart,,,,34.0315401,-117.6502532,,,n_6901149905,"shop=convenience, brand=Mobil Mart"
"Chino, CA",,retail,445310,Wine Barrel Liquor Store,,,,34.0335826,-117.6502783,,,n_6901149945,shop=alcohol
"Chino, CA",,retail,446120,Fun Nails,,,,34.0335305,-117.6520109,,,n_6901149949,shop=beauty
"Chino, CA",,retail,446120,Soft Touch Beauty Salon,,,,34.0335305,-117.6518845,,,n_6901149951,shop=beauty
"Chino, CA",,retail,446120,Patty's Beauty Salon,,,,34.0334544,-117.6525468,,,n_6901149955,shop=beauty
"Chino, CA",,retail,446110,CVS Pharmacy,,,,34.0331912,-117.6524279,,,n_6901149959,"shop=chemist, brand=CVS Pharmacy"
"Chino, CA",,retail,445120,7-Eleven,"2443 South Grove Avenue, Ontario, CA, 91761-6225",+1 909-947-6040,https://www.7-eleven.com/locations/ca/ontario/2443-s-grove-ave-22225,34.0287287,-117.6279782,,,n_6901252477,"shop=convenience, brand=7-Eleven"
"Chino, CA",,retail,446120,Barbie Beauty LA,"5401 Baldwin Avenue, Temple City, CA, 91780",,,34.0992256,-118.0508021,,,n_6919388145,shop=beauty
"Chino, CA",,retail,446120,Ulta Beauty,"3502 Tyler Street, Riverside, CA, 92503",+1 951-689-0235,https://www.ulta.com/stores/riverside-ca-1153,33.9067466,-117.4576881,,,n_6920795979,"shop=beauty, brand=Ulta Beauty"
"Chino, CA",,retail,452210,Ross,"5501 Philadelphia Street, Chino, CA, 91710",+1 909-364-1722,,34.0329405,-117.6841225,,,n_6940047937,"shop=department_store, brand=Ross"
"Chino, CA",,retail,445120,Chevron,,,,34.0332216,-117.6899295,,,n_6940297079,"shop=convenience, brand=Chevron"
"Chino, CA",,retail,445110,Smart & Final,,,,34.0324801,-117.6908832,,,n_6940301252,"shop=supermarket, brand=Smart & Final"
"Chino, CA",,retail,453991,,,,,34.0320052,-117.6906778,,,n_6940301256,shop=tobacco
"Chino, CA",,retail,445120,,,,,34.0288913,-117.6890056,,,n_6940301387,"shop=convenience, operator=Arco"
"Chino, CA",,retail,445110,Superior Groceries,,,,34.028292,-117.6878864,,,n_6940301404,shop=supermarket
"Chino, CA",,retail,445120,Shell,,,,34.0259869,-117.68982,,,n_6940301732,"shop=convenience, brand=Shell"
"Chino, CA",,retail,445110,H Mart,"2825 Diamond Bar Boulevard, Diamond Bar, CA, 91765",,,33.9744166,-117.8395121,,,n_6943886257,"shop=supermarket, brand=H Mart"
"Chino, CA",,retail,445110,168 Market,"19725 Colima Road, Rowland Heights, CA, 91748",,,33.9876631,-117.8720266,,,n_6944153653,shop=supermarket
"Chino, CA",,retail,445120,7-Eleven,"1345 Diamond Bar Boulevard, Diamond Bar, CA, 91765",+1 909-861-2863,https://www.7-eleven.com/locations/ca/diamond-bar/1345-s-diamond-bar-25609,33.9979511,-117.8134605,,,n_6946755921,"shop=convenience, brand=7-Eleven"
"Chino, CA",,retail,445110,Sprouts Farmers Market,"11900 South Street, Cerritos, CA, 90703",+1 562-274-0602,https://www.sprouts.com/store/ca/cerritos/cerritos/,33.8574579,-118.0785393,,,n_6964691986,"shop=supermarket, brand=Sprouts Farmers Market"
"Chino, CA",,retail,445310,Pleasure Liquors,"8422 Telegraph Road, Downey, CA, 90240",,,33.962771,-118.112358,,,n_6966901222,shop=alcohol
"Chino, CA",,retail,445110,Vons,"130 West Foothill Boulevard, Monrovia, CA, 91016",+1 626-303-4547,https://local.vons.com/ca/monrovia/130-w-foothill-blvd.html,34.1499864,-118.00202,,,n_6985303726,"shop=supermarket, brand=Vons"
"Chino, CA",,retail,452210,Ross,"1609 South Mountain Avenue, Monrovia, CA, 91016",+1 626-305-1995,,34.1345385,-117.9876351,,,n_6985556903,"shop=department_store, brand=Ross"
"Chino, CA",,retail,446191,A2Z Health Food,,,,33.9996299,-117.8128001,,,n_6988820260,shop=health_food
"Chino, CA",,retail,452319,Diamond Mail and Shipping,,,,33.9997936,-117.8129246,,,n_6988820262,shop=general
"Chino, CA",,retail,445110,Smart & Final,,,,34.0784367,-117.7537305,,,n_6991343946,"shop=supermarket, brand=Smart & Final"
"Chino, CA",,retail,445110,Smart & Final,,,,34.0314305,-118.1260477,,,n_6993471103,"shop=supermarket, brand=Smart & Final"
"Chino, CA",,retail,452319,Five Below,,+1 323-728-2792,https://locations.fivebelow.com/ca/montebello/2401-via-campo,34.0322042,-118.1214432,,,n_6993471135,"shop=variety_store, brand=Five Below"
"Chino, CA",,retail,445110,Hannam Market World,"21080 Golden Springs Drive, Diamond Bar, CA, 91789",+1-909-839-1121,,33.9983724,-117.8442705,,,n_6993991020,"shop=supermarket, operator=DB Hannam Chain, Inc."
"Chino, CA",,retail,452319,99 Cents Only Stores,,,https://locations.99only.com/ca/templecity/discount-store-28.html,34.106823,-118.0616162,,,n_7007010597,"shop=variety_store, brand=99 Cents Only Stores"
"Chino, CA",,retail,445120,7-Eleven,"922 West Duarte Road, Monrovia, CA, 91016-4307",+1 626-447-0132,https://www.7-eleven.com/locations/ca/monrovia/922-west-duarte-rd-16678,34.1309246,-118.0185547,,,n_7007014993,"shop=convenience, brand=7-Eleven"
"Chino, CA",,retail,452319,99 Cents Only Stores,,,https://locations.99only.com/ca/arcadia/discount-store-69.html,34.1298621,-118.0264331,,,n_7007015005,"shop=variety_store, brand=99 Cents Only Stores"
"Chino, CA",,retail,446120,ilo Collective,,,,34.0943729,-117.7212389,,,n_7020769173,shop=beauty
"Chino, CA",,retail,452210,Marshalls,,,,34.1514445,-118.0685174,,,n_7021117456,"shop=department_store, brand=Marshalls"
"Chino, CA",,retail,445120,90 Store,,,,33.915379,-117.4574293,,,n_7021856792,shop=convenience
"Chino, CA",,retail,446120,DSC Laser and Skin Care Center,"889 S San Gabriel Blvd, San Gabriel, CA, 91776",+1-626-285-0800,https://www.dscbeauty.com/,34.091945,-118.0912376,,,n_7027765816,shop=beauty
"Chino, CA",,retail,452319,Dollar Tree,,,https://www.dollartree.com/locations/ca/montclair/5693/,34.0642411,-117.7075008,,,n_7064863021,"shop=variety_store, brand=Dollar Tree"
"Chino, CA",,retail,445110,Trader Joe's,"3035 East Huntington Drive, Pasadena, CA, 91107",+1 626-356-2963,https://locations.traderjoes.com/ca/pasadena/32/,34.1277897,-118.0897248,,,n_7073917461,"shop=supermarket, brand=Trader Joe's"
"Chino, CA",,retail,445120,7-Eleven,"15780 Tetley Street, Hacienda Heights, CA, 91745-4508",+1 626-333-5016,https://www.7-eleven.com/locations/ca/hacienda-heights/15780-tetley-street-14029,33.9929297,-117.9696115,,,n_7097424378,"shop=convenience, brand=7-Eleven"
"Chino, CA",,retail,445120,Shell Select,,,,33.9927658,-117.969197,,,n_7097424379,"shop=convenience, brand=Shell Select"
"Chino, CA",,retail,446110,CVS Pharmacy,,,https://www.cvs.com/store-locator/hacienda-heights-ca-pharmacies/2141-south-hacienda-boulevard-hacienda-heights-ca-91745/storeid=9730,33.9951167,-117.9690084,,,n_7097424383,"shop=chemist, brand=CVS Pharmacy"
