Location,Search Keyword,Segment,NAICS Code,Business Name,Address,Phone Number,Website,Latitude,Longitude,Rating,User Ratings,Place ID,Types
"Sequoia Crest, CA",,retail,445110,Ralphs,"8657 Villa La Jolla Drive, La Jolla, CA, 92037",+1 858-597-0108,https://www.ralphs.com/stores/grocery/ca/la-jolla/la-jolla-village-square/703/00108,32.8664098,-117.2320867,,,n_273593057,"shop=supermarket, brand=Ralphs"
"Sequoia Crest, CA",,retail,445110,Trader Joe's,"8657 Villa La Jolla Drive, La Jolla, CA, 92037",+1 858-546-8629,https://locations.traderjoes.com/ca/la-jolla/20/,32.865636,-117.232406,,,n_273593515,"shop=supermarket, brand=Trader Joe's"
"Sequoia Crest, CA",,retail,445110,Sprouts Farmers Market,"3358 Governor Drive, San Diego, CA, 92122",+1 858-457-5006,https://www.sprouts.com/store/ca/san-diego/university-city/,32.8516297,-117.2144772,,,n_274191517,"shop=supermarket, brand=Sprouts Farmers Market"
"Sequoia Crest, CA",,retail,445110,Sprouts Farmers Market,"4439 Genesee Avenue, San Diego, CA, 92117",+1 858-268-2400,https://www.sprouts.com/store/ca/san-diego/san-diego-genesee-ave/,32.8242878,-117.1837196,,,n_274193121,"shop=supermarket, brand=Sprouts Farmers Market"
"Sequoia Crest, CA",,retail,446120,Nails 2000+,,,,32.8625811,-117.2241141,,,n_276540617,shop=beauty
"Sequoia Crest, CA",,retail,446120,,,,,32.8624874,-117.223993,,,n_276540860,shop=beauty
"Sequoia Crest, CA",,retail,445110,Albertsons,,,https://local.albertsons.com/ca/escondido/1509-e-valley-pkwy.html,33.1318495,-117.05952,,,n_365319363,"shop=supermarket, brand=Albertsons"
"Sequoia Crest, CA",,retail,445110,Ralphs,"4315 Mission Boulevard, San Diego, CA, 92109",+1 858-273-2108,https://www.ralphs.com/stores/grocery/ca/san-diego/pb-marketplace/703/00207,32.7942263,-117.254304,,,n_365319366,"shop=supermarket, brand=Ralphs"
"Sequoia Crest, CA",,retail,445110,Seafood City,"8955 Mira Mesa Boulevard, San Diego, CA, 92126",,,32.9137858,-117.1315685,,,n_365319386,"shop=supermarket, brand=Seafood City"
"Sequoia Crest, CA",,retail,445110,Albertsons,"151 Woodland Parkway, San Marcos, CA, 92069",+1 760-736-8880,https://local.albertsons.com/ca/san-marcos/151-woodland-pkwy.html,33.1400088,-117.1384078,,,n_365319393,"shop=supermarket, brand=Albertsons"
"Sequoia Crest, CA",,retail,445110,Lucky Seafood,"9326 Mira Mesa Boulevard, 92126",1-(858)-586-7979,https://luckyseafoodmarket.com/,32.9189539,-117.12427,,,n_365319431,"shop=supermarket, brand=Lucky"
"Sequoia Crest, CA",,retail,445110,Carnival Supermarket,,,,32.808766,-117.160587,,,n_365319435,shop=supermarket
"Sequoia Crest, CA",,retail,445110,Gelson's,,,,32.9790506,-117.2491477,,,n_365319438,shop=supermarket
"Sequoia Crest, CA",,retail,445110,Sprouts Farmers Market,"471 College Boulevard, Oceanside, CA, 92057",+1 760-726-7274,https://www.sprouts.com/store/ca/oceanside/college-blvd/,33.244442,-117.291178,,,n_365319442,"shop=supermarket, brand=Sprouts Farmers Market"
"Sequoia Crest, CA",,retail,445110,Harvest International Market,"4220 Balboa Avenue, San Diego, CA",,http://harvestinternationalmarket.com/,32.812549,-117.2001002,,,n_365319538,shop=supermarket
"Sequoia Crest, CA",,retail,445110,Ralphs,"2417 East Valley Parkway, Escondido, CA, 92027",+1 760-740-0334,https://www.ralphs.com/stores/grocery/ca/escondido/ferrara-plaza/703/00090,33.1404803,-117.0428558,,,n_365319547,"shop=supermarket, brand=Ralphs"
"Sequoia Crest, CA",,retail,445110,Harvest Ranch Market #4,,,,32.959484,-117.264857,,,n_365319549,shop=supermarket
"Sequoia Crest, CA",,retail,445110,El Tigre Foods Warehouse,,,,33.368481,-117.249825,,,n_365319590,shop=supermarket
"Sequoia Crest, CA",,retail,445110,Vinh-Hung Supermarket,,,,32.909248,-117.145551,,,n_365319642,shop=supermarket
"Sequoia Crest, CA",,retail,445110,Albertsons,"1924 West 11th Avenue, Escondido, CA, 92029",+1 760-738-1669,https://local.albertsons.com/ca/escondido/1570-w-valley-pkwy.html,33.1087912,-117.105855,,,n_365319668,"shop=supermarket, brand=Albertsons"
"Sequoia Crest, CA",,retail,445110,Jonathans Of La Jolla,,,,32.842531,-117.274095,,,n_365319706,shop=supermarket
"Sequoia Crest, CA",,retail,445110,La Jolla Shores Market,,,,32.853574,-117.254215,,,n_365319764,shop=supermarket
"Sequoia Crest, CA",,retail,445110,Albertsons,"12475 Rancho Bernardo Road, San Diego, CA, 92128",+1 858-385-9223,https://local.albertsons.com/ca/san-diego/12475-rancho-bernardo-rd.html,33.0178029,-117.061518,,,n_365319785,"shop=supermarket, brand=Albertsons"
"Sequoia Crest, CA",,retail,445110,Albertsons,"3450 Marron Road, Oceanside, CA, 92056",+1 760-729-3468,https://local.albertsons.com/ca/oceanside/3450-marron-rd.html,33.1796149,-117.296568,,,n_365319802,"shop=supermarket, brand=Albertsons"
"Sequoia Crest, CA",,retail,445110,Gelson's,"7660 El Camino Real, Carlsbad, CA, 92009",,,33.0873168,-117.267067,,,n_365319914,shop=supermarket
"Sequoia Crest, CA",,retail,445110,Albertsons,"1601 South Melrose Drive, Vista, CA, 92081",+1-760-598-0142,https://local.albertsons.com/ca/vista/1601-s-melrose-dr.html,33.1668328,-117.248091,,,n_365319926,"shop=supermarket, brand=Albertsons"
"Sequoia Crest, CA",,retail,445110,Albertsons,"1459 Main Street, Ramona, CA, 92065",+1 760-789-0023,https://local.albertsons.com/ca/ramona/1459-main-st.html,33.0394304,-116.8771513,,,n_365319952,"shop=supermarket, brand=Albertsons"
"Sequoia Crest, CA",,retail,445110,Harvest Ranch Market #2,,,,33.0356349,-117.2381936,,,n_365319956,shop=supermarket
"Sequoia Crest, CA",,retail,445110,Food 4 Less,"500 Hacienda Drive, Vista, 92081",,,33.1929312,-117.2509145,,,n_365319984,"shop=supermarket, brand=Food 4 Less"
"Sequoia Crest, CA",,retail,445120,7-Eleven,"1334 West Valley Parkway, Escondido, CA, 92029",+1 760-746-1298,https://www.7-eleven.com/locations/ca/escondido/1334-w-valley-pkwy-27495,33.1135696,-117.1021033,,,n_365327854,"shop=convenience, brand=7-Eleven"
"Sequoia Crest, CA",,retail,445120,7-Eleven,,,https://www.7-eleven.com/locations/ca/encinitas/102-leucadia-blvd-13627,33.0649835,-117.3016427,,,n_365327872,"shop=convenience, brand=7-Eleven"
"Sequoia Crest, CA",,retail,445120,7-Eleven,,,,32.817122,-117.180297,,,n_365327902,"shop=convenience, brand=7-Eleven"
"Sequoia Crest, CA",,retail,445120,7-Eleven,"555 West Country Club Lane, Escondido, CA, 92026-1226",+1 760-743-5351,https://www.7-eleven.com/locations/ca/escondido/555-west-country-club-ln-21804,33.158349,-117.09992,,,n_365327920,"shop=convenience, brand=7-Eleven"
"Sequoia Crest, CA",,retail,445120,7-Eleven,"592 Santa Fe Drive, Encinitas, CA, 92024-4640",+1 760-753-4047,https://www.7-eleven.com/locations/ca/encinitas/592-santa-fe-dr-13620,33.0365202,-117.2796415,,,n_365327924,"shop=convenience, brand=7-Eleven"
"Sequoia Crest, CA",,retail,445120,7-Eleven,"1305 Garnet Avenue, San Diego, CA, 92109-3012",+1 858-272-2670,https://www.7-eleven.com/locations/ca/san-diego/1305-garnet-ave-13623,32.798286,-117.2460145,,,n_365327946,"shop=convenience, brand=7-Eleven"
"Sequoia Crest, CA",,retail,445120,7-Eleven,"1560 East Grand, Escondido, CA, 92027-3113",+1 760-743-4077,https://www.7-eleven.com/locations/ca/escondido/1560-east-grand-13629,33.130742,-117.058311,,,n_365327976,"shop=convenience, brand=7-Eleven"
"Sequoia Crest, CA",,retail,445120,7-Eleven,"4983 Cass Street, San Diego, CA, 92109-2039",+1 858-483-1394,https://www.7-eleven.com/locations/ca/san-diego/4983-cass-st-13603,32.8056506,-117.2539937,,,n_365327995,"shop=convenience, brand=7-Eleven"
"Sequoia Crest, CA",,retail,445120,7-Eleven,"1749 South Coast Highway, Oceanside, CA, 92054-5319",+1 760-433-6505,https://www.7-eleven.com/locations/ca/oceanside/1749-south-coast-hwy-26190,33.175353,-117.362651,,,n_365328183,"shop=convenience, brand=7-Eleven"
"Sequoia Crest, CA",,retail,445120,7-Eleven,"260 East Mission Avenue, Escondido, CA, 92025-1826",+1 760-745-4760,https://www.7-eleven.com/locations/ca/escondido/260-e-mission-avenue-21785,33.131263,-117.08377,,,n_365328203,"shop=convenience, brand=7-Eleven"
"Sequoia Crest, CA",,retail,445120,7-Eleven,"711 Oceanside Bvd, Oceanside, CA, 92054-5225",+1 760-722-9376,https://www.7-eleven.com/locations/ca/oceanside/711-oceanside-bvd-17043,33.18443,-117.367331,,,n_365328215,"shop=convenience, brand=7-Eleven"
"Sequoia Crest, CA",,retail,445120,7-Eleven,,,https://www.7-eleven.com/locations/ca/cardiff-by-the-sea/2211-san-elijo-avenue-25766,33.0192044,-117.2811461,,,n_365328224,"shop=convenience, brand=7-Eleven"
"Sequoia Crest, CA",,retail,445120,7-Eleven,,,https://www.7-eleven.com/locations/ca/san-marcos/578-e-mission-road-18977,33.1454406,-117.149661,,,n_365328264,"shop=convenience, brand=7-Eleven"
"Sequoia Crest, CA",,retail,445120,7-Eleven,"4340 Mission Bvd, San Diego, CA, 92109-3916",+1 858-483-7395,https://www.7-eleven.com/locations/ca/san-diego/4340-mission-bvd-13609,32.7941989,-117.2549988,,,n_365328268,"shop=convenience, brand=7-Eleven"
"Sequoia Crest, CA",,retail,445120,7-Eleven,,,https://www.7-eleven.com/locations/ca/escondido/1030-n-broadway-22894,33.134231,-117.086657,,,n_365328277,"shop=convenience, brand=7-Eleven"
"Sequoia Crest, CA",,retail,445120,7-Eleven,"8261 Gold Coast Drive, San Diego, 92126",,https://www.7-eleven.com/locations/ca/san-diego/8261-gold-coast-drive-32131,32.9048684,-117.1454271,,,n_365328306,"shop=convenience, brand=7-Eleven"
"Sequoia Crest, CA",,retail,445120,7-Eleven,"2275 Garnet Avenue, San Diego, CA, 92109-3712",+1 858-274-1737,https://www.7-eleven.com/locations/ca/san-diego/2275-garnet-ave-13613,32.8023308,-117.2283213,,,n_365328310,"shop=convenience, brand=7-Eleven"
"Sequoia Crest, CA",,retail,445120,7-Eleven,"1860 West El Norte Parkway, Escondido, CA, 92026-3343",+1 760-741-5426,https://www.7-eleven.com/locations/ca/escondido/1860-w-el-norte-pkwy-21803,33.1549453,-117.1246934,,,n_365328314,"shop=convenience, brand=7-Eleven"
"Sequoia Crest, CA",,retail,445120,7-Eleven,,,https://www.7-eleven.com/locations/ca/oceanside/4625-frazee-rd-33053,33.2376228,-117.2978689,,,n_365328317,"shop=convenience, brand=7-Eleven"
"Sequoia Crest, CA",,retail,445120,7-Eleven,"768 North Midway Drive, Escondido, CA, 92027",+1 760-743-1231,https://www.7-eleven.com/locations/ca/escondido/768-midway-ave-13606,33.1446991,-117.055726,,,n_365328338,"shop=convenience, brand=7-Eleven"
"Sequoia Crest, CA",,retail,445120,7-Eleven,"1501 North Santa Fe Avenue, Vista, 92084",,https://www.7-eleven.com/locations/ca/vista/1501-n-santa-fe-ave-15923,33.2215087,-117.2446082,,,n_365328349,"shop=convenience, brand=7-Eleven"
"Sequoia Crest, CA",,retail,445120,7-Eleven,,,,33.0465898,-117.2572123,,,n_365328354,"shop=convenience, brand=7-Eleven"
"Sequoia Crest, CA",,retail,445120,7-Eleven,,,,33.13614,-117.09281,,,n_365328365,"shop=convenience, brand=7-Eleven"
"Sequoia Crest, CA",,retail,445120,7-Eleven,,,https://www.7-eleven.com/locations/ca/san-diego/11205-camino-ruiz-25629,32.925398,-117.143558,,,n_365328394,"shop=convenience, brand=7-Eleven"
"Sequoia Crest, CA",,retail,445120,7-Eleven,"12890 Rancho Penasquitos, San Diego, CA, 92129-2935",+1 858-484-1739,https://www.7-eleven.com/locations/ca/san-diego/12890-rancho-penasquitos-20170,32.9512344,-117.1080951,,,n_365328410,"shop=convenience, brand=7-Eleven"
"Sequoia Crest, CA",,retail,445120,7-Eleven,"1650 West San Marcos Boulevard, San Marcos, CA, 92078-4021",+1 760-752-9848,https://www.7-eleven.com/locations/ca/san-marcos/1650-w-san-marcos-blvd-16054,33.1317663,-117.20767,,,n_365328413,"shop=convenience, brand=7-Eleven"
"Sequoia Crest, CA",,retail,445120,7-Eleven,"895 East Vista Way, Vista, CA, 92084-5237",+1 760-941-2266,https://www.7-eleven.com/locations/ca/vista/895-east-vista-way-23302,33.210704,-117.232356,,,n_365328429,"shop=convenience, brand=7-Eleven"
"Sequoia Crest, CA",,retail,445120,7-Eleven,"14391 Peñasquitos Drive, San Diego, CA, 92129",+1 858-672-0732,https://www.7-eleven.com/locations/ca/san-diego/14391-penasquitos-drive-32708,32.9774909,-117.0895225,,,n_365328446,"shop=convenience, brand=7-Eleven"
"Sequoia Crest, CA",,retail,445120,7-Eleven,,,,32.949507,-117.247107,,,n_365328455,"shop=convenience, brand=7-Eleven"
"Sequoia Crest, CA",,retail,445120,7-Eleven,"3090 Clairemont Drive, San Diego, CA, 92117-6767",+1 619-276-2691,https://www.7-eleven.com/locations/ca/san-diego/3090-clairemont-dr-19663,32.797057,-117.193547,,,n_365328462,"shop=convenience, brand=7-Eleven"
"Sequoia Crest, CA",,retail,445120,7-Eleven,,,,33.053325,-117.246295,,,n_365328476,shop=convenience
"Sequoia Crest, CA",,retail,445120,7-Eleven,,,https://www.7-eleven.com/locations/ca/vista/1610-s-melrose-dr-33376,33.1672312,-117.246769,,,n_365328493,"shop=convenience, brand=7-Eleven"
"Sequoia Crest, CA",,retail,445120,7-Eleven,"13835 Mango Drive, Del Mar, CA, 92014-3101",+1 858-755-3058,https://www.7-eleven.com/locations/ca/del-mar/13801-mango-dr-19548,32.949148,-117.247084,,,n_365328510,"shop=convenience, brand=7-Eleven"
"Sequoia Crest, CA",,retail,445120,7-Eleven,"4527 Mission Bay Drive, San Diego, CA, 92109-4920",+1 858-270-4833,https://www.7-eleven.com/locations/ca/san-diego/4527-mission-bay-dr-13598,32.804259,-117.215586,,,n_365328556,"shop=convenience, brand=7-Eleven"
"Sequoia Crest, CA",,retail,445120,7-Eleven,"15883 Bernardo Center Drive, San Diego, CA, 92127-2321",+1 858-487-5396,https://www.7-eleven.com/locations/ca/san-diego/15883-bernardo-center-dr-29144,33.0051451,-117.0906816,,,n_365328598,"shop=convenience, brand=7-Eleven"
"Sequoia Crest, CA",,retail,445120,7-Eleven,"1531 West Mission Road, San Marcos, CA, 92069",+1 760-744-5710,https://www.7-eleven.com/locations/ca/san-marcos/1531-w-mission-rd-21142,33.1507087,-117.1935503,,,n_365328607,"shop=convenience, brand=7-Eleven"
"Sequoia Crest, CA",,retail,445120,7-Eleven,"1906 Balboa Avenue, San Diego, CA, 92109-4502",+1 858-272-5711,https://www.7-eleven.com/locations/ca/san-diego/1906-balboa-ave-13596,32.7995506,-117.2346064,,,n_365328622,"shop=convenience, brand=7-Eleven"
"Sequoia Crest, CA",,retail,445120,7-Eleven,"105 West D Street, Encinitas, CA, 92024-3516",+1 760-753-0615,https://www.7-eleven.com/locations/ca/encinitas/105-west-d-st-18087,33.045791,-117.294118,,,n_365328669,"shop=convenience, brand=7-Eleven"
"Sequoia Crest, CA",,retail,445120,7-Eleven,"9701 Carmel Mountain Road, San Diego, CA, 92129",+1 858-484-0772,https://www.7-eleven.com/locations/ca/san-diego/9701-carmel-mt-rd-19223,32.961918,-117.117341,,,n_365328684,"shop=convenience, brand=7-Eleven"
"Sequoia Crest, CA",,retail,445120,7-Eleven,"2255 Mission Avenue, Oceanside, 92058",,,33.2081193,-117.3593736,,,n_365328702,"shop=convenience, brand=7-Eleven"
"Sequoia Crest, CA",,retail,445120,7-Eleven,"2240 Encinitas Boulevard, Encinitas, CA, 92024-4345",+1 760-942-2727,https://www.7-eleven.com/locations/ca/encinitas/2240-encinitas-blvd-21805,33.0381032,-117.2389152,,,n_365328709,"shop=convenience, brand=7-Eleven"
"Sequoia Crest, CA",,retail,445120,7-Eleven,"1076 Main Street, Ramona, 92065",,https://www.7-eleven.com/locations/ca/ramona/1076-main-st-20211,33.0408851,-116.8697258,,,n_365328743,"shop=convenience, brand=7-Eleven"
"Sequoia Crest, CA",,retail,445120,7-Eleven,"13626 Pomerado Road, Poway, CA, 92064",+1 858-748-0711,https://www.7-eleven.com/locations/ca/poway/13626-pomerado-rd-13624,32.9617688,-117.0629888,,,n_365328835,"shop=convenience, brand=7-Eleven"
"Sequoia Crest, CA",,retail,445120,7-Eleven,"16703 Bernardo Center Drive, San Diego, CA, 92128",+1 858-487-7430,https://www.7-eleven.com/locations/ca/san-diego/16703-bernardo-ctr-dr-19883,33.0168929,-117.07518,,,n_365328848,"shop=convenience, brand=7-Eleven"
"Sequoia Crest, CA",,retail,445120,7-Eleven,"2850 Thunder Drive, Oceanside, CA, 92056-4239",+1 760-724-0854,https://www.7-eleven.com/locations/ca/oceanside/2850-thunder-dr-13615,33.1951193,-117.2877993,,,n_365328957,"shop=convenience, brand=7-Eleven"
"Sequoia Crest, CA",,retail,445120,7-Eleven,,,https://www.7-eleven.com/locations/ca/fallbrook/631-s-main-st-21800,33.37686,-117.251756,,,n_365328969,"shop=convenience, brand=7-Eleven"
"Sequoia Crest, CA",,retail,452210,North County Regional Center San Diego County Law Library,CA,,,33.1919813,-117.2550357,,,n_368170929,shop=department_store
"Sequoia Crest, CA",,retail,446120,Laser Away,,,,32.8677573,-117.2062394,,,n_434955936,shop=beauty
"Sequoia Crest, CA",,retail,445110,Sprouts,,,,32.7987241,-117.2469667,,,n_448035985,shop=supermarket
"Sequoia Crest, CA",,retail,445110,Sprouts Farmers Market,"3243 Camino De Los Coches, La Costa, CA, 92009",+1 760-635-0625,https://www.sprouts.com/store/ca/carlsbad/carlsbad-rancho-santa-fe/,33.0749554,-117.2387789,,,n_451964738,"shop=supermarket, brand=Sprouts Farmers Market"
"Sequoia Crest, CA",,retail,446110,CVS Pharmacy,,,https://www.cvs.com/store-locator/carlsbad-ca-pharmacies/7740-rancho-santa-fe-road-carlsbad-ca-92009/storeid=9528,33.0805292,-117.237088,,,n_451964755,"shop=chemist, brand=CVS Pharmacy"
"Sequoia Crest, CA",,retail,452210,Nordstrom,,,https://www.nordstrom.com/store-details/nordstrom-la-jolla-at-utc,32.8709254,-117.2131293,,,n_477129019,"shop=department_store, brand=Nordstrom"
"Sequoia Crest, CA",,retail,453110,,,,,32.7986321,-117.2468134,,,n_550348943,shop=florist
"Sequoia Crest, CA",,retail,452210,Pangaea Outpost,"909 Garnet Avenue, 92109",+1 858-581-0555,,32.7968389,-117.2532349,,,n_550366762,"shop=department_store, operator=Pangea"
"Sequoia Crest, CA",,retail,446120,Nail 2000+ Spa,,,,33.0191883,-117.1134311,,,n_551064579,shop=beauty
"Sequoia Crest, CA",,retail,446120,Grace Threading,,,,33.0193639,-117.1123274,,,n_551064636,shop=beauty
"Sequoia Crest, CA",,retail,445120,7-Eleven,"900 North Santa Fe Avenue, Vista, CA, 92084",+1-760-945-4482,https://www.7-eleven.com/locations/ca/vista/900-north-santa-fe-24085,33.2121526,-117.2453881,,,n_595997786,"shop=convenience, brand=7-Eleven"
"Sequoia Crest, CA",,retail,445310,Wine Steals,"1953 San Elijo Avenue, Cardiff-By-The-Sea, 92007",,,33.023186,-117.283402,,,n_596000429,shop=alcohol
"Sequoia Crest, CA",,retail,445120,Circle K,"3361 Mission Avenue, Oceanside, 92058",,,33.217938,-117.341094,,,n_596020924,"shop=convenience, brand=Circle K, operator=Mobil"
"Sequoia Crest, CA",,retail,446191,Ramona Family Naturals Market,"325 6th Street, Ramona, 92065",,https://ramonafamilynaturals.com/,33.0447417,-116.8620691,,,n_596124644,"shop=health_food, operator=Robert Bradley"
"Sequoia Crest, CA",,retail,445120,Speedway,"4202 Clairemont Mesa Boulevard, San Diego, CA, 92117",+1 858-483-3750,https://www.speedway.com/locations/CA/San-Diego/4202-CLAIREMONT-MESA-BLVD,32.8316018,-117.202013,,,n_596140109,"shop=convenience, brand=Speedway"
"Sequoia Crest, CA",,retail,445310,Port Brewing and The Lost Abby,"155 Mata Way, San Marcos, 92069",,,33.141537,-117.149141,,,n_596156814,shop=alcohol
"Sequoia Crest, CA",,retail,445120,Z Mart,"3200 Mission Avenue, Oceanside, 92058",,,33.21384,-117.348235,,,n_596230612,shop=convenience
"Sequoia Crest, CA",,retail,445310,Country Wine & Spirits,"1350 Main Street, Ramona, 92065",,,33.0382643,-116.8744462,,,n_596297827,shop=alcohol
"Sequoia Crest, CA",,retail,445110,Major Market Grocery Store,"835 South Main Avenue, Fallbrook, 92028",,,33.3753813,-117.2528639,,,n_596421640,shop=supermarket
"Sequoia Crest, CA",,retail,445110,Ralphs,"11875 Carmel Mountain Road, San Diego, CA, 92128",+1 858-451-8376,https://www.ralphs.com/stores/grocery/ca/san-diego/carmel-mtn-ranch-town-center/703/00019,32.9810455,-117.075652,,,n_596429698,"shop=supermarket, brand=Ralphs"
"Sequoia Crest, CA",,retail,445110,Grocery Outlet,"125 South Rancho Santa Fe Road, San Marcos, CA, 92078",,,33.147664,-117.198481,,,n_596457751,"shop=supermarket, brand=Grocery Outlet"
"Sequoia Crest, CA",,retail,445310,BevMo!,"844 Pearl Street, La Jolla, 92037",+18587290775,,32.840373,-117.274138,,,n_596525206,"shop=alcohol, brand=BevMo!, operator=Bevmo"
"Sequoia Crest, CA",,retail,445110,,3770 Mission Avenue,,,33.226474,-117.333352,,,n_596526426,shop=supermarket
"Sequoia Crest, CA",,retail,445110,Smart & Final,"10740 Westview Parkway, San Diego, CA, 92126",+1 858-578-7343,,32.9154869,-117.1220552,,,n_596667155,"shop=supermarket, brand=Smart & Final"
"Sequoia Crest, CA",,retail,445120,Chevron Food Mart,2295 South Melrose Drive,,,33.146038,-117.2417919,,,n_596761918,shop=convenience
"Sequoia Crest, CA",,retail,452210,Target,"443 College Boulevard, Oceanside, CA, 92057-5435",+1 760-666-6778,https://www.target.com/sl/oceanside-east/2871,33.247039,-117.293228,,,n_596802559,"shop=department_store, brand=Target"
"Sequoia Crest, CA",,retail,453991,Smoker's Land,"13291 Black Mountain Road, San Diego, CA, 92129",,,32.9589039,-117.1247327,,,n_596865142,shop=tobacco
"Sequoia Crest, CA",,retail,446110,Walgreens,"3507 Cannon Road, Oceanside, CA, 92056",,,33.172045,-117.254944,,,n_596894861,"shop=chemist, brand=Walgreens"
"Sequoia Crest, CA",,retail,452210,Ross,463 College Boulevard,,,33.244313,-117.29247,,,n_596922335,"shop=department_store, brand=Ross"
"Sequoia Crest, CA",,retail,445110,Trader Joe's,"11955 Carmel Mountain Road, San Diego, CA, 92128",+1 858-673-0526,https://locations.traderjoes.com/CA/San-Diego/23/,32.982014,-117.074986,,,n_596943098,"shop=supermarket, brand=Trader Joe's"
"Sequoia Crest, CA",,retail,452210,Target,"8001 Othello Avenue, San Diego, CA, 92111",+1 858-576-1570,https://www.target.com/sl/kearny-mesa/205,32.8164498,-117.1510149,,,n_597022846,"shop=department_store, brand=Target"
"Sequoia Crest, CA",,retail,445120,Express Fuel,"3865 Mission Avenue, Oceanside, 92058",,,33.226623,-117.328069,,,n_597037925,shop=convenience
"Sequoia Crest, CA",,retail,445110,99 Ranch Market,"7330 Clairemont Mesa Boulevard, San Diego, CA, 92111",+1 858-974-8899,,32.8335766,-117.1607905,,,n_597040449,"shop=supermarket, brand=99 Ranch Market"
"Sequoia Crest, CA",,retail,445120,Chevron,656 Benet Road,,,33.2138869,-117.357021,,,n_597057014,"shop=convenience, brand=Chevron"
"Sequoia Crest, CA",,retail,452319,99 Cents Only Stores,"1326 Main Street, Ramona, 92065",+17607889999,https://locations.99only.com/ca/ramona/discount-store-382.html,33.0384073,-116.8735935,,,n_597082020,"shop=variety_store, brand=99 Cents Only Stores"
"Sequoia Crest, CA",,retail,453110,,"9990 Dichondra Place, San Diego, CA, 92131",,,32.905604,-117.092149,,,n_597094966,shop=florist
"Sequoia Crest, CA",,retail,445120,7-Eleven,"2985 Via Las Rosas, Oceanside, CA, 92054",+1 760-433-6680,https://www.7-eleven.com/locations/ca/oceanside/2985-via-las-rosas-18159,33.1865582,-117.3286549,,,n_597171590,"shop=convenience, brand=7-Eleven"
"Sequoia Crest, CA",,retail,445110,Sprouts Farmers Market,"1327 Encinitas Boulevard, Encinitas, CA, 92024",+1 760-633-4747,https://www.sprouts.com/store/ca/encinitas/encinitas-blvd/,33.0447942,-117.260776,,,n_619045738,"shop=supermarket, brand=Sprouts Farmers Market"
"Sequoia Crest, CA",,retail,445120,Sunshine Market,,,,32.833846,-117.1951184,,,n_654739924,shop=convenience
"Sequoia Crest, CA",,retail,453110,Conroy Flowers,,,,32.8214687,-117.1835168,,,n_654774769,shop=florist
"Sequoia Crest, CA",,retail,452210,Marshalls,,,,32.8211266,-117.181298,,,n_765486080,"shop=department_store, brand=Marshalls"
"Sequoia Crest, CA",,retail,452210,JCPenney,,,,33.0695717,-117.06426,,,n_800031220,"shop=department_store, brand=JCPenney"
"Sequoia Crest, CA",,retail,445110,Albertsons,"31960 Temecula Parkway, Temecula, CA, 92592",+1 951-303-1133,https://local.albertsons.com/ca/temecula/31960-temecula-pkwy.html,33.4821656,-117.1004202,,,n_835997659,"shop=supermarket, brand=Albertsons"
"Sequoia Crest, CA",,retail,452319,Five Below,,,,33.4776451,-117.1026796,,,n_836014887,"shop=variety_store, brand=Five Below"
"Sequoia Crest, CA",,retail,445110,Frazier Farms,,,,33.1976992,-117.2459335,,,n_845627280,shop=supermarket
"Sequoia Crest, CA",,retail,445120,7-Eleven,,,,33.4819424,-117.0930052,,,n_846402962,"shop=convenience, amenity=fuel, brand=7-Eleven"
"Sequoia Crest, CA",,retail,445120,Hazit,,,,33.4722602,-117.1239818,,,n_878251837,shop=convenience
"Sequoia Crest, CA",,retail,445110,Stater Bros.,"780 Sycamore Avenue, Vista, CA, 92083",+1 760-727-7080,https://www.staterbros.com/stores/156,33.163037,-117.219024,,,n_921662787,"shop=supermarket, brand=Stater Bros."
"Sequoia Crest, CA",,retail,445120,General Store Co-Op,,,,32.8772281,-117.239955,,,n_922120602,shop=convenience
"Sequoia Crest, CA",,retail,452210,Ross,"1038 North El Camino Real, Encinitas, CA, 92024",+1 760-753-0040,,33.065417,-117.2659599,,,n_929792280,"shop=department_store, brand=Ross"
"Sequoia Crest, CA",,retail,445292,See's Candies,,,,33.0531156,-117.2617789,,,n_937428966,"shop=confectionery, brand=See's Candies"
"Sequoia Crest, CA",,retail,445120,Old Town Liquor,,,,33.4901861,-117.1453075,,,n_961013146,shop=convenience
"Sequoia Crest, CA",,retail,445110,Stater Bros.,"1451 North Santa Fe Avenue, Vista, CA, 92084",+1-760-726-8485,https://www.staterbros.com/stores/157,33.2203403,-117.2434166,,,n_967626945,"shop=supermarket, brand=Stater Bros."
"Sequoia Crest, CA",,retail,452210,Target,"1751 University Drive, Vista, CA, 92083-7775",+1 760-941-0220,https://www.target.com/sl/vista-north-university-drive/1040,33.1687066,-117.2151587,,,n_967634897,"shop=department_store, brand=Target"
"Sequoia Crest, CA",,retail,452210,Target,"3150 Business Park Drive, Vista, CA, 92081-8520",+1 760-208-6111,https://www.target.com/sl/vista-south-business-park-drive/2165,33.136486,-117.2291078,,,n_974336751,"shop=department_store, brand=Target"
"Sequoia Crest, CA",,retail,452210,Kohl's,"3410 Marron Road, Oceanside, CA, 92056",+1 760-730-3520,https://www.kohls.com/stores/ca/oceanside-700.shtml,33.1792978,-117.2981904,,,n_975338710,"shop=department_store, brand=Kohl's"
"Sequoia Crest, CA",,retail,445120,7-Eleven,"44535 Bedford Court, Temecula, CA, 92592-2552",+1 951-693-4977,https://www.7-eleven.com/locations/ca/temecula/44535-bedford-court-33074,33.4788535,-117.1385701,,,n_988350466,"shop=convenience, brand=7-Eleven"
"Sequoia Crest, CA",,retail,445110,Trader Joe's,92083,,,33.1701533,-117.218354,,,n_1001375378,"shop=supermarket, brand=Trader Joe's"
"Sequoia Crest, CA",,retail,445110,Trader Joe's,"2570 Vista Way, Oceanside, CA, 92054",+1 760-433-9994,https://locations.traderjoes.com/ca/oceanside/22/,33.1840258,-117.3318769,,,n_1009389232,"shop=supermarket, brand=Trader Joe's"
"Sequoia Crest, CA",,retail,445110,Tropical Star,,,,32.8196812,-117.1747445,,,n_1036688405,"shop=grocery, amenity=restaurant"
"Sequoia Crest, CA",,retail,445110,Major Marketplace,"5256 South Mission Road, Bonsall, CA, 92003",,,33.2954356,-117.221637,,,n_1066791124,shop=supermarket
"Sequoia Crest, CA",,retail,445110,Smart & Final,395 North Escondido Boulevard,,https://www.smartandfinal.com/,33.1224729,-117.0877682,,,n_1095773680,"shop=supermarket, brand=Smart & Final"
"Sequoia Crest, CA",,retail,452210,Burlington,"3962 Clairemont Mesa Boulevard, San Diego, CA, 92117",+1 858-272-1893,https://stores.burlington.com/ca/san-diego/278,32.8289399,-117.20422,,,n_1097324132,"shop=department_store, brand=Burlington"
"Sequoia Crest, CA",,retail,452210,Burlington,"1740 University Drive, Vista, 92083",,,33.1722416,-117.2146081,,,n_1111148742,"shop=department_store, brand=Burlington"
"Sequoia Crest, CA",,retail,445120,Rainbow Oaks Country Market,,,,33.4132389,-117.1586672,,,n_1203451946,shop=convenience
"Sequoia Crest, CA",,retail,445120,am pm,,,,33.1979487,-117.1276816,,,n_1214271974,"shop=convenience, operator=Arco"
"Sequoia Crest, CA",,retail,445120,Bombay Bazaar,,,,32.8954164,-117.1239743,,,n_1257266321,shop=convenience
"Sequoia Crest, CA",,retail,445230,Maria's Farmers Market,,,,33.3651802,-117.0842136,,,n_1291363370,shop=greengrocer
"Sequoia Crest, CA",,retail,445120,The Pala Store,"11781 Pala Mission Road, Pala, CA, 92059",(760) 742-3262,,33.3649957,-117.074263,,,n_1293342590,shop=convenience
"Sequoia Crest, CA",,retail,453110,Posies Flowers,"9992 Scripps Ranch Boulevard, CA, 92131",,,32.9029094,-117.0986295,,,n_1313654719,shop=florist
"Sequoia Crest, CA",,retail,446120,Ulta Beauty,"1266 Auto Park Way, Escondido, CA, 92029",+1-760-740-8659,https://www.ulta.com/stores/escondido-ca-1276,33.11224,-117.098325,,,n_1343921213,"shop=cosmetics, brand=Ulta Beauty"
"Sequoia Crest, CA",,retail,445120,,,,,32.8549645,-117.2051439,,,n_1351020578,shop=convenience
"Sequoia Crest, CA",,retail,453991,Illusions Smoke Shop,,,,32.8333982,-117.1732942,,,n_1363881720,shop=tobacco
"Sequoia Crest, CA",,retail,445120,World Market & Produce,"5440 Clairemont Mesa Boulevard, San Diego, 92117",,,32.8346333,-117.1741916,,,n_1363888063,shop=convenience
"Sequoia Crest, CA",,retail,445292,Dulcería Ninaz,"1029 East Valley Parkway, Escondido, 92025",,,33.1293923,-117.0690948,,,n_1364074504,shop=confectionery
"Sequoia Crest, CA",,retail,446120,Nails by Laura,"1071 East Valley Parkway, Escondido, 92025",,,33.1296085,-117.0685986,,,n_1364074513,shop=beauty
"Sequoia Crest, CA",,retail,445120,K&S Market,,,,33.1292357,-117.0667545,,,n_1364078880,shop=convenience
"Sequoia Crest, CA",,retail,446120,Perfection Nails & Hair,,,,33.1294909,-117.0668809,,,n_1364078882,shop=beauty
"Sequoia Crest, CA",,retail,452210,Ross,"1202 Auto Park Way, Escondido, CA, 92029",+1 760-432-0360,https://www.rossstores.com/,33.1096875,-117.0970336,,,n_1388247084,"shop=department_store, brand=Ross"
"Sequoia Crest, CA",,retail,445120,Lena's Liquor,,,,33.1323914,-117.0687958,,,n_1394403008,shop=convenience
"Sequoia Crest, CA",,retail,453991,Smoke Depot,,,,33.2274224,-117.3324718,,,n_1395070238,shop=tobacco
"Sequoia Crest, CA",,retail,445120,Food Mart,,,,33.0701491,-117.0702549,,,n_1404163933,shop=convenience
"Sequoia Crest, CA",,retail,453110,Windy City Flowers,,,,32.8210238,-117.1809197,,,n_1415314462,shop=florist
"Sequoia Crest, CA",,retail,445230,Eduardo Produce,,,,33.1213165,-117.1013569,,,n_1441596484,shop=greengrocer
"Sequoia Crest, CA",,retail,445210,Talone Custom Slaughter,,,,33.121495,-117.101517,,,n_1441596490,shop=butcher
"Sequoia Crest, CA",,retail,445230,Pala Rey Produce,,,,33.3435829,-117.1292339,,,n_1442259145,shop=greengrocer
"Sequoia Crest, CA",,retail,445120,Quik Korner,,,,33.1113423,-117.0820088,,,n_1445188439,"shop=convenience, amenity=fuel"
"Sequoia Crest, CA",,retail,445120,,,,,32.8550399,-117.2042009,,,n_1445215680,shop=convenience
"Sequoia Crest, CA",,retail,445110,Sprouts Farmers Market,"510 West 13th Avenue, Escondido, CA, 92025",+1 760-743-1528,https://www.sprouts.com/store/ca/escondido/w-13th-ave/,33.1080924,-117.080649,,,n_1446003019,"shop=supermarket, brand=Sprouts Farmers Market"
"Sequoia Crest, CA",,retail,446120,Sephora,,+1 858 250 3430,https://www.sephora.com/happening/stores/la-jolla-village,32.8690334,-117.2308316,,,n_1446003313,"shop=cosmetics, brand=Sephora"
"Sequoia Crest, CA",,retail,446120,Empire Beauty Supply & Salon,,,,32.8694309,-117.2309406,,,n_1446003316,shop=beauty
"Sequoia Crest, CA",,retail,452210,Kohl's,"720 Center Drive;Ronald Packard Parkway, San Marcos, CA, 92069",+1 760-741-1480,https://www.kohls.com/stores/ca/sanmarcos-707.shtml,33.1348211,-117.1239273,,,n_1446005419,"shop=department_store, brand=Kohl's"
"Sequoia Crest, CA",,retail,452210,Walmart,"732 Center Drive, San Marcos, CA, 92069",+1 760-233-8009,https://www.walmart.com/store/3494-san-marcos-ca,33.1357328,-117.1234722,,,n_1446005420,"shop=department_store, brand=Walmart, operator=Walmart"
"Sequoia Crest, CA",,retail,452210,Ross,"8657 Villa La Jolla Drive, La Jolla, CA, 92037",+1 858-450-1233,,32.8664085,-117.2314142,,,n_1446007176,"shop=department_store, brand=Ross"
"Sequoia Crest, CA",,retail,446120,Ulta Beauty,,,,32.8655415,-117.2316901,,,n_1446007177,"shop=cosmetics, brand=Ulta Beauty"
"Sequoia Crest, CA",,retail,445110,H Mart,"9440 Mira Mesa Boulevard, San Diego, CA, 92126",+1-858-577-0060,https://www.hmart.com/store/san-diego-ca-92126/77e8bb40-b162-4c04-af5d-4004434f3a89,32.9187594,-117.1223639,,,n_1451194434,"shop=supermarket, brand=H Mart"
"Sequoia Crest, CA",,retail,452210,Ross,"10643 Westview Parkway, San Diego, CA, 92126",+1 858-271-6964,,32.9146382,-117.1200366,,,n_1451219574,"shop=department_store, brand=Ross"
"Sequoia Crest, CA",,retail,452210,Marshalls,,,,32.8650144,-117.2312872,,,n_1458411197,"shop=department_store, brand=Marshalls"
"Sequoia Crest, CA",,retail,446120,Bath & Body Works,,,,32.8303172,-117.2046313,,,n_1459148840,"shop=cosmetics, brand=Bath & Body Works"
"Sequoia Crest, CA",,retail,446120,Happy Nails and Spa,,,,32.8305854,-117.2046367,,,n_1459148843,shop=beauty
"Sequoia Crest, CA",,retail,446120,Ulta Beauty,4941 Clairemont Drive,,https://www.ulta.com/stores/san-diego-ca-1112,32.8320726,-117.2036324,,,n_1459169006,"shop=cosmetics, brand=Ulta Beauty"
"Sequoia Crest, CA",,retail,452210,TJ Maxx,4995 Clairemont Drive,,,32.8320007,-117.2031881,,,n_1459173596,"shop=department_store, brand=TJ Maxx"
"Sequoia Crest, CA",,retail,452210,Ross,"3998 Clairemont Mesa Boulevard, San Diego, CA, 92117",+1 858-490-4271,,32.829605,-117.2031749,,,n_1459183735,"shop=department_store, brand=Ross"
"Sequoia Crest, CA",,retail,446120,Tan Diego Tanning Salon,,,,32.8300985,-117.20211,,,n_1459192969,shop=beauty
"Sequoia Crest, CA",,retail,445310,Jimbo's Liquor,,,,32.8239361,-117.1833929,,,n_1499578386,shop=alcohol
"Sequoia Crest, CA",,retail,446120,European Wax Center,,,https://locations.waxcenter.com/ca/sandiego/san-diego-clairemont-0175.html,32.8212988,-117.1818372,,,n_1499579476,"shop=beauty, brand=European Wax Center"
"Sequoia Crest, CA",,retail,446120,Finesse Nails,,,,32.8212874,-117.1817994,,,n_1499579477,shop=beauty
"Sequoia Crest, CA",,retail,445120,Qwik Korner,,,,33.1353996,-117.0798279,,,n_1499609739,shop=convenience
"Sequoia Crest, CA",,retail,446120,One Stop Hair & Nails,,,,32.818604,-117.178497,,,n_1572280746,shop=beauty
"Sequoia Crest, CA",,retail,453991,Nyala Tobacco Emporium,,,,32.8184556,-117.1784704,,,n_1572280826,shop=tobacco
"Sequoia Crest, CA",,retail,445120,Circle K,,,,32.9777185,-117.0241297,,,n_1576266142,shop=convenience
"Sequoia Crest, CA",,retail,445120,Midway Mini Market,,,,33.1445285,-117.0555064,,,n_1579237771,shop=convenience
"Sequoia Crest, CA",,retail,445110,Smart & Final,,,,32.9507169,-117.063645,,,n_1586571056,"shop=supermarket, brand=Smart & Final"
"Sequoia Crest, CA",,retail,452319,Dollar Tree,,,,32.9507429,-117.063164,,,n_1586571081,"shop=variety_store, brand=Dollar Tree"
"Sequoia Crest, CA",,retail,445120,Circle K,,,,32.9522081,-117.063002,,,n_1586571118,"shop=convenience, brand=Circle K"
"Sequoia Crest, CA",,retail,446120,Sephora,,,https://www.sephora.com/,32.8713231,-117.2103888,,,n_1699028326,"shop=cosmetics, brand=Sephora"
"Sequoia Crest, CA",,retail,446120,Nail Connection,,,,32.8535622,-117.2026606,,,n_1727124146,shop=beauty
"Sequoia Crest, CA",,retail,445310,Courtesy Liquor & Deli,,,,32.8536299,-117.203655,,,n_1727132848,shop=alcohol
"Sequoia Crest, CA",,retail,445310,Mesa Liquor & Wine,"Convoy Street, San Diego, CA, 92111",,,32.8306251,-117.1528846,,,n_1727187268,shop=alcohol
"Sequoia Crest, CA",,retail,446120,Ks Spa,"Convoy Street, San Diego, CA, 92111",+1 858-223-1212,,32.8304621,-117.1528829,,,n_1727187278,shop=beauty
"Sequoia Crest, CA",,retail,445120,Circle K,San Diego,,,33.0232626,-117.0748087,,,n_1743950592,"shop=convenience, brand=Circle K"
"Sequoia Crest, CA",,retail,445120,Shell,,,,33.0183236,-117.060489,,,n_1743954601,"shop=convenience, brand=Shell"
"Sequoia Crest, CA",,retail,445120,Corner Liquor/Food Store,,,,33.1364231,-117.050714,,,n_1780010557,shop=convenience
"Sequoia Crest, CA",,retail,445310,BevMo!,"2500 Vista Way, Oceanside",(760) 967-8606,,33.183905,-117.3334589,,,n_1782785182,"shop=alcohol, brand=BevMo!"
"Sequoia Crest, CA",,retail,452210,Ross,"2505 Vista Way, Oceanside, CA, 92054",+1 760-439-4040,,33.1827194,-117.3322784,,,n_1782785267,"shop=department_store, brand=Ross"
"Sequoia Crest, CA",,retail,446120,Empire Beauty,,,,32.7998524,-117.2398363,,,n_1808327199,shop=beauty
"Sequoia Crest, CA",,retail,445110,Major Market,"1855 South Centre City Parkway, Escondido, CA, 92025",,https://majormarketgrocery.com/,33.1009336,-117.0752148,,,n_1809707850,shop=supermarket
"Sequoia Crest, CA",,retail,446110,Rite Aid,,,,33.1019861,-117.0757504,,,n_1809707851,"shop=chemist, brand=Rite Aid"
"Sequoia Crest, CA",,retail,445120,Chevron,,,,33.0679992,-117.066441,,,n_1833777977,"shop=convenience, brand=Chevron"
"Sequoia Crest, CA",,retail,452210,Target,"280 East Via Rancho Parkway, Escondido, CA, 92025-8005",+1 760-705-9019,https://www.target.com/sl/escondido-south/2802,33.0699065,-117.065386,,,n_1833777990,"shop=department_store, brand=Target"
"Sequoia Crest, CA",,retail,445292,See's Candies,,,,32.8197645,-117.1776293,,,n_1868228080,"shop=confectionery, brand=See's Candies"
"Sequoia Crest, CA",,retail,453110,Edelweiss Flowers,,,,32.8346397,-117.1743184,,,n_1873965692,shop=florist
"Sequoia Crest, CA",,retail,445110,Balboa International Market,"5905 Balboa Avenue, 92111",+1 (858) 277-3600,https://www.balboamarket.com/,32.8189215,-117.1780049,,,n_1884458542,shop=supermarket
"Sequoia Crest, CA",,retail,445110,Market at Seventh College,,,,32.8875979,-117.242098,,,n_1912313370,shop=supermarket
"Sequoia Crest, CA",,retail,445110,Trader Joe's,"1885 South Centre City Parkway, Escondido, CA, 92025",+1 760-233-4020,https://locations.traderjoes.com/ca/escondido/105/,33.1000685,-117.0747179,,,n_1999508500,"shop=supermarket, brand=Trader Joe's"
"Sequoia Crest, CA",,retail,446120,All About Me Medical Day Spa,"12889 Rancho Peñasquitos Boulevard, 92129",,,32.9512498,-117.1072457,,,n_2117324871,shop=beauty
"Sequoia Crest, CA",,retail,445120,7-Eleven,"13510 Sabre Springs Parkway, San Diego, CA, 92128",+1 858-513-8301,https://www.7-eleven.com/locations/ca/san-diego/13510-sabre-springs-pkwy-36112,32.9624567,-117.09203,,,n_2247292250,"shop=convenience, brand=7-Eleven"
"Sequoia Crest, CA",,retail,445292,Sweet Factory,,,,32.8707487,-117.2103074,,,n_2326583765,shop=confectionery
"Sequoia Crest, CA",,retail,445292,See's Candies,,,,32.8707179,-117.2100355,,,n_2326583767,"shop=confectionery, brand=See's Candies"
"Sequoia Crest, CA",,retail,446120,L'Occitane,,,https://usa.loccitane.com/,32.8710108,-117.211098,,,n_2326594617,"shop=cosmetics, brand=L'Occitane"
"Sequoia Crest, CA",,retail,446120,Kiehl's,,,https://www.kiehls.com/,32.8711711,-117.210532,,,n_2326596513,"shop=cosmetics, brand=Kiehl's"
"Sequoia Crest, CA",,retail,445110,Smart & Final Extra!,"479 Encinitas Boulevard, Encinitas, 92024",,,33.0465296,-117.282203,,,n_2331415425,"shop=supermarket, brand=Smart & Final"
"Sequoia Crest, CA",,retail,445120,Vale,,,,33.0478173,-117.284996,,,n_2353019120,shop=convenience
"Sequoia Crest, CA",,retail,446120,Park Jun's SD Beauty Lab,,,,32.8318474,-117.1659696,,,n_2376665891,shop=beauty
"Sequoia Crest, CA",,retail,446120,Angel Nails,,,,32.8315914,-117.1654703,,,n_2376666345,shop=beauty
"Sequoia Crest, CA",,retail,446120,Cindy's Nails,"11677 West Bernardo Drive, San Diego, CA, 92128",,,33.0323971,-117.0789488,,,n_2397160489,shop=beauty
"Sequoia Crest, CA",,retail,446120,Massage Heights,,,,33.0471528,-117.2579832,,,n_2407427085,shop=beauty
"Sequoia Crest, CA",,retail,446120,Happiness Nails & Spa,,,,33.0471645,-117.2577266,,,n_2407427086,shop=beauty
"Sequoia Crest, CA",,retail,445120,7-Eleven,"4091 Genesee Avenue, San Diego, CA, 92111-3017",+1 858-292-1161,https://www.7-eleven.com/locations/ca/san-diego/4091-genesee-ave-15046,32.8172289,-117.1802187,,,n_2524937426,"shop=convenience, brand=7-Eleven"
"Sequoia Crest, CA",,retail,446120,Nailoscope,"4592 Clairemont Drive, 92117",,https://nailoscope.com/,32.8274786,-117.2063952,,,n_2609048960,shop=beauty
"Sequoia Crest, CA",,retail,445120,Pala Mini Mart,"11152 Pala Road, Pala, CA, 92059",,,33.364217,-117.0875575,,,n_2616784833,shop=convenience
"Sequoia Crest, CA",,retail,445310,Clairemont Liquor,,,,32.8128206,-117.2007299,,,n_2620558054,shop=alcohol
"Sequoia Crest, CA",,retail,445110,La Tiendita,,,,32.8274466,-117.2052704,,,n_2620560321,shop=supermarket
"Sequoia Crest, CA",,retail,452210,Mainside PX,,,,33.3029814,-117.310478,,,n_2636173063,shop=department_store
"Sequoia Crest, CA",,retail,445110,Nijiya Market,"3860 Convoy Street, San Diego, CA, 92111",+1 858-268-3821,https://www.nijiya.com,32.8142761,-117.1539803,,,n_2658407058,shop=supermarket
"Sequoia Crest, CA",,retail,445110,Walmart Neighborhood Market,"1046 Mission Avenue, Oceanside, CA, 92054",+1 760-696-9906,https://www.walmart.com/store/5637-oceanside-ca,33.199721,-117.3749031,,,n_2794026329,"shop=supermarket, brand=Walmart, operator=Walmart"
"Sequoia Crest, CA",,retail,446120,Nails by Mary,,,,32.8196868,-117.174537,,,n_2990317052,shop=beauty
"Sequoia Crest, CA",,retail,445310,,,,,32.8196766,-117.175238,,,n_2990319353,shop=alcohol
"Sequoia Crest, CA",,retail,445110,The Kebab Shop,"9450 Mira Mesa Boulevard, San Diego, 92126",+1-858-586-0499,https://www.thekebabshop.com,32.9190676,-117.1215733,,,n_3046966112,"shop=supermarket, amenity=restaurant"
"Sequoia Crest, CA",,retail,445310,Junior Liquor Grocery,,,,32.8351835,-117.1868981,,,n_3268413091,shop=alcohol
"Sequoia Crest, CA",,retail,445120,7-Eleven,"405 North Twin Oaks Valley, San Marcos, CA, 92069",+1 760-591-9853,https://www.7-eleven.com/locations/ca/san-marcos/405-n-twin-oaks-vly-110-33970,33.1444887,-117.1621778,,,n_3285090865,"shop=convenience, brand=7-Eleven"
"Sequoia Crest, CA",,retail,445110,Ralphs,"306 South Twin Oaks Valley Road, San Marcos, CA, 92078",+1 760-891-0618,https://www.ralphs.com/stores/grocery/ca/san-marcos/campus-marketplace/703/00683,33.1306589,-117.166728,,,n_3285182372,"shop=supermarket, brand=Ralphs"
"Sequoia Crest, CA",,retail,445120,John's Place and Market,,,,32.8784043,-117.2424181,,,n_3384976129,shop=convenience
"Sequoia Crest, CA",,retail,445120,Roger's Place and Market,,,,32.8745838,-117.2422571,,,n_3384976134,shop=convenience
"Sequoia Crest, CA",,retail,446120,Beauty and the Boutique,,,,32.9794864,-117.2498442,,,n_3648092137,shop=cosmetics
"Sequoia Crest, CA",,retail,446120,Apollo Nails & Spa,,,,32.830251,-117.1043708,,,n_3732382584,shop=beauty
"Sequoia Crest, CA",,retail,446120,Santo Asian Spa,,,,32.830718,-117.1035165,,,n_3732386999,shop=beauty
"Sequoia Crest, CA",,retail,445120,Crossroads Marketplace,,,,32.8726837,-117.2026381,,,n_3762163538,shop=convenience
"Sequoia Crest, CA",,retail,445120,ampm,,,,33.2897545,-117.226355,,,n_3815256464,"shop=convenience, brand=ampm"
"Sequoia Crest, CA",,retail,445110,Walmart Supercenter,"1550 Leucadia Boulevard, Encinitas, CA, 92024",+1 760-704-0243,https://www.walmart.com/store/5886-encinitas-ca,33.0691844,-117.266312,,,n_3932988148,"shop=supermarket, brand=Walmart, operator=Walmart"
"Sequoia Crest, CA",,retail,445310,Keg N Bottle,,,,32.8070988,-117.1835863,,,n_3935322478,shop=alcohol
"Sequoia Crest, CA",,retail,445292,Sweet Petite Confections,,,,32.8073099,-117.1833835,,,n_3935322479,shop=chocolate
"Sequoia Crest, CA",,retail,445310,,,+18584502939,,32.905982,-117.172626,,,n_3935397536,"shop=alcohol, brand=Plaza Wine & Spirits"
"Sequoia Crest, CA",,retail,445110,El Nopalito,,,,33.0370247,-117.2801537,,,n_3952878373,shop=supermarket
"Sequoia Crest, CA",,retail,445120,ampm,,,,33.1310685,-117.1214723,,,n_4041808555,"shop=convenience, brand=ampm"
"Sequoia Crest, CA",,retail,445120,ampm,,,,33.1445619,-117.097229,,,n_4042233889,"shop=convenience, brand=ampm"
"Sequoia Crest, CA",,retail,445120,ampm,"761 North Broadway, Escondido, CA, 92025",,,33.1298412,-117.0857586,,,n_4042750601,"shop=convenience, brand=ampm"
"Sequoia Crest, CA",,retail,445110,Sprouts Farmers Market,"149 South Las Posas Road, San Marcos, CA, 92078",+1 760-208-6041,https://www.sprouts.com/store/ca/san-marcos/s-las-posas-rd/,33.1405197,-117.1906977,,,n_4043009089,"shop=supermarket, brand=Sprouts Farmers Market"
"Sequoia Crest, CA",,retail,446120,Shape Threading Salon,"711 Center Drive, San Marcos, CA, 92069",,,33.133608,-117.1237611,,,n_4044990251,shop=beauty
"Sequoia Crest, CA",,retail,446120,ProfessioNAIL,,,,33.1356765,-117.1216191,,,n_4045005327,shop=beauty
"Sequoia Crest, CA",,retail,445310,Liquor,,,,33.1340641,-117.1194448,,,n_4045035889,shop=alcohol
"Sequoia Crest, CA",,retail,446120,Ballyhoo Salon,,,,33.1343998,-117.1192192,,,n_4045038854,shop=beauty
"Sequoia Crest, CA",,retail,452210,Ross,"181 South Las Posas Road, San Marcos, CA, 92078",+1 760-736-8192,,33.1385658,-117.1926791,,,n_4045185005,"shop=department_store, brand=Ross"
"Sequoia Crest, CA",,retail,446120,iTan,"1003 West San Marcos Boulevard, San Marcos, CA",,,33.1344001,-117.1883153,,,n_4045208489,shop=beauty
"Sequoia Crest, CA",,retail,446120,Best Nails,"633 South Rancho Santa Fe Road, San Marcos, 92078",,,33.1334707,-117.2062206,,,n_4045249579,shop=beauty
"Sequoia Crest, CA",,retail,445120,Campus Liquor,,,,33.1362353,-117.1633876,,,n_4045272189,shop=convenience
"Sequoia Crest, CA",,retail,446120,Emily's Nails & Spa,,,,33.135805,-117.1863526,,,n_4045410710,shop=beauty
"Sequoia Crest, CA",,retail,453991,Dab Central Smoke Shop,,,,33.1357907,-117.1866208,,,n_4045411294,shop=tobacco
"Sequoia Crest, CA",,retail,446120,Che Bangs the Salon,"985 Woodland Parkway, San Marcos, CA, 92069",,,33.1557703,-117.1289414,,,n_4045550148,shop=beauty
"Sequoia Crest, CA",,retail,445110,WinCo Foods,"555 Grand Avenue, San Marcos, 92078",,,33.135105,-117.1763246,,,n_4045684689,"shop=supermarket, brand=WinCo Foods"
"Sequoia Crest, CA",,retail,446120,Nail Bar,"731 West San Marcos Boulevard, San Marcos, 92078",,,33.1364279,-117.18019,,,n_4045700193,shop=beauty
"Sequoia Crest, CA",,retail,445110,San Marcos Market,,,,33.1436138,-117.1658426,,,n_4045763092,shop=supermarket
"Sequoia Crest, CA",,retail,453991,Monster E-Cigs,,,,33.1510128,-117.1916005,,,n_4045864703,shop=tobacco
"Sequoia Crest, CA",,retail,445110,Albertsons,"1301 East Vista Way, Vista, CA, 92084",+1 760-806-2785,https://local.albertsons.com/ca/vista/1301-e-vista-way.html,33.2185202,-117.224407,,,n_4048140686,"shop=supermarket, brand=Albertsons"
"Sequoia Crest, CA",,retail,445120,Food Mart,"500 West San Marcos Boulevard, San Marcos, CA, 92069",,,33.1395994,-117.1721621,,,n_4063505926,shop=convenience
"Sequoia Crest, CA",,retail,453991,American Smoke Shop,"1551 West Mission Road, San Marcos, CA, 92069",,,33.1514635,-117.1941941,,,n_4063678513,shop=tobacco
"Sequoia Crest, CA",,retail,452210,Ross,"1831 University Drive, Vista, CA, 92083",+1 760-758-6992,,33.1695063,-117.2164836,,,n_4064116269,"shop=department_store, brand=Ross"
"Sequoia Crest, CA",,retail,445110,Pala Mesa Market,,,,33.3326131,-117.1620916,,,n_4064423805,shop=supermarket
"Sequoia Crest, CA",,retail,453991,Kings Smoke Shop,"410 West Felicita Avenue, Escondido, CA, 92025",,,33.1047057,-117.0754207,,,n_4065415311,shop=tobacco
"Sequoia Crest, CA",,retail,445310,Texas Wine & Spirits,"945 Carlsbad Village Drive, Carlsbad, CA, 92008",,,33.1621116,-117.34391,,,n_4073631160,shop=alcohol
"Sequoia Crest, CA",,retail,446120,Nails by Taffy,"1061 West El Norte Parkway, Escondido, CA, 92026",,,33.1467278,-117.1078943,,,n_4073791412,shop=beauty
"Sequoia Crest, CA",,retail,452210,TJ Maxx,"11160 Rancho Carmel Drive, San Diego, CA, 92128",,,32.9804367,-117.083888,,,n_4082201453,"shop=department_store, brand=TJ Maxx"
"Sequoia Crest, CA",,retail,445120,Santa Fe Liquor,"Encinitas, CA",,,33.0366507,-117.27971,,,n_4143719189,shop=convenience
"Sequoia Crest, CA",,retail,446120,Twig,,,,33.1265861,-117.2533266,,,n_4229142736,shop=beauty
"Sequoia Crest, CA",,retail,445120,Gourmet Liquor,,,,33.1573161,-117.2006278,,,n_4358167443,shop=convenience
"Sequoia Crest, CA",,retail,445310,Del Mar Wine Company,,,,32.9504663,-117.2462366,,,n_4483048921,shop=wine
"Sequoia Crest, CA",,retail,446120,Hair Addix Salon,"2585 Pio Pico Drive #200, Carlsbad, CA, 92008",+1-760-434-7073,http://www.hairaddix.com,33.169044,-117.3446741,,,n_4514884074,"shop=beauty, operator=Tracy Beverson"
"Sequoia Crest, CA",,retail,445110,Seaside Market,,,,33.0220057,-117.2820777,,,n_4629690759,shop=supermarket
"Sequoia Crest, CA",,retail,445310,Mar Vista Liquor,,,,33.0208496,-117.2820712,,,n_4629690766,shop=alcohol
"Sequoia Crest, CA",,retail,446120,Fragrance Outlet,,,,33.1275124,-117.3214142,,,n_4653464303,shop=perfumery
"Sequoia Crest, CA",,retail,453110,Fower Frenzy,,,,33.0370885,-117.2921756,,,n_4654147580,shop=florist
"Sequoia Crest, CA",,retail,445210,La Jolla Butchers,"7660 Fay Avenue, La Jolla, CA, 92037",,,32.8428393,-117.2748648,,,n_4680932294,shop=butcher
"Sequoia Crest, CA",,retail,446120,Crawford Glam,"1273 ½ Prospect Street, La Jolla, CA, 92037",+1-858-230-7574,https://crawfordglam.com,32.8439249,-117.2739362,,,n_4798653388,"shop=beauty, operator=Ediane Crawford"
"Sequoia Crest, CA",,retail,445120,7-Eleven,,,https://www.7-eleven.com/locations/ca/carlsbad/201-oak-ave-13601,33.1567787,-117.3501939,,,n_4922485724,"shop=convenience, brand=7-Eleven"
"Sequoia Crest, CA",,retail,446120,Valley Nails,"8290 Mira Mesa Boulevard, San Diego, CA, 92126",,,32.9151194,-117.145804,,,n_4933000865,shop=beauty
"Sequoia Crest, CA",,retail,445310,BevMo!,"8140 Mira Mesa Boulevard, San Diego, CA, 92126",+1 858-320-0459,,32.9142844,-117.1484659,,,n_4933000871,"shop=alcohol, brand=BevMo!"
"Sequoia Crest, CA",,retail,452210,Marshalls,,,,32.9145097,-117.147097,,,n_4933000874,"shop=department_store, brand=Marshalls"
"Sequoia Crest, CA",,retail,452319,Dollar Tree,"8230 Mira Mesa Boulevard, San Diego, CA, 92126",,https://www.dollartree.com/locations/ca/san-diego/4271/,32.9141658,-117.1465707,,,n_4933000875,"shop=variety_store, brand=Dollar Tree"
"Sequoia Crest, CA",,retail,446120,European Wax Center,"Via Campanile, Carlsbad, CA, 92009",,https://locations.waxcenter.com/ca/carlsbad/carlsbad-la-costa-0072.html,33.0814615,-117.2325701,,,n_5020943215,"shop=beauty, brand=European Wax Center"
"Sequoia Crest, CA",,retail,446120,Healthy Hair Nectar,"220 12th Street, Del Mar, CA, 92014",+1-858-336-3999,https://healthyhairnectar.com/,32.956635,-117.2646835,,,n_5251472059,"shop=beauty, operator=Sarah Kate Holmes"
"Sequoia Crest, CA",,retail,445110,Grocery Outlet,,,,33.3687336,-117.24982,,,n_5266775210,"shop=supermarket, brand=Grocery Outlet"
"Sequoia Crest, CA",,retail,445110,ALDI,"1750 University Drive, Vista, CA, 92083-7772",+1 760-658-9292,https://stores.aldi.us/ca/vista/1750-university-dr,33.1722562,-117.2151824,,,n_5275798527,"shop=supermarket, brand=ALDI"
"Sequoia Crest, CA",,retail,445310,,,,,32.8055729,-117.2539583,,,n_5452270982,shop=alcohol
"Sequoia Crest, CA",,retail,445120,Shell,"660 Douglas Drive, CA",,,33.2449306,-117.3220901,,,n_5580211492,"shop=convenience, amenity=fuel"
"Sequoia Crest, CA",,retail,445120,,145 North Emerald Drive,,,33.1895541,-117.2789451,,,n_5585007446,shop=convenience
"Sequoia Crest, CA",,retail,446120,One Life,153 Highway 101,+1-858-793-9500,https://www.onelifediet.com/solanabeach,32.9931827,-117.2722768,,,n_5680630415,shop=beauty
"Sequoia Crest, CA",,retail,446120,Lavish Nails and Spa,,,,32.9203679,-117.2161787,,,n_5698193090,shop=beauty
"Sequoia Crest, CA",,retail,452210,Open Aire Farmer’s Market,"7300 Girard Avenue, 92037",,,32.8376649,-117.2716141,,,n_5861466486,shop=department_store
"Sequoia Crest, CA",,retail,445110,Sprouts Farmers Market,"16415 Paseo del Sur, San Diego, CA, 92127",+1 858-798-8232,https://www.sprouts.com/store/ca/san-diego/san-diego-del-sur/,33.0198021,-117.1233783,,,n_5866470188,"shop=supermarket, brand=Sprouts Farmers Market"
"Sequoia Crest, CA",,retail,445110,Trader Joe's,"1640 Garnet Avenue, San Diego, CA, 92109",+1 858-581-9101,https://locations.traderjoes.com/ca/san-diego/21/,32.8008673,-117.240676,,,n_6119560491,"shop=supermarket, brand=Trader Joe's"
"Sequoia Crest, CA",,retail,445292,Phoenix,,,,32.8335064,-117.1586427,,,n_6193804101,shop=confectionery
"Sequoia Crest, CA",,retail,446120,Nails 2000,"San Diego, CA",,,32.9540391,-117.230019,,,n_6283807350,shop=beauty
"Sequoia Crest, CA",,retail,445110,Northgate Market,,,,33.2164651,-117.2286666,,,n_6399823282,shop=supermarket
"Sequoia Crest, CA",,retail,446120,Top Nails & Spa,,,,33.2178418,-117.2245554,,,n_6399823392,shop=beauty
"Sequoia Crest, CA",,retail,445310,Sidewalk Spirits,,,,33.2222591,-117.2258361,,,n_6399823407,shop=alcohol
"Sequoia Crest, CA",,retail,445310,GreensPlease,,,,32.9512195,-117.0674986,,,n_6469328986,shop=beverages
"Sequoia Crest, CA",,retail,445110,Barons Market,,,,33.0237585,-117.0757598,,,n_6469345185,shop=supermarket
"Sequoia Crest, CA",,retail,446120,Golden Touch Nails & Spa,,+18587985534,,33.0048572,-117.0911493,,,n_6509884590,shop=beauty
"Sequoia Crest, CA",,retail,446120,TLC Hair & Nails,,,,32.8393682,-117.0986604,,,n_6558346142,shop=beauty
"Sequoia Crest, CA",,retail,445110,Primo Market,,,,32.8390419,-117.0986005,,,n_6558365500,shop=supermarket
"Sequoia Crest, CA",,retail,445120,,,,,32.8394832,-117.0981295,,,n_6558446945,shop=convenience
"Sequoia Crest, CA",,retail,445310,Country Wine and Spirits,,,,32.8224496,-117.102662,,,n_6636132837,shop=alcohol
"Sequoia Crest, CA",,retail,446120,Magic Mel Hair Creations,,,,32.8223755,-117.1022683,,,n_6636235534,shop=beauty
"Sequoia Crest, CA",,retail,446120,Top Star Nails,,,,32.8223092,-117.1019475,,,n_6636255642,shop=beauty
"Sequoia Crest, CA",,retail,445120,7-Eleven,,,,32.8212148,-117.0985305,,,n_6653630198,"shop=convenience, brand=7-Eleven"
"Sequoia Crest, CA",,retail,446120,Lashbar,,,,33.0202646,-117.1237682,,,n_6757862950,shop=beauty
"Sequoia Crest, CA",,retail,445292,See's Candies,"12045 Carmel Mountain Road, San Diego, CA, 92128",,,32.9833508,-117.0754463,,,n_6758166097,"shop=confectionery, brand=See's Candies"
"Sequoia Crest, CA",,retail,445110,Smart & Final,"10633 Tierrasanta Blvd, San Diego, CA, 92124",+18585654560,,32.8210907,-117.1010455,,,n_6786403113,"shop=supermarket, brand=Smart & Final"
"Sequoia Crest, CA",,retail,446110,Rite Aid,,,https://www.riteaid.com/locations/ca/san-diego/10631-tierrasanta-boulevard.html,32.8212495,-117.1015205,,,n_6786403114,"shop=chemist, brand=Rite Aid"
"Sequoia Crest, CA",,retail,452319,99 Cents Only Stores,,,https://locations.99only.com/ca/sandiego/discount-store-142.html,32.8302668,-117.2030997,,,n_7048020986,"shop=variety_store, brand=99 Cents Only Stores"
"Sequoia Crest, CA",,retail,445110,Namaste Plaza,"9162 Mira Mesa Boulevard, San Diego, CA, 92125",+1 866-968-0306,https://www.namasteplaza.com/index.php/,32.9179812,-117.1268725,,,n_7164725391,shop=supermarket
"Sequoia Crest, CA",,retail,445120,7-Eleven,"7807 Balboa Avenue, San Diego, CA, 92111",+18585059384,https://www.7-eleven.com/locations/ca/san-diego/7807-balboa-ave-35439,32.821291,-117.1545535,,,n_7223738145,"shop=convenience, brand=7-Eleven"
"Sequoia Crest, CA",,retail,446120,Color Nails,961 Palomar Airport Road,,,33.1215433,-117.3142264,,,n_7298122726,shop=beauty
"Sequoia Crest, CA",,retail,452210,Ross,"334 West El Norte Parkway, Escondido, CA, 92026-1925",+1 760-796-7672,,33.1438851,-117.0943506,,,n_7320643085,"shop=department_store, brand=Ross"
"Sequoia Crest, CA",,retail,445120,Food Mart,,,,33.0672993,-117.2645408,,,n_7352970563,shop=convenience
"Sequoia Crest, CA",,retail,445310,Country Wine & Spirits,,,,33.1510779,-117.3076479,,,n_7367805634,shop=alcohol
"Sequoia Crest, CA",,retail,446110,CVS Pharmacy,,,https://www.cvs.com/store-locator/san-marcos-ca-pharmacies/734-s-rancho-santa-fe-rd-san-marcos-ca-92078/storeid=9166,33.1327426,-117.2088506,,,n_7417803465,"shop=chemist, brand=CVS Pharmacy"
"Sequoia Crest, CA",,retail,446120,Ulta Beauty,"185 South Las Posas Road, San Marcos, CA, 92078",+1 760-744-0853,https://www.ulta.com/stores/san-marcos-ca-244,33.1383666,-117.1931311,,,n_7474555475,"shop=beauty, brand=Ulta Beauty"
"Sequoia Crest, CA",,retail,445110,Smart & Final Extra!,,,,33.1896559,-117.36012,,,n_7477889314,"shop=supermarket, brand=Smart & Final"
"Sequoia Crest, CA",,retail,446120,Jayden Presleigh Salon And Spa,,,,33.1602687,-117.3490741,,,n_7504188532,shop=beauty
"Sequoia Crest, CA",,retail,446110,CVS Pharmacy,,,https://www.cvs.com/store-locator/san-diego-ca-pharmacies/9225-twin-trails-drive-san-diego-ca-92129/storeid=9197,32.956224,-117.1289743,,,n_7523377459,"shop=chemist, brand=CVS Pharmacy"
"Sequoia Crest, CA",,retail,446120,Bath & Body Works,,,,33.0647397,-117.2663625,,,n_7638709501,"shop=cosmetics, brand=Bath & Body Works"
"Sequoia Crest, CA",,retail,445120,7-Eleven,"9187 Clairemont Mesa Boulevard, San Diego, CA, 92123-1209",+1 858-874-6629,https://www.7-eleven.com/locations/ca/san-diego/9187-clairemont-mesa-blvd-33542,32.8308183,-117.131314,,,n_7708999678,"shop=convenience, brand=7-Eleven"
"Sequoia Crest, CA",,retail,452319,Daiso Japan,"9420-B Mira Mesa Boulevard, San Diego, CA, 92126",+1-858-860-5318,https://daisous.com/,32.9180628,-117.1224751,,,n_7709105849,"shop=variety_store, brand=Daiso"
"Sequoia Crest, CA",,retail,445310,BevMo!,"11475 Carmel Mountain Road, San Diego, CA, 92128",,,32.9780766,-117.084233,,,n_7709517680,"shop=alcohol, brand=BevMo!"
"Sequoia Crest, CA",,retail,445110,ALDI,"6755 Mira Mesa Boulevard, San Diego, CA, 92121-4311",+1 833-479-7021,https://stores.aldi.us/ca/san-diego/6755-mira-mesa-blvd,32.906059,-117.1725729,,,n_7712188719,"shop=supermarket, brand=ALDI"
"Sequoia Crest, CA",,retail,446120,Mimosa Nails & Spa,"12075 Carmel Mountain Road, San Diego, CA, 92128",,,32.9828115,-117.074304,,,n_7722437594,shop=beauty
"Sequoia Crest, CA",,retail,445310,Jimbo's Liquor,,,,32.9177878,-117.1234888,,,n_7723165721,shop=alcohol
"Sequoia Crest, CA",,retail,445120,ampm,,,,32.8319139,-117.1378027,,,n_7732654091,"shop=convenience, brand=ampm"
"Sequoia Crest, CA",,retail,446120,SD Nails,"5375 Kearny Villa Road, San Diego, CA, 92123",,,32.8307895,-117.1384912,,,n_7732654453,shop=beauty
"Sequoia Crest, CA",,retail,446120,Dr. K Cosmetic,,,,33.1298519,-117.1668185,,,n_7747153188,shop=cosmetics
"Sequoia Crest, CA",,retail,446120,GoBahli Nails,,,,33.1296079,-117.1666861,,,n_7747153193,shop=beauty
"Sequoia Crest, CA",,retail,446120,Born Pretty Nails,"1882 West El Norte Parkway, Escondido, CA, 92026",,,33.1555606,-117.1248342,,,n_7754960252,shop=beauty
"Sequoia Crest, CA",,retail,446120,Elements Salon,"1874 West El Norte Parkway, Escondido, CA, 92026",760-743-5571,,33.1554109,-117.1245823,,,n_7754960260,shop=beauty
"Sequoia Crest, CA",,retail,445310,Hoppy Wine & Spirits,"9253 Clairemont Mesa Boulevard, San Diego, CA, 92123",+18582767064,,32.830769,-117.1275465,,,n_7795726061,shop=alcohol
"Sequoia Crest, CA",,retail,446120,Uptown New York Style Salon,"524 Stevens Avenue, Solana Beach, CA, 92075",,,32.9906428,-117.2606744,,,n_7844417943,shop=beauty
"Sequoia Crest, CA",,retail,445120,7-Eleven,"1766 North Coast Highway 101, Encinitas, CA, 92024",+1 760-944-9864,https://www.7-eleven.com/locations/ca/encinitas/1766-n-coast-hwy-101-39526,33.0793791,-117.3075338,,,n_7848168023,"shop=convenience, brand=7-Eleven"
"Sequoia Crest, CA",,retail,452319,99 Cents Only Stores,,,,33.0439113,-117.2589893,,,n_7857780455,"shop=variety_store, brand=99 Cents Only Stores"
"Sequoia Crest, CA",,retail,452210,Target,"9500 Gilman Drive, La Jolla, CA, 92093",+1 858-410-0390,https://www.target.com/sl/uc-san-diego-price-center/3369,32.8793731,-117.237052,,,n_8038972791,"shop=department_store, brand=Target"
"Sequoia Crest, CA",,retail,445120,,,,,32.9335067,-117.2401763,,,n_8086670569,shop=convenience
"Sequoia Crest, CA",,retail,446120,Infinity Electrolysis,"10035 Carroll Canyon Road, San Diego, CA, 92131",858-621-3440,https://www.infinityelectrolysis.com/,32.9025102,-117.1107269,,,n_8105023855,shop=beauty
"Sequoia Crest, CA",,retail,446120,LashMi,,,,33.1263462,-117.3235444,,,n_8155919325,shop=cosmetics
"Sequoia Crest, CA",,retail,446120,Color Nails And Spa,"Carlsbad, CA, 92009",17609290971,,33.1044444,-117.2680555,,,n_8174268052,shop=beauty
"Sequoia Crest, CA",,retail,445310,Scripps Ranch Liquor,,,,32.9163436,-117.1123212,,,n_8215175881,shop=alcohol
"Sequoia Crest, CA",,retail,453110,El Camino Florist,,,,33.1645167,-117.3520301,,,n_8280168496,shop=florist
"Sequoia Crest, CA",,retail,445110,Sprouts Farmers Market,"2618 El Camino Real, Carlsbad, CA, 92008",+1 760-730-1123,https://sprouts.com/store/ca/carlsbad/carlsbad,33.1764097,-117.3250281,,,n_8332520316,"shop=supermarket, brand=Sprouts Farmers Market, operator=Sprouts Farmers Market"
"Sequoia Crest, CA",,retail,452319,Daiso Japan,"8199 Clairemont Mesa Boulevard, San Diego, CA, 92111",+1 858-598-2782,http://daisojapan.com,32.8323325,-117.1462078,,,n_8365224286,"shop=variety_store, brand=Daiso"
"Sequoia Crest, CA",,retail,453991,Smoke Shop,,,,33.1328752,-117.2051856,,,n_8441651090,shop=tobacco
"Sequoia Crest, CA",,retail,445110,Pauma Valley Trading Center,"16220 CA-76, Pauma Valley, CA, 92061",+17607423206,,33.3030745,-116.977328,,,n_8446689373,shop=supermarket
"Sequoia Crest, CA",,retail,445120,Sixth Market,,,,32.8800954,-117.2421988,,,n_8462604274,shop=convenience
"Sequoia Crest, CA",,retail,446110,CVS Pharmacy,683 Lomas Santa Fe,+18587556697,https://www.cvs.com/store-locator/solana-beach-ca-pharmacies/683-lomas-santa-fe-dr-solana-beach-ca-92075/storeid=9187,32.9945167,-117.259543,,,n_8600867375,"shop=chemist, brand=CVS Pharmacy"
"Sequoia Crest, CA",,retail,446120,Best City Nails,,,,33.4828732,-117.0950502,,,n_8603575898,shop=beauty
"Sequoia Crest, CA",,retail,446110,CVS Pharmacy,,,https://www.cvs.com/store-locator/oceanside-ca-pharmacies/3925-n-river-rd-oceanside-ca-92058/storeid=9585,33.2447683,-117.323272,,,n_8609449364,"shop=chemist, brand=CVS Pharmacy"
"Sequoia Crest, CA",,retail,445110,ALDI,"1352 West Valley Parkway, Escondido, CA, 92029-2132",+1 760-983-2941,https://stores.aldi.us/ca/escondido/1352b-w-valley-pkwy,33.1127791,-117.1039186,,,n_8624308274,"shop=supermarket, brand=ALDI"
"Sequoia Crest, CA",,retail,445110,ALDI,"4251 Oceanside Boulevard, Oceanside, CA, 92056-3471",+1-833-479-7052,https://stores.aldi.us/ca/oceanside/4251-oceanside-blvd,33.2079607,-117.2819851,,,n_8624327164,"shop=supermarket, brand=ALDI"
"Sequoia Crest, CA",,retail,445110,Jimbo's,"12841 El Camino Real, San Diego, CA, 92130",+1 858-793-7755,https://jimbos.com,32.9499006,-117.2337859,,,n_8873711079,shop=supermarket
"Sequoia Crest, CA",,retail,445310,Del Mar Liquor And Deli,,,,32.9563559,-117.2638433,,,n_8898575108,shop=alcohol
"Sequoia Crest, CA",,retail,446120,Gel Touch Nail And Spa,2521 Palomar Airport Road,,,33.127352,-117.2694174,,,n_8975303817,shop=beauty
"Sequoia Crest, CA",,retail,446120,Salon de Claude,"16621 Dove Canyon Road, San Diego, CA, 92127",,,33.0159266,-117.1107744,,,n_9030060778,shop=beauty
"Sequoia Crest, CA",,retail,446120,Lantis Nail & Spa,,,,33.0155637,-117.1112677,,,n_9030060785,shop=beauty
"Sequoia Crest, CA",,retail,446110,CVS Pharmacy,,,https://www.cvs.com/store-locator/fallbrook-ca-pharmacies/1101-s-mission-rd-fallbrook-ca-92028/storeid=9110,33.373623,-117.254155,,,n_9038367789,"shop=chemist, brand=CVS Pharmacy"
"Sequoia Crest, CA",,retail,446120,Poway Nails and Spa,"13456 Poway Road, Poway, CA, 92064",,,32.9574604,-117.0385825,,,n_9179215673,shop=beauty
"Sequoia Crest, CA",,retail,452319,Dollar Tree,"12624 Poway Road, Poway, CA, 92064",+18587628916,https://www.dollartree.com/locations/ca/poway/5041/,32.9545728,-117.0578809,,,n_9179215698,"shop=variety_store, brand=Dollar Tree"
"Sequoia Crest, CA",,retail,446120,Clarity Nails & Spa,"13323 Poway Road, Poway, CA, 92064",+18587482266,,32.955723,-117.0427107,,,n_9181471385,shop=beauty
"Sequoia Crest, CA",,retail,445310,Don's Liquor,"13337 Poway Road, Poway, CA, 92064",+18587487500,,32.9555587,-117.0427202,,,n_9181471386,shop=alcohol
"Sequoia Crest, CA",,retail,445120,The Local Bottle Shop,"13530 Pomerado Road, Poway, CA, 92064",+1 858 999 8090,http://thelocalbottleshop.com/,32.9605121,-117.0628669,,,n_9201465510,shop=convenience
"Sequoia Crest, CA",,retail,446120,European Wax Center,"10445 Craftsman Way, San Diego, CA, 92127",,https://locations.waxcenter.com/ca/sandiego/san-diego-4s-ranch-0088.html,33.0196465,-117.1136926,,,n_9289258756,"shop=beauty, brand=European Wax Center"
"Sequoia Crest, CA",,retail,446120,UTC Nails Lounge & Spa,,,,32.8700652,-117.2335638,,,n_9301845254,shop=beauty
"Sequoia Crest, CA",,retail,446120,VIP Nails Spa,,,,32.9799565,-117.0771048,,,n_9311519587,shop=beauty
"Sequoia Crest, CA",,retail,446120,iTan,,,,32.9799198,-117.0767144,,,n_9311519593,shop=beauty
"Sequoia Crest, CA",,retail,446120,Ulta Beauty,"11485 Carmel Mountain Road, San Diego, CA, 92128",+1 858-376-4574,https://www.ulta.com/stores/san-diego-ca-1475,32.9779984,-117.0838222,,,n_9311713940,"shop=beauty, brand=Ulta Beauty"
"Sequoia Crest, CA",,retail,446120,Chroma Nails Lounge & Spa,"11134 Rancho Carmel Drive, San Diego, CA, 92128",,,32.9797812,-117.082717,,,n_9313377558,shop=beauty
"Sequoia Crest, CA",,retail,446120,Best Nails & Spa,,,,32.9358017,-117.1005246,,,n_9316839889,shop=beauty
"Sequoia Crest, CA",,retail,452210,Marshalls,673 Lomas Santa Fe Drive,,,32.9933701,-117.258085,,,n_9322650118,"shop=department_store, brand=Marshalls"
"Sequoia Crest, CA",,retail,446120,Dip Nails Spa,,,,33.0214602,-117.0731889,,,n_9327953186,shop=beauty
"Sequoia Crest, CA",,retail,453991,Poway Smoke Shop,"13524 Poway Road, Poway, CA, 92064",+1-858-513-1922,,32.9572137,-117.038234,,,n_9328613103,shop=tobacco
"Sequoia Crest, CA",,retail,445120,Ultra Fuel,,+1 858-748-1554,https://ultra-fuel.business.site/,32.9514782,-117.0629522,,,n_9333206728,shop=convenience
"Sequoia Crest, CA",,retail,446120,Helen's Nails n Spa,,,,32.9512202,-117.0644351,,,n_9335630120,shop=beauty
"Sequoia Crest, CA",,retail,445310,Distiller's Outlet,,,,32.9508471,-117.0639855,,,n_9335630125,shop=alcohol
"Sequoia Crest, CA",,retail,445110,North Park Produce,"12336 Poway Road, Poway, CA, 92064",+1 858-391-9100,https://www.northparkproducepoway.com,32.9526981,-117.0646315,,,n_9335661842,shop=supermarket
"Sequoia Crest, CA",,retail,446110,CVS Pharmacy,,,https://www.cvs.com/store-locator/poway-ca-pharmacies/12358-poway-road-poway-ca-92064/storeid=9105,32.9528441,-117.063504,,,n_9335661843,"shop=chemist, brand=CVS Pharmacy"
"Sequoia Crest, CA",,retail,446120,Rose's Nails,,,,32.9819974,-117.0608659,,,n_9359626182,shop=beauty
"Sequoia Crest, CA",,retail,445310,Murphy Canyon Market & Liquor,"5250 Murphy Canyon Road, San Diego, CA, 92123",+18585410309,,32.832504,-117.1212399,,,n_9409174370,shop=alcohol
"Sequoia Crest, CA",,retail,453991,Sweet Dreams Smoke Shop,"5250 Murphy Canyon Road, San Diego, CA, 92123",+18582771779,,32.8322847,-117.1211886,,,n_9409174371,shop=tobacco
"Sequoia Crest, CA",,retail,446120,Ultimate Nails,"5250 Murphy Canyon Road, San Diego, CA, 92123",+18582920970,,32.8323555,-117.1212054,,,n_9409174372,shop=beauty
"Sequoia Crest, CA",,retail,446120,Elite Nail Salon,"9353 Clairemont Mesa Boulevard, San Diego, CA, 92123",,,32.8307645,-117.1276865,,,n_9409191239,shop=beauty
"Sequoia Crest, CA",,retail,445310,Silverado Liquor & Cigar,,,,32.9828831,-117.0617214,,,n_9426500053,shop=alcohol
"Sequoia Crest, CA",,retail,445110,Sprouts Farmers Market,"15727 Bernardo Heights Pwky., San Diego, CA, 92128",+1 858-385-1606,https://www.sprouts.com/store/ca/san-diego/rancho-bernardo/,33.0034502,-117.0583989,,,n_9426502677,"shop=supermarket, brand=Sprouts Farmers Market"
"Sequoia Crest, CA",,retail,446120,Seva Beauty,,,,33.1358276,-117.1231605,,,n_9431635002,"shop=beauty, brand=Seva Beauty"
"Sequoia Crest, CA",,retail,445110,Amazon Fresh,"14837 Pomerado Road, Poway, CA, 92064",,,32.9812944,-117.0609687,,,n_9760170478,"shop=supermarket, brand=Amazon Fresh"
"Sequoia Crest, CA",,retail,446120,Opulance Salon,"7522 La Jolla Boulevard, La Jolla, 92037",,,32.8395047,-117.2788286,,,n_9771024253,shop=beauty
"Sequoia Crest, CA",,retail,446120,Salon Massimo,"7534 La Jolla Boulevard, La Jolla, 92037",,,32.8396739,-117.2788847,,,n_9771024255,shop=beauty
"Sequoia Crest, CA",,retail,446120,Sun Barber,,,,32.8303248,-117.2769618,,,n_9775355747,shop=beauty
"Sequoia Crest, CA",,retail,445292,Yogurt Barn,"1334 Main Street, Ramona, CA, 92065",,,33.0381528,-116.8740514,,,n_9802539517,"shop=confectionery, amenity=ice_cream"
"Sequoia Crest, CA",,retail,445292,KD's Donuts,"1433 Main Street, Ramona, CA, 92065",+17607893326,,33.0394264,-116.876071,,,n_9802539518,"shop=confectionery, amenity=fast_food"
"Sequoia Crest, CA",,retail,445120,Circle K,,,,32.9368987,-117.1003107,,,n_9860993569,"shop=convenience, brand=Circle K"
"Sequoia Crest, CA",,retail,452319,Five Below,,+1 858-547-7542,https://locations.fivebelow.com/ca/san-diego/8138-mira-mesa-blvd,32.914282,-117.1486824,,,n_9879184222,"shop=variety_store, brand=Five Below"
"Sequoia Crest, CA",,retail,445210,Swagyu Chop Shop,,,https://www.swagyuchopshop.com/pages/locations#poway,32.9775987,-117.0238279,,,n_9881946770,shop=butcher
"Sequoia Crest, CA",,retail,445310,Mission Cellars Local Handcrafted Wine,,,,32.9688994,-117.035859,,,n_9908210872,shop=wine
"Sequoia Crest, CA",,retail,445120,Prospect Market,,,,32.8481898,-117.2740247,,,n_9917587403,shop=convenience
"Sequoia Crest, CA",,retail,446120,Phenix,,,,33.0034196,-117.0586701,,,n_9943958488,shop=beauty
"Sequoia Crest, CA",,retail,446120,Nails Spa,,,,33.0034615,-117.0588377,,,n_9943958489,shop=beauty
"Sequoia Crest, CA",,retail,446120,LaBelle Nail Boutique,,,,32.9451564,-117.084674,,,n_9944290013,shop=beauty
"Sequoia Crest, CA",,retail,446120,The Nail Lounge & Spa,,,,32.9628091,-117.0919432,,,n_10083148997,shop=beauty
"Sequoia Crest, CA",,retail,445110,Old Poway Market,,,,32.9686351,-117.0358568,,,n_10090476535,shop=supermarket
"Sequoia Crest, CA",,retail,445120,7-Eleven,"801 S Twin Oaks Valley Road, San Marcos, CA, 92078",+1 760-290-3204,https://www.7-eleven.com/locations/ca/san-marcos/801-s-twinoaks-valley-rd-39902,33.1230839,-117.1657383,,,n_10164930451,"shop=convenience, brand=7-Eleven"
"Sequoia Crest, CA",,retail,446120,Nail Bar Twin Oaks,"803 South Twin Oaks Valley Road, San Marcos, CA, 92078",,,33.1229218,-117.1654611,,,n_10164930452,shop=beauty
"Sequoia Crest, CA",,retail,446120,Fashion Nails,"997 West San Marcos Boulevard, San Marcos, CA, 92078",,,33.1342941,-117.1872763,,,n_10164930460,shop=beauty
"Sequoia Crest, CA",,retail,445310,e Food Stores and Liquor,"997 West San Marcos Boulevard, San Marcos, CA, 92078",,,33.1347088,-117.1872926,,,n_10164930463,shop=alcohol
"Sequoia Crest, CA",,retail,445110,Lilac Foods,,+17607490400,,33.2359752,-117.052162,,,n_10174642528,shop=supermarket
"Sequoia Crest, CA",,retail,445120,Stage Stop Mercantile,,,,33.045488,-116.8619088,,,n_10263014400,"shop=convenience, amenity=fuel"
"Sequoia Crest, CA",,retail,445120,Circle K,,,,33.0443141,-116.8639834,,,n_10263321564,"shop=convenience, amenity=fuel, brand=Circle K"
"Sequoia Crest, CA",,retail,446120,Fancy Nails & Spa,,,,32.9551033,-117.038236,,,n_10265972582,shop=beauty
"Sequoia Crest, CA",,retail,446120,Lush,,,,32.8712222,-117.210182,,,n_10266194841,"shop=cosmetics, brand=Lush"
"Sequoia Crest, CA",,retail,445310,Country Wine & Spirits,,+1 760-789-3354,,33.0087704,-116.9243033,,,n_10269036029,shop=alcohol
"Sequoia Crest, CA",,retail,446120,Radiance,,,,32.8669815,-117.2060221,,,n_10270088947,shop=beauty
"Sequoia Crest, CA",,retail,446191,Cream of the Crop,,,,33.1715288,-117.3593829,,,n_10294246291,shop=health_food
"Sequoia Crest, CA",,retail,445310,Epic Wine and Spirits,"11395 Poway Road, San Diego, CA, 92128",,,32.9454552,-117.084488,,,n_10583685977,shop=alcohol
"Sequoia Crest, CA",,retail,445120,,,,,33.1800225,-117.3261384,,,n_10610275827,shop=convenience
"Sequoia Crest, CA",,retail,445110,Stater Brothers,,,,33.0348795,-116.8789907,,,n_10635226105,shop=grocery
"Sequoia Crest, CA",,retail,446120,bluemercury,"12925 El Camino Real, San Diego, CA, 92130",,,32.9518249,-117.2328351,,,n_10650654891,"shop=cosmetics, brand=bluemercury"
"Sequoia Crest, CA",,retail,446110,CVS Pharmacy,,,https://www.cvs.com/store-locator/rancho-bernardo-ca-pharmacies/16773-bernardo-center-dr-rancho-bernardo-ca-92128/storeid=9111,33.0184535,-117.0734903,,,n_10823508979,"shop=chemist, brand=CVS Pharmacy"
"Sequoia Crest, CA",,retail,446120,Blush & Co.,,,,33.1704639,-117.3578125,,,n_10832499807,shop=beauty
"Sequoia Crest, CA",,retail,453991,Outer Limits,,,,33.1710596,-117.3588491,,,n_10832522406,shop=tobacco
"Sequoia Crest, CA",,retail,446120,Itan Spray Tan,,,,32.820904,-117.1805075,,,n_10835627099,shop=beauty
"Sequoia Crest, CA",,retail,446120,Sola Salons,,,,32.817678,-117.1500169,,,n_10836166837,"shop=beauty, brand=Sola Salons"
"Sequoia Crest, CA",,retail,446110,Rite Aid,1201 South Coast Highway,,https://www.riteaid.com/locations/ca/oceanside/1201-south-coast-highway.html,33.1830689,-117.3693625,,,n_10847502581,"shop=chemist, brand=Rite Aid"
"Sequoia Crest, CA",,retail,446120,Amazing Lash Studio,,,,32.9396975,-117.2314549,,,n_10894567149,"shop=beauty, brand=Amazing Lash Studio"
"Sequoia Crest, CA",,retail,445292,Seabreeze Craft Chocolates,"3840 Valley Centre Drive, San Diego, CA, 92130",+1 858-792-4750,https://www.seabreezechocolates.com,32.9395978,-117.2314759,,,n_10894567151,shop=chocolate
"Sequoia Crest, CA",,retail,446120,Nails & Spa on 56,,,,32.9395554,-117.2314751,,,n_10894567152,shop=beauty
"Sequoia Crest, CA",,retail,452210,The Exchange,,,,32.8927309,-117.1240474,,,n_10904424246,shop=department_store
"Sequoia Crest, CA",,retail,445110,Commissary,,,,32.8926447,-117.125355,,,n_10904424247,shop=supermarket
"Sequoia Crest, CA",,retail,453110,Oceanside Florist,,,,33.1728995,-117.3604869,,,n_10914011605,shop=florist
"Sequoia Crest, CA",,retail,445120,Cardiff Valero Market,,,,33.0268417,-117.2731866,,,n_10957413520,shop=convenience
"Sequoia Crest, CA",,retail,445310,BevMo!,,,,33.1958475,-117.2486096,,,n_11246924422,"shop=alcohol, brand=BevMo!"
"Sequoia Crest, CA",,retail,445110,rodeo's,,,,33.2007282,-117.2469134,,,n_11246924423,shop=supermarket
"Sequoia Crest, CA",,retail,445110,Attic Projects,"7840 Dunbrook Road, San Diego, CA, 92126",858-246-7421,https://atticprojectscompany.com,32.8929395,-117.152788,,,n_11304378749,shop=supermarket
"Sequoia Crest, CA",,retail,445110,UTC Market,,,,32.8732344,-117.2176231,,,n_11388491936,shop=supermarket
"Sequoia Crest, CA",,retail,445110,H Mart,"7725 Balboa Avenue, 92111",+1 (858) 836-9230,https://www.hmart.com/weekly-sales-and-events/california/,32.8208455,-117.1574004,,,n_11393087769,shop=supermarket
"Sequoia Crest, CA",,retail,445310,Village Spirit Shop,"502 South Main Avenue, Fallbrook, CA, 92028",,,33.378408,-117.2511926,,,n_11418295074,shop=alcohol
"Sequoia Crest, CA",,retail,453110,Fallbrook Florist,"522 South Main Avenue, Fallbrook, 92028",,https://www.fallbrookflorist.net/,33.3779774,-117.2512181,,,n_11418295080,shop=florist
"Sequoia Crest, CA",,retail,445120,7-Eleven,"631 South Main Street, Fallbrook, CA, 92028-2945",+1 760-728-0583,https://www.7-eleven.com/locations/ca/fallbrook/631-s.-main-st.-21800,33.3769925,-117.251788,,,n_11418295207,"shop=convenience, brand=7-Eleven"
"Sequoia Crest, CA",,retail,446120,Indego blue,,,,33.3789635,-117.2516781,,,n_11418295250,shop=beauty
"Sequoia Crest, CA",,retail,453991,Smoke Chalet,"235 East Mission Road, Fallbrook, CA, 92028",,,33.3844866,-117.2493151,,,n_11421018088,shop=tobacco
"Sequoia Crest, CA",,retail,445110,Frazier Farms Natural Grocery,"1820 Oceanside Boulevard, 92054",,https://frazierfarmsmarket.com/,33.1936453,-117.3588372,,,n_11427038469,shop=grocery
"Sequoia Crest, CA",,retail,445110,Market at the Ranch,,,,32.9126577,-117.0794373,,,n_11427190319,shop=supermarket
"Sequoia Crest, CA",,retail,446120,,,,,32.8407871,-117.2728298,,,n_11527207527,shop=beauty
"Sequoia Crest, CA",,retail,446120,Nancy's Nails,,,,32.8396371,-117.275597,,,n_11527216746,shop=beauty
"Sequoia Crest, CA",,retail,446120,,,,,32.8407395,-117.2734786,,,n_11527236758,shop=beauty
"Sequoia Crest, CA",,retail,452210,Burlington,,,,33.4775294,-117.1028367,,,n_11660997232,"shop=department_store, brand=Burlington"
"Sequoia Crest, CA",,retail,445292,Balboa Candy,,,,32.8461836,-117.274557,,,n_11759183578,shop=confectionery
"Sequoia Crest, CA",,retail,446120,Sephora,,,,32.9807362,-117.0788361,,,n_11772643522,"shop=cosmetics, brand=Sephora"
"Sequoia Crest, CA",,retail,445310,Mike's Liquor & Market,,,,33.1871889,-117.3725865,,,n_11794882957,shop=alcohol
"Sequoia Crest, CA",,retail,445110,ALDI,"32130 Temecula Parkway, Temecula, CA, 92592",+1 855-955-2534,https://stores.aldi.us/ca/temecula/32130-temecula-pkwy,33.482943,-117.0968201,,,n_11809317188,"shop=supermarket, brand=ALDI"
"Sequoia Crest, CA",,retail,445120,Circle K,,,,32.9813623,-117.2486503,,,n_11931134501,"shop=convenience, brand=Circle K"
"Sequoia Crest, CA",,retail,452319,Williams Sonoma,,,,32.8721676,-117.2094245,,,n_11957668377,shop=general
"Sequoia Crest, CA",,retail,446120,Skin Laundry,,,,32.8722195,-117.2088392,,,n_11974178040,"shop=beauty, brand=Skin Laundry"
"Sequoia Crest, CA",,retail,446120,Revive,,,,32.8720538,-117.2084121,,,n_11974188767,shop=beauty
"Sequoia Crest, CA",,retail,446120,Madison Reed,,,,32.8721842,-117.2088903,,,n_11974200293,"shop=beauty, brand=Madison Reed"
"Sequoia Crest, CA",,retail,445110,Cuisinery Food Market,"7340 Miramar Road, San Diego, CA, 92126",+1-858-263-7041,https://www.cuisineryfoodmarket.com/pages/san-diego-store-cheese-and-caviar,32.8836409,-117.1556159,,,n_12036663231,shop=supermarket
"Sequoia Crest, CA",,retail,446120,Le Labo,,,,32.8715997,-117.2126052,,,n_12048162892,shop=perfumery
"Sequoia Crest, CA",,retail,446120,Jo Malone,,,,32.8717125,-117.2126112,,,n_12048218746,"shop=perfumery, brand=Jo Malone"
"Sequoia Crest, CA",,retail,446120,Saje,,,,32.8708382,-117.2125397,,,n_12048219977,"shop=cosmetics, brand=Saje"
"Sequoia Crest, CA",,retail,445110,Sprouts Farmers Market,"8142 Mira Mesa Boulevard, San Diego, CA, 92126",+1 858-880-0210,https://www.sprouts.com/store/ca/san-diego/mira-mesa/,32.9142865,-117.1481345,,,n_12048716753,"shop=supermarket, brand=Sprouts Farmers Market"
"Sequoia Crest, CA",,retail,445292,J.sweets,"4240 Kearny Mesa Road, San Diego, CA, 92111",+1-858-264-4900,https://www.jsweetsstore.com,32.8189571,-117.1504153,,,n_12067081577,shop=confectionery
"Sequoia Crest, CA",,retail,453991,Smoke & Snacks,,,,32.7991783,-117.2444158,,,n_12076331481,shop=tobacco
"Sequoia Crest, CA",,retail,446120,Skin Habit,,,,32.7980245,-117.2503909,,,n_12076331490,shop=beauty
"Sequoia Crest, CA",,retail,446120,Brazilia Skin Care and Spa,,,,32.95326,-117.2326203,,,n_12076668553,shop=beauty
"Sequoia Crest, CA",,retail,453110,Petals by the Beach,,,,32.7994856,-117.2428899,,,n_12077363793,shop=florist
"Sequoia Crest, CA",,retail,446120,Angel Nails & Spa,,,,32.800143,-117.2411058,,,n_12077400080,shop=beauty
"Sequoia Crest, CA",,retail,446120,PB Timeless Nails,,,,32.7992262,-117.2441723,,,n_12078923511,shop=beauty
"Sequoia Crest, CA",,retail,445292,Chocolate Bash,,,,32.7981832,-117.2471798,,,n_12080244337,shop=confectionery
"Sequoia Crest, CA",,retail,446120,Star Nails,,,,32.7982291,-117.2474306,,,n_12080362133,shop=beauty
"Sequoia Crest, CA",,retail,446120,Browz On Point,,,,32.7980991,-117.2491808,,,n_12080394938,shop=beauty
"Sequoia Crest, CA",,retail,445310,Criscola's Liquor,,,,32.7983392,-117.2557007,,,n_12083514550,shop=alcohol
"Sequoia Crest, CA",,retail,446120,Pacific Beach Nails & Spa,,,,32.7986759,-117.2453394,,,n_12083754413,shop=beauty
"Sequoia Crest, CA",,retail,446120,Essential Nails,,,,32.7976173,-117.252071,,,n_12083776897,shop=beauty
"Sequoia Crest, CA",,retail,452319,Five Below,,+1 858-379-0357,https://locations.fivebelow.com/ca/san-diego/4711-clairemont-dr,32.8297516,-117.2044676,,,n_12105311874,"shop=variety_store, brand=Five Below"
"Sequoia Crest, CA",,retail,446120,City Salon,"4647 Convoy Street, San Diego, CA, 92111",,,32.8253734,-117.1544599,,,n_12105363488,shop=beauty
"Sequoia Crest, CA",,retail,446120,Aqua Day Spa,,,,32.8249744,-117.1543527,,,n_12105365808,shop=beauty
"Sequoia Crest, CA",,retail,446120,Alchemē,,+1 858-299-4990,https://alchemehealth.com,32.9514415,-117.2362235,,,n_12106720389,shop=beauty
"Sequoia Crest, CA",,retail,446120,Sephora,,,,32.9525123,-117.2346621,,,n_12113865768,"shop=cosmetics, brand=Sephora"
"Sequoia Crest, CA",,retail,453110,Four Seasons Flower Shop,"13289 Black Mountain Road, San Diego, CA, 92129",,,32.9585188,-117.1248699,,,n_12122515232,shop=florist
"Sequoia Crest, CA",,retail,446110,CVS Pharmacy,"10776 Westview Parkway, San Diego, CA, 921126",+1 858-566-4551,https://www.cvs.com/store-locator/san-diego-ca-pharmacies/10776-westview-pkwy-san-diego-ca-92126/storeid=3068,32.9164614,-117.1221108,,,n_12123538116,"shop=chemist, brand=CVS Pharmacy"
"Sequoia Crest, CA",,retail,446120,Bath & Body Works,,,,32.9162935,-117.1186399,,,n_12123656436,"shop=cosmetics, brand=Bath & Body Works"
"Sequoia Crest, CA",,retail,446120,Asie Salon & Spa,"3860 Convoy Street, San Diego, CA, 92111",+1 858-397-3605,,32.8140367,-117.1540445,,,n_12128676283,shop=beauty
"Sequoia Crest, CA",,retail,446120,Lashbar,,+1 858-769-9591,https://www.lashbar.com/delsur,33.0202811,-117.123693,,,n_12138526160,shop=beauty
"Sequoia Crest, CA",,retail,446120,Carmel Valley Nail Lounge,5550 Carmel Mountain Road,,,32.9288536,-117.1974349,,,n_12145121093,shop=beauty
"Sequoia Crest, CA",,retail,446110,Pure Care Pharmacy,5550 Carmel Mountain Road,,,32.9289775,-117.1975451,,,n_12145134927,shop=chemist
"Sequoia Crest, CA",,retail,446120,Glamour Nails,3485 Del Mar Heights Road,,,32.9532892,-117.2310741,,,n_12146940535,shop=beauty
"Sequoia Crest, CA",,retail,446120,European Wax Center,3485 Del Mar Heights Road,,,32.9532414,-117.2312037,,,n_12146940556,shop=beauty
"Sequoia Crest, CA",,retail,446120,Moraga Salon,4390 Moraga Ave,8582708266,,32.823428,-117.2140901,,,n_12162006394,shop=beauty
"Sequoia Crest, CA",,retail,445110,,,,,33.1366638,-117.2054554,,,n_12168870607,shop=grocery
"Sequoia Crest, CA",,retail,445120,ampm,"9720 Carroll Centre Road, San Diego, CA, 92126",,,32.899373,-117.1223846,,,n_12177724014,"shop=convenience, brand=ampm"
"Sequoia Crest, CA",,retail,453991,Epic Smoke & Vape,"9720 Carroll Centre Road, San Diego, CA, 92126",,,32.899519,-117.1225652,,,n_12177724019,shop=tobacco
"Sequoia Crest, CA",,retail,446120,Avati Salon,"4019 Avati Drive, 92117",,,32.8136768,-117.2168829,,,n_12188888302,shop=beauty
"Sequoia Crest, CA",,retail,446120,Bloom Beauty and Lash Bar,"4023 Avati Drive, 92117",,,32.8137011,-117.216945,,,n_12190831101,shop=beauty
"Sequoia Crest, CA",,retail,446120,Rancho Nails & Spa,"3440 Del Lago Boulevard, Plaza del Lago",,,33.0707271,-117.070373,,,n_12191904105,shop=beauty
"Sequoia Crest, CA",,retail,445310,Lago Country Wine & Spirits,,,,33.0704997,-117.0703731,,,n_12191904107,shop=alcohol
"Sequoia Crest, CA",,retail,452319,Last Chance Store,,,,33.0722561,-117.066687,,,n_12191957237,shop=variety_store
"Sequoia Crest, CA",,retail,446120,European Wax Center,,,,33.5054368,-117.1471994,,,n_12193712919,"shop=beauty, brand=European Wax Center"
"Sequoia Crest, CA",,retail,446120,Beauty By Threading,,,,33.505364,-117.1487384,,,n_12193712931,shop=beauty
"Sequoia Crest, CA",,retail,446120,Salon 29,,,,33.5054105,-117.1472535,,,n_12193712933,shop=beauty
"Sequoia Crest, CA",,retail,446120,SalonDLM,,,,33.5039915,-117.1516028,,,n_12195904672,shop=beauty
"Sequoia Crest, CA",,retail,453991,Smoke & Dreams,,,,33.5037951,-117.1510165,,,n_12195904685,shop=tobacco
"Sequoia Crest, CA",,retail,446120,Talk of the Town Luxury Salon Suites,,,,33.5041434,-117.1516249,,,n_12195904689,shop=beauty
"Sequoia Crest, CA",,retail,446120,Aloha Nails & Botique,,,,33.5036909,-117.1511826,,,n_12195904690,shop=beauty
"Sequoia Crest, CA",,retail,446120,Glamour Nails,,,,32.9208134,-117.2135441,,,n_12199285295,shop=beauty
"Sequoia Crest, CA",,retail,445310,Bay Ho Liquor,Avati Drive,,,32.8139293,-117.2168454,,,n_12228083101,shop=alcohol
"Sequoia Crest, CA",,retail,446120,Serenity,,,,32.9615471,-117.1897193,,,n_12230459313,shop=beauty
"Sequoia Crest, CA",,retail,445310,RJ Liquor,,,,32.8231884,-117.2139016,,,n_12232828401,shop=alcohol
"Sequoia Crest, CA",,retail,445310,Crown Liquor & Wine,"Mira Mesa Boulevard, San Diego, CA, 92126",,,32.9180134,-117.1252271,,,n_12239248512,shop=alcohol
"Sequoia Crest, CA",,retail,446120,Shiseido,"7330 Clairemont Mesa Boulevard, San Diego, CA, 92111",,,32.8336189,-117.1605528,,,n_12239579414,"shop=cosmetics, brand=Shiseido"
"Sequoia Crest, CA",,retail,445120,Starshine Market,,,,32.8358599,-117.2226108,,,n_12239921001,shop=convenience
"Sequoia Crest, CA",,retail,453110,Floral & Gifts,,,,32.95416,-117.2300053,,,n_12260048889,shop=florist
"Sequoia Crest, CA",,retail,446110,Rite Aid,"3515 Del Mar Heights Road, San Diego, CA, 92130",+1 858-792-7040,https://www.riteaid.com/locations/ca/san-diego/3515-delmar-heights-road.html,32.9535123,-117.2306935,,,n_12260110522,"shop=chemist, brand=Rite Aid"
"Sequoia Crest, CA",,retail,446120,Skin Laundry,,,,32.9510817,-117.2328958,,,n_12260361490,"shop=beauty, brand=Skin Laundry"
"Sequoia Crest, CA",,retail,446120,Addendum Salon,,,,32.9508123,-117.2330436,,,n_12260361491,shop=beauty
"Sequoia Crest, CA",,retail,446120,Lulu Nails,,+1 858-924-8222,,32.950746,-117.2330183,,,n_12260369064,shop=beauty
"Sequoia Crest, CA",,retail,453110,Societe,,,,32.9790443,-117.2498083,,,n_12271534005,shop=florist
"Sequoia Crest, CA",,retail,446110,CVS Pharmacy,"8260 Mira Mesa Boulevard, San Diego, CA, 92126",+1 858-566-3031,https://www.cvs.com/store-locator/san-diego-ca-pharmacies/8260-mira-mesa-blvd-san-diego-ca-92126/storeid=9177,32.9143312,-117.1458344,,,n_12356725001,"shop=chemist, brand=CVS Pharmacy"
"Sequoia Crest, CA",,retail,446120,Tori Nail Bar & Spa,"8280 Mira Mesa Boulevard, San Diego, CA, 92126",+1 858-860-5915,,32.9146582,-117.1463144,,,n_12356827708,shop=beauty
"Sequoia Crest, CA",,retail,446120,Perfect Beauty Bar,"8240 Mira Mesa Boulevard, San Diego, CA, 92126",+1 858-357-1446,,32.9146516,-117.1465846,,,n_12356856213,shop=beauty
"Sequoia Crest, CA",,retail,446120,Kreate Beauty Supply House,,,,33.4832007,-117.0853275,,,n_12360490052,shop=beauty
"Sequoia Crest, CA",,retail,446120,Canny Nails & Spa,,,,33.4851031,-117.0811274,,,n_12360490060,shop=beauty
"Sequoia Crest, CA",,retail,446120,Bvon Nails,,,,33.4846134,-117.079354,,,n_12360490068,shop=beauty
"Sequoia Crest, CA",,retail,446120,European Wax Center,,,,33.4841268,-117.0816186,,,n_12360490088,"shop=beauty, brand=European Wax Center"
"Sequoia Crest, CA",,retail,446120,TT Nails & Spa,,,,33.4787943,-117.1013299,,,n_12363488750,shop=beauty
"Sequoia Crest, CA",,retail,445120,,,,,33.4791807,-117.1034447,,,n_12363488765,shop=convenience
"Sequoia Crest, CA",,retail,446120,Salon de Cheveux,,,,33.480992,-117.1009122,,,n_12363503328,shop=beauty
"Sequoia Crest, CA",,retail,453991,,,,,33.4820431,-117.1010546,,,n_12363503333,shop=tobacco
"Sequoia Crest, CA",,retail,446120,Tip & Toe Spa,,,,33.4820129,-117.1010399,,,n_12363503341,shop=beauty
"Sequoia Crest, CA",,retail,446120,Sally’s Nail Spa,,,,33.4815851,-117.0896094,,,n_12372730049,shop=beauty
"Sequoia Crest, CA",,retail,453991,,,,,33.4822077,-117.0896651,,,n_12372730052,shop=tobacco
"Sequoia Crest, CA",,retail,446120,Bath & Body Works,,,,33.479941,-117.0960365,,,n_12372730064,"shop=cosmetics, brand=Bath & Body Works"
"Sequoia Crest, CA",,retail,445120,7-Eleven,,,,33.4818394,-117.0927962,,,n_12372730065,"shop=convenience, brand=7-Eleven"
"Sequoia Crest, CA",,retail,446120,Red Persimmon Nails & Spa,,,,33.4809086,-117.0921743,,,n_12372730071,shop=beauty
"Sequoia Crest, CA",,retail,445292,See's Candies,,,,33.4808739,-117.0922669,,,n_12372730073,"shop=confectionery, brand=See's Candies"
"Sequoia Crest, CA",,retail,445310,Grazing Theory Wine and Cheese Shop,,,,33.4791266,-117.0974853,,,n_12392689117,shop=wine
"Sequoia Crest, CA",,retail,445310,Marshall Stuart Fine Wines,,,,33.4788978,-117.0974154,,,n_12392689128,shop=wine
"Sequoia Crest, CA",,retail,446120,Majestic Brows Threading Salon,,,,33.4823996,-117.0947922,,,n_12392840815,shop=beauty
"Sequoia Crest, CA",,retail,445299,Venissimo,"2650 Via de la Valle, Del Mar, CA, 92014",+1 858-847-9616,https://www.venissimo.com,32.9812624,-117.2510901,,,n_12405798892,shop=cheese
"Sequoia Crest, CA",,retail,445120,,,,,33.2199398,-117.2254166,,,n_12409416119,shop=convenience
"Sequoia Crest, CA",,retail,445120,ExtraMile,,,,33.1390433,-117.1748773,,,n_12457447634,"shop=convenience, brand=ExtraMile"
"Sequoia Crest, CA",,retail,446120,KT Nails,,,,33.103941,-117.2661426,,,n_12462056562,shop=beauty
"Sequoia Crest, CA",,retail,445110,Frazier Farms,,,,33.1937478,-117.3587812,,,n_12466355353,shop=supermarket
"Sequoia Crest, CA",,retail,446120,The Cosmetics Company Store,,,,33.1264233,-117.3215777,,,n_12467494371,shop=cosmetics
"Sequoia Crest, CA",,retail,446191,Thousand Petal Lotus,"264 Vista Village Drive, Vista, CA, 92084",,https://www.thousandpetallotusvista.com,33.1990984,-117.2484939,,,n_12472989367,shop=health_food
"Sequoia Crest, CA",,retail,445310,,"264 Vista Village Drive, Vista, CA, 92084",,,33.1989804,-117.2486911,,,n_12472989378,shop=alcohol
"Sequoia Crest, CA",,retail,445120,Wisconsin Market,,,,33.1870141,-117.3757997,,,n_12487171138,shop=convenience
"Sequoia Crest, CA",,retail,446110,CVS Pharmacy,"2662 Del Mar Heights Road, Del Mar, CA, 92014",+1 858-481-8601,https://www.cvs.com/store-locator/del-mar-ca-pharmacies/2662-del-mar-heights-rd-del-mar-ca-92014/storeid=9247,32.9502347,-117.2463444,,,n_12487601697,"shop=chemist, brand=CVS Pharmacy"
"Sequoia Crest, CA",,retail,446120,Moon Nails,,+1 760-753-3466,,33.0479714,-117.2616056,,,n_12491212118,shop=beauty
"Sequoia Crest, CA",,retail,445110,Trader Joe's,"13644 Poway Road, Poway, CA, 92064",+1-858-294-6131,,32.9579193,-117.03531,,,n_12579540675,"shop=supermarket, brand=Trader Joe's"
"Sequoia Crest, CA",,retail,453110,Semper Fi Florist,"521 Vandegrift Boulevard, Oceanside, CA, 92057",,,33.2557591,-117.2994971,,,n_12586517353,shop=florist
"Sequoia Crest, CA",,retail,452319,Dollar Tree,"4908 North River Road, Oceanside, CA, 92057",,,33.2510886,-117.3006748,,,n_12586517354,"shop=variety_store, brand=Dollar Tree"
"Sequoia Crest, CA",,retail,446120,VIP MedSpa Clinic,"11665 Avena Place, San Diego, CA, 92128",+1 858-451-6500,https://vipmedspaclinic.com/,33.0168008,-117.0776413,,,n_12651739114,shop=beauty
"Sequoia Crest, CA",,retail,446120,PQ Deluxe Nails & Spa,"13173 Black Mountain Road, San Diego, CA, 92129",,,32.9568149,-117.1263436,,,n_12653491366,shop=beauty
"Sequoia Crest, CA",,retail,446120,Blissful Beauty,"13215 Black Mountain Road, San Diego, CA, 92129",,,32.9579238,-117.1260888,,,n_12653491374,shop=beauty
"Sequoia Crest, CA",,retail,446120,Fantastic Threading,"13295 Black Mountain Road, San Diego, CA, 92129",+18582407400,,32.9588828,-117.1246989,,,n_12653491377,shop=beauty
"Sequoia Crest, CA",,retail,445110,Grocery Outlet,"1527 Mission Avenue, Oceanside, CA, 92058",+1+760-696-9900,https://www.groceryoutlet.com/store-locator?store_location=oceanside%2C+ca,33.2003625,-117.3678604,,,n_12658118874,"shop=supermarket, brand=Grocery Outlet"
"Sequoia Crest, CA",,retail,452210,dd's Discounts,"1527 Mission Avenue, Oceanside, CA, 92058",+1-760-721-2172,https://ddsdiscounts.com,33.2008043,-117.3668475,,,n_12658125155,"shop=department_store, brand=dd's Discounts"
"Sequoia Crest, CA",,retail,445110,El Super,"1527 Mission Avenue, Oceanside, CA, 92058",1+760-681-5130,https://elsupermarkets.com/store/oceanside/,33.2006047,-117.3673051,,,n_12658129047,"shop=supermarket, brand=El Super"
"Sequoia Crest, CA",,retail,452319,Neighborsavor Market,"2144 Avenida de la Playa, San Diego, CA, 92037",,,32.8541707,-117.2567605,,,n_12660709354,shop=general
"Sequoia Crest, CA",,retail,453991,Lung Doctor Smoke Shop,,,,33.1133589,-117.0795519,,,n_12685992540,shop=tobacco
"Sequoia Crest, CA",,retail,445310,Georgia’s Liquor,,,,33.1131809,-117.0794,,,n_12685992554,shop=alcohol
"Sequoia Crest, CA",,retail,446120,Shades Tan,"603 Vista Way, Oceanside, CA",,https://www.shadestan.com,33.1725985,-117.3584551,,,n_12692906561,shop=beauty
"Sequoia Crest, CA",,retail,453991,Wacky Tobacky,,,,32.7989944,-117.2438409,,,n_12695050958,shop=tobacco
"Sequoia Crest, CA",,retail,445110,Grocery Outlet Mira Mesa,"8145 Mira Mesa Boulevard, 92126",,https://www.groceryoutlet.com/,32.9112024,-117.1482067,,,n_12729889101,shop=supermarket
"Sequoia Crest, CA",,retail,445110,AKSHAR CASH N CARRY,"9520-B Black Mountain Road, 92126",,,32.895937,-117.1240337,,,n_12745533101,shop=supermarket
"Sequoia Crest, CA",,retail,453110,Bridget's Blooms,"1055 Torrey Pines Road, La Jolla, 92037",,https://www.bridgetslajollablooms.com/,32.8425385,-117.2719759,,,n_12847966821,shop=florist
"Sequoia Crest, CA",,retail,445310,Keg N Bottle,"1030 Torrey Pines Road, La Jolla, CA, 92037",,,32.8427366,-117.2723361,,,n_12849736059,shop=alcohol
"Sequoia Crest, CA",,retail,445292,Yiko Yiko,"8008 Clairemont Mesa Boulevard, San Diego, CA, 92111",,,32.8330991,-117.1499163,,,n_12859757037,shop=confectionery
"Sequoia Crest, CA",,retail,446120,Waxing the City,,,,32.9207676,-117.2135444,,,n_12903818356,"shop=beauty, brand=Waxing the City"
"Sequoia Crest, CA",,retail,446120,The Nail Shop,,,,32.8471546,-117.2729487,,,n_13007047852,shop=beauty
"Sequoia Crest, CA",,retail,446120,LaserAway,,,,32.9505277,-117.233153,,,n_13018161538,"shop=beauty, brand=LaserAway"
"Sequoia Crest, CA",,retail,446120,iTAN,,,,32.9507721,-117.2330087,,,n_13018187966,shop=beauty
"Sequoia Crest, CA",,retail,452319,Miniso,,,,32.950918,-117.2329849,,,n_13019535768,"shop=variety_store, brand=Miniso"
"Sequoia Crest, CA",,retail,446120,,,,,33.0650321,-117.3013498,,,n_13025964745,shop=beauty
"Sequoia Crest, CA",,retail,445310,Leucadia Liquor,,,,33.0608075,-117.301141,,,n_13025964750,shop=alcohol
"Sequoia Crest, CA",,retail,445292,Hattendo Mochicream,,,,32.8189842,-117.1505015,,,n_13027241549,shop=confectionery
"Sequoia Crest, CA",,retail,445120,,,,,32.9375106,-117.1131415,,,w_31800400,shop=convenience
"Sequoia Crest, CA",,retail,445110,Tokyo Central,"8151 Balboa Avenue, San Diego, CA, 92111",+1 858-384-0248,https://www.tokyocentral.com/sandiego,32.8214405,-117.1478133,,,w_31800402,shop=supermarket
"Sequoia Crest, CA",,retail,445120,,,,,32.8065187,-117.2186355,,,w_31800483,shop=convenience
"Sequoia Crest, CA",,retail,452210,Ross,"4240 Kearny Mesa Road, San Diego, CA, 92111",,,32.8177876,-117.1500122,,,w_31800675,"shop=department_store, brand=Ross"
"Sequoia Crest, CA",,retail,445120,ampm,"9320 Mira Mesa Boulevard, San Diego, CA, 92126",,,32.9177177,-117.1242971,,,w_31800988,"shop=convenience, brand=ampm"
"Sequoia Crest, CA",,retail,445110,Aldi,,,,32.819771,-117.1828324,,,w_31802079,"shop=supermarket, brand=Aldi"
"Sequoia Crest, CA",,retail,445120,7-Eleven,,,https://www.7-eleven.com/locations/ca/san-diego/2803-05-garnet-ave-20337,32.8058177,-117.2181825,,,w_31802414,"shop=convenience, brand=7-Eleven"
"Sequoia Crest, CA",,retail,445110,Smart & Final,,,,32.8333667,-117.1795974,,,w_31803083,"shop=supermarket, brand=Smart & Final"
"Sequoia Crest, CA",,retail,445110,Tokyo Central,"8125 Balboa Avenue, San Diego, CA, 92111",+1 858-384-0245,https://www.tokyocentral.com/sandiego,32.8211874,-117.1479837,,,w_31803611,shop=grocery
"Sequoia Crest, CA",,retail,445110,Ralphs,"3455 Del Mar Heights Road, San Diego, CA, 92130",+1 858-259-1077,https://www.ralphs.com/stores/grocery/ca/san-diego/del-mar-highlands-town-center/703/00167,32.9528872,-117.2317645,,,w_31809424,"shop=supermarket, brand=Ralphs"
"Sequoia Crest, CA",,retail,445120,,,,,32.8225612,-117.1843277,,,w_31809487,shop=convenience
"Sequoia Crest, CA",,retail,445110,Trader Joe's,"9850 Hibert Street, San Diego, CA, 92131",+1 858-549-9185,https://locations.traderjoes.com/ca/san-diego/221/,32.9141652,-117.1151287,,,w_31810167,"shop=supermarket, brand=Trader Joe's"
"Sequoia Crest, CA",,retail,445110,ALDI,"9340 Mira Mesa Boulevard, San Diego, CA, 92126",,,32.9182712,-117.1233074,,,w_31816118,shop=supermarket
"Sequoia Crest, CA",,retail,445120,ExtraMile,,,,32.8388208,-117.277844,,,w_31816246,"shop=convenience, brand=ExtraMile"
"Sequoia Crest, CA",,retail,452210,At Home,,,,32.9848394,-117.0776614,,,w_31816368,shop=department_store
"Sequoia Crest, CA",,retail,445120,7-Eleven,"6953 La Jolla Boulevard, La Jolla, CA, 92037-5427",+1 858-454-3432,https://www.7-eleven.com/locations/ca/la-jolla/6953-la-jolla-blvd-13610,32.8328485,-117.2765102,,,w_31816684,"shop=convenience, brand=7-Eleven"
"Sequoia Crest, CA",,retail,445120,AMPM,"3170 Carmel Valley Road, San Diego, CA, 92130",,,32.9348579,-117.2376649,,,w_31816707,"shop=convenience, amenity=fuel"
"Sequoia Crest, CA",,retail,446110,CVS Pharmacy,,,https://www.cvs.com/store-locator/la-jolla-ca-pharmacies/7525-eads-ave-la-jolla-ca-92037/storeid=9926,32.840601,-117.2747533,,,w_31817125,"shop=chemist, brand=CVS Pharmacy"
"Sequoia Crest, CA",,retail,445120,ExtraMile,"7070 Clairemont Mesa Boulevard, San Diego, 92111",,,32.8330455,-117.1644979,,,w_31817247,"shop=convenience, brand=ExtraMile"
"Sequoia Crest, CA",,retail,445310,Carmel Valley Market,,,,32.9333806,-117.2529789,,,w_31817271,shop=alcohol
"Sequoia Crest, CA",,retail,452210,Target,"8251 Mira Mesa Boulevard, San Diego, CA, 92126-2603",+1 858-530-1901,https://www.target.com/sl/mira-mesa/305,32.9102575,-117.1460852,,,w_31817480,"shop=department_store, brand=Target"
"Sequoia Crest, CA",,retail,445310,Total Wine,"11940 Carmel Mountain Road, San Diego, CA, 92128",+1 858-924-8234,https://www.totalwine.com/store-info/1130,32.982898,-117.0784053,,,w_31817601,"shop=alcohol, brand=Total Wine"
"Sequoia Crest, CA",,retail,445120,Mega Mart,"2204 Torrey Pines Road, La Jolla, CA, 92037",,,32.8508675,-117.2537124,,,w_31818272,shop=convenience
"Sequoia Crest, CA",,retail,452210,Marshalls,"11730 Carmel Mountain Rd, San Diego, CA, 92128",,,32.9812981,-117.0796047,,,w_31818426,"shop=department_store, brand=Marshalls"
"Sequoia Crest, CA",,retail,445120,ampm,"12610 Sabre Springs Parkway, San Diego, CA, 92128",,,32.9483624,-117.0963528,,,w_31819045,"shop=convenience, brand=ampm"
"Sequoia Crest, CA",,retail,445110,Smart & Final,"10740 Westview Parkway, San Diego, CA, 92126",+1 858-578-7343,,32.9154686,-117.1221617,,,w_31819171,"shop=supermarket, brand=Smart & Final"
"Sequoia Crest, CA",,retail,452319,Dollar Tree,"Clairemont Mesa Boulevard, San Diego, CA, 92117",,https://www.dollartree.com/locations/ca/san-diego/5854/,32.8356848,-117.1873989,,,w_31819257,"shop=variety_store, brand=Dollar Tree"
"Sequoia Crest, CA",,retail,446110,CVS Pharmacy,,,https://www.cvs.com/store-locator/san-diego-ca-pharmacies/14589-camino-del-norte-san-diego-ca-92128/storeid=9192,32.9909042,-117.0708536,,,w_31819467,"shop=chemist, brand=CVS Pharmacy"
"Sequoia Crest, CA",,retail,445110,Whole Foods Market,"2600 Via De La Valle, Del Mar, CA, 92014",+1 858-436-9800,https://www.wholefoodsmarket.com/stores/delmar,32.9813311,-117.2519815,,,w_31819571,"shop=supermarket, brand=Whole Foods Market"
"Sequoia Crest, CA",,retail,445110,Food 4 Less,,,,32.8310024,-117.1630714,,,w_31819648,"shop=supermarket, brand=Food 4 Less"
"Sequoia Crest, CA",,retail,445110,Stater Bros.,"9909 Carmel Mountain Road, San Diego, CA, 92129",+1 858-484-1281,https://www.staterbros.com/stores/167,32.9594302,-117.1136925,,,w_31819868,"shop=supermarket, brand=Stater Bros."
"Sequoia Crest, CA",,retail,445110,Akshar Cash And Carry,"9520 Black Mountain Road, San Diego, 92126",+1 858 689 2222,,32.8961749,-117.1241323,,,w_31839906,shop=supermarket
"Sequoia Crest, CA",,retail,445120,Pepper Canyon Market,"9500 Gilman Drive, La Jolla, 92093-0068",(858) 534-9480,,32.8791548,-117.2309713,,,w_31841315,shop=convenience
"Sequoia Crest, CA",,retail,445120,Alta Dena Market,,,,32.8195477,-117.1730526,,,w_31842267,shop=convenience
"Sequoia Crest, CA",,retail,446110,CVS Pharmacy,"8831 Villa la Jolla Drive, La Jolla, CA",,https://www.cvs.com/store-locator/la-jolla-ca-pharmacies/8831-villa-la-jolla-dr-la-jolla-ca-92037/storeid=9195,32.8692913,-117.2306569,,,w_31842842,"shop=chemist, brand=CVS Pharmacy"
"Sequoia Crest, CA",,retail,445120,Circle K,,,,32.8299009,-117.1035752,,,w_31843562,"shop=convenience, brand=Circle K"
"Sequoia Crest, CA",,retail,445110,Zion Market,"7655 Clairemont Mesa Boulevard, San Diego, CA, 92111",,https://www.zionmarket.com,32.8313902,-117.1550781,,,w_31844161,shop=supermarket
"Sequoia Crest, CA",,retail,452210,Macy's,,,https://www.macys.com/stores/ca/sandiego/westfield-university-towne-center_547.html,32.8690708,-117.2123644,,,w_31844475,"shop=department_store, brand=Macy's"
