Location,Search Keyword,Segment,NAICS Code,Business Name,Address,Phone Number,Website,Latitude,Longitude,Rating,User Ratings,Place ID,Types
"Auberry, CA",,retail,445110,Walmart Neighborhood Market,"1830 Shaw Avenue, Clovis, CA, 93611",+1 559-862-2718,https://www.walmart.com/store/5633-clovis-ca,36.807126,-119.680832,,,n_2653323103,"shop=supermarket, brand=Walmart, operator=Walmart"
"Auberry, CA",,retail,445120,Mini-Mart Liquor & Deli,,,,37.332078,-119.6545992,,,n_2926179877,shop=convenience
"Auberry, CA",,retail,445120,EZ Mart,"40135 Highway 41, Oakhurst, CA",,,37.3313773,-119.6544219,,,n_2926186729,shop=convenience
"Auberry, CA",,retail,445120,DJ's Dollar Daze,,,,37.0376926,-119.513003,,,n_2948376474,shop=convenience
"Auberry, CA",,retail,452319,G.I. Jim's Military Surplus,,,,37.0377821,-119.5133041,,,n_2948384514,shop=variety_store
"Auberry, CA",,retail,452319,Cloud's Cutter,,,,37.0376601,-119.5136799,,,n_2948397387,shop=variety_store
"Auberry, CA",,retail,445120,Millerton Country Store,,,,36.9704718,-119.62421,,,n_2948490923,shop=convenience
"Auberry, CA",,retail,446120,Royal Nails,,,,36.8388769,-119.6811825,,,n_3545960954,shop=beauty
"Auberry, CA",,retail,445120,Bob's Market,,,,37.1068112,-119.3190463,,,n_3549410919,shop=convenience
"Auberry, CA",,retail,445120,7-Eleven,"5630 East Ashlan, Fresno, CA, 93727",+1 559-291-9025,https://www.7-eleven.com/locations/ca/fresno/5630-e-ashlan-13916,36.7928168,-119.698805,,,n_4004486093,"shop=convenience, brand=7-Eleven"
"Auberry, CA",,retail,445110,Vons,"3100 Fowler Avenue, Clovis, CA, 93611",+1 559-294-6720,https://local.vons.com/ca/clovis/3100-fowler-ave.html,36.795317,-119.68425,,,n_4004486094,"shop=supermarket, brand=Vons"
"Auberry, CA",,retail,445110,SaveMart,Clovis,,,36.8101207,-119.6737704,,,n_4005055083,shop=supermarket
"Auberry, CA",,retail,445310,Vallee,"Clovis, CA",,,36.8099489,-119.6745965,,,n_4005055084,shop=alcohol
"Auberry, CA",,retail,446120,Bath & Body Works,"7820 North Via Del Rio, Fresno, CA, 93720",+15593533917,https://www.bathandbodyworks.com/?cm_mmc=local_BBW02156,36.8496986,-119.788852,,,n_4275280050,"shop=cosmetics, brand=Bath & Body Works"
"Auberry, CA",,retail,445292,Reimer's Candies and Gifts,"41969 Highway 41, Oakhurst, CA, 93644",+1-559-642-3232,https://www.reimerscandies.com/,37.359317,-119.6442488,,,n_4889009564,shop=confectionery
"Auberry, CA",,retail,445120,,,,,37.357387,-119.60852,,,n_5940951485,shop=convenience
"Auberry, CA",,retail,445110,Grocery Outlet,,,,37.3341395,-119.656658,,,n_6597719928,"shop=supermarket, brand=Grocery Outlet"
"Auberry, CA",,retail,453110,,,,,37.3338531,-119.6488783,,,n_6819116700,shop=florist
"Auberry, CA",,retail,445110,ALDI,"1725 Herndon Avenue, Clovis, CA, 93611-0530",+1 833-479-7011,https://stores.aldi.us/ca/clovis/1725-herndon-ave,36.8378683,-119.68617,,,n_8663633215,"shop=supermarket, brand=ALDI"
"Auberry, CA",,retail,445110,Dollar General Market,"Clovis, CA",+1 559-712-7970,https://www.dollargeneral.com/store-directory/ca/clovis/13518,36.8223918,-119.7104875,,,n_9196747449,"shop=supermarket, brand=Dollar General"
"Auberry, CA",,retail,452319,Goodwill,North Blackstone Avenue,,,36.8308398,-119.7910335,,,n_9791345017,shop=variety_store
"Auberry, CA",,retail,446120,DaVi Nails,,,,36.8395707,-119.6953598,,,n_10246141010,"shop=beauty, brand=DaVi Nails"
"Auberry, CA",,retail,445310,BevMo!,,,,36.8393283,-119.6975449,,,n_11253946628,"shop=alcohol, brand=BevMo!"
"Auberry, CA",,retail,445292,Rocky Mountain Chocolate Factory,"130 Paseo Del Centro, Fresno, CA, 93720",+15592408360,https://www.rmcf.com/CA/Fresno50958,36.8495008,-119.7887145,,,n_11853668050,"shop=confectionery, brand=Rocky Mountain Chocolate Factory"
"Auberry, CA",,retail,446120,Sephora,"7831 North Via Del Rio, Fresno, CA, 93720",+15594461986,https://www.sephora.com/happening/stores/river-park-fresno?utm_source=gmb&utm_medium=Yext,36.8496994,-119.7892767,,,n_11861524153,"shop=cosmetics, brand=Sephora"
"Auberry, CA",,retail,446120,Shi Nails & Spa,"7880 North Via Del Rio, Fresno, CA, 93720",+15594361288,https://shinailspafresno.com/,36.8502156,-119.7885796,,,n_11865418939,shop=beauty
"Auberry, CA",,retail,446120,European Wax Center,"7885 North Via Del Rio, Fresno, CA, 93720",+15594389700,https://locations.waxcenter.com/ca/fresno/fresno-riverpark-0214.html,36.8505611,-119.7887821,,,n_11865418945,"shop=beauty, brand=European Wax Center"
"Auberry, CA",,retail,445292,See's Candies,"65 East Via La Plata, Fresno, CA, 93720",+15594316560,https://chocolateshops.sees.com/ca/fresno/chocolate_shops_fresno_ca_2ca024.html,36.8484146,-119.7895126,,,n_11867778678,"shop=confectionery, brand=See's Candies"
"Auberry, CA",,retail,446120,The Lash Lounge,"70 El Camino, Fresno, CA, 93720",+15593777118,https://www.thelashlounge.com/ca-fresno-river-park/,36.8480631,-119.7892416,,,n_11867778687,"shop=beauty, brand=The Lash Lounge"
"Auberry, CA",,retail,452319,Five Below,"7628 North Blackstone Avenue, Fresno, CA, 93720",+1 559-400-0692,https://locations.fivebelow.com/ca/fresno/7628-north-blackstone-ave,36.846845,-119.7886887,,,n_11867778693,"shop=variety_store, brand=Five Below"
"Auberry, CA",,retail,446120,Apollo Nail Salon,"7622 North Blackstone Avenue, Fresno, CA, 93720",+15594386789,https://apollonailspa.com/,36.8466669,-119.7884969,,,n_11867778694,shop=beauty
"Auberry, CA",,retail,452210,Marshalls,"7440 North Blackstone Avenue, Fresno, CA, 93720",+15594399072,https://www.marshalls.com/,36.8449379,-119.7890522,,,n_11867778701,"shop=department_store, brand=Marshalls"
"Auberry, CA",,retail,445310,BevMo!,"7639 North Blackstone Avenue, Fresno, CA, 93720",+15594312626,https://www.bevmo.com/,36.8464689,-119.7916622,,,n_11868156403,"shop=alcohol, brand=BevMo!"
"Auberry, CA",,retail,446120,Envy Nail & Spa,"132 West Nees Avenue, Fresno, CA, 93711",+15592619983,,36.8526537,-119.7921152,,,n_11875044312,shop=beauty
"Auberry, CA",,retail,445310,Riverpark Liquor,"132 West Nees Avenue, Fresno, CA, 93711",+15594325468,,36.8522898,-119.7922849,,,n_11875044316,shop=alcohol
"Auberry, CA",,retail,452319,Soccer Express,"7975 North Blackstone Avenue, Fresno, CA, 93720",+15594327511,http://www.soccerexpressinc.com/,36.8514437,-119.792201,,,n_11875044324,shop=general
"Auberry, CA",,retail,445310,Total Wine,"7925 North Blackstone Avenue, Fresno, CA, 93720",+1 559-547-3160,https://www.totalwine.com/store-info/california-fresno/1119,36.8511723,-119.7944086,,,n_11878285535,"shop=alcohol, brand=Total Wine"
"Auberry, CA",,retail,446120,Ulta Beauty,"7911 North Blackstone Avenue, Fresno, CA, 93720",+1 559-490-0907,https://www.ulta.com/stores/fresno-ca-286,36.8504388,-119.7944014,,,n_11878285538,"shop=cosmetics, brand=Ulta Beauty"
"Auberry, CA",,retail,446120,QueenBee Nails and Spa,"7723 North Blackstone Avenue, Fresno, CA, 93720",+15594395891,https://queenbeenailspafresno.com/,36.8483685,-119.7916115,,,n_11878285567,shop=beauty
"Auberry, CA",,retail,445310,Pinedale Liquor & Video,"7339 North Blackstone Avenue, Pinedale, CA, 93650",+15594368979,,36.8434106,-119.7910046,,,n_11880436685,shop=alcohol
"Auberry, CA",,retail,452210,Big Lots,"7370 North Blackstone Avenue, Fresno, CA, 93650",+15595001010,https://local.biglots.com/ca/fresno/4061,36.8440053,-119.7889885,,,n_11880436686,"shop=department_store, brand=Big Lots"
"Auberry, CA",,retail,445120,Treading Post,,,,36.864115,-119.3466713,,,n_11882462598,shop=convenience
"Auberry, CA",,retail,445110,Ponderosa Market,,,,37.0775693,-119.4849116,,,n_11882478816,shop=supermarket
"Auberry, CA",,retail,445120,MR5 Food Mart,,,,36.8201068,-119.379605,,,n_11882537614,shop=convenience
"Auberry, CA",,retail,445110,Smart & Final Extra!,"5700 North Blackstone Avenue, Fresno, CA, 93710",+15594395954,https://www.smartandfinal.com/store,36.8210667,-119.7881552,,,n_11889588912,"shop=supermarket, brand=Smart & Final"
"Auberry, CA",,retail,446120,Lucky Star Nails & Spa,"5776 North Blackstone Avenue, Fresno, CA, 93710",+15594397499,,36.8221919,-119.7898513,,,n_11898068128,shop=beauty
"Auberry, CA",,retail,445310,Redwave Liquor,"2633 East Shaw Avenue, Fresno, CA, 93710",+15593480700,https://www.instagram.com/redwave_liquor/?hl=en,36.8079235,-119.7404852,,,n_11911077827,shop=alcohol
"Auberry, CA",,retail,446120,Eternity & Beyond,"4950 North Woodrow Avenue, Fresno, CA, 93726",+15599173750,https://www.eternity-and-beyond.com/contact-us.html,36.80757,-119.740629,,,n_11911077848,shop=cosmetics
"Auberry, CA",,retail,452210,Macy's,"1732 East Shaw Avenue, Fresno, CA, 93710",+15592226611,https://www.macys.com/stores/ca/fresno/fresno-furniture-and-mattress-gallery_365.html,36.8094336,-119.755571,,,n_11911123690,"shop=department_store, brand=Macy's"
"Auberry, CA",,retail,445310,Bulldog Liquor,"4968 North Cedar Avenue, Fresno, CA, 93726",+15592260148,,36.8080773,-119.7534141,,,n_11911123725,shop=alcohol
"Auberry, CA",,retail,445120,Retro Junction,"7010 North Cedar Avenue, Fresno, CA, 93720",+15597654124,http://places.singleplatform.com/retro-junction/menu,36.8377158,-119.7532991,,,n_11919222984,shop=convenience
"Auberry, CA",,retail,446120,Healthy Nails and Spa,"6737 North Cedar Avenue, Fresno, CA, 93710",+15595588613,,36.8359482,-119.7550636,,,n_11921596298,shop=beauty
"Auberry, CA",,retail,445110,R-N Market,"6670 North Cedar Avenue, Fresno, CA, 93710",+15594398044,https://rnsupermarkets.com/,36.8351018,-119.7522239,,,n_11921596314,shop=supermarket
"Auberry, CA",,retail,452319,Dollar Tree,"6728 North Cedar Avenue, Fresno, CA, 93710",+15595540476,https://www.dollartree.com/locations/ca/fresno/1730/,36.8361612,-119.7521989,,,n_11921596317,"shop=variety_store, brand=Dollar Tree"
"Auberry, CA",,retail,446110,CVS Pharmacy,"6750 North Cedar Avenue, Fresno, CA, 93710",+15592993115,https://www.cvs.com/store-locator/fresno-ca-pharmacies/6750-n-cedar-ave-fresno-ca-93710/storeid=9149?WT.mc_id=LS_GOOGLE_FS_9149,36.8365854,-119.7522066,,,n_11921596318,"shop=chemist, brand=CVS Pharmacy"
"Auberry, CA",,retail,446120,Bellagio Nails & Spa,"7032 North Cedar Avenue, Fresno, CA, 93720",+15593226219,,36.8388412,-119.7531004,,,n_11929288185,shop=beauty
"Auberry, CA",,retail,453991,Buddha Cigar Gallery,"7028 North Cedar Avenue, Fresno, CA, 93720",+15599007446,,36.8388431,-119.7531841,,,n_11929288186,shop=tobacco
"Auberry, CA",,retail,452319,Five Below,"639 East Shaw Avenue, Fresno, CA, 93710",+1 559-400-0253,https://locations.fivebelow.com/ca/fresno/639-east-shaw,36.8075091,-119.7765959,,,n_11944365230,"shop=variety_store, brand=Five Below"
"Auberry, CA",,retail,446120,Ulta Beauty,"639 East Shaw Avenue, Fresno, CA, 93710",+1 559-244-0907,https://www.ulta.com/stores/fresno-ca-1322,36.8075538,-119.7752664,,,n_11944365232,"shop=cosmetics, brand=Ulta Beauty"
"Auberry, CA",,retail,446120,Sephora,"639 East Shaw Avenue, Fresno, CA, 93710",+15592223434,https://www.sephora.com/happening/stores/fresno-fashion-fair?utm_source=gmb&utm_medium=Yext,36.8072732,-119.7761214,,,n_11944365234,"shop=cosmetics, brand=Sephora"
"Auberry, CA",,retail,452210,Macy's,"4888 North Fresno Street, Fresno, CA, 93710",+15592283333,https://www.macys.com/stores/ca/fresno/fashion-fair-mall_359.html,36.8063313,-119.7797664,,,n_11944365235,"shop=department_store, brand=Macy's"
"Auberry, CA",,retail,452210,JCPenney,"555 East Shaw Avenue, Fresno, CA, 93710",+15592248330,https://www.jcpenney.com/locations/ca/fresno/clothing-stores-fresno-ca-1932.html,36.8065747,-119.7779494,,,n_11944365236,"shop=department_store, brand=JCPenney"
"Auberry, CA",,retail,446120,LUSCE BEAUTY,"485 East Shaw Avenue, Fresno, CA, 93710",+15599345992,https://www.luscebeauty.com/,36.8065654,-119.7792969,,,n_11957856151,shop=cosmetics
"Auberry, CA",,retail,452319,Mainland,"705 East Shaw Avenue, Fresno, CA, 93710",+15592244595,https://mainlandskateandsurf.com/,36.8068065,-119.7745988,,,n_11964033085,shop=general
"Auberry, CA",,retail,446120,Bath & Body Works,"677 East Shaw Avenue, Fresno, CA, 93710",+15592221979,https://www.bathandbodyworks.com/?cm_mmc=local_BBW00903,36.8068273,-119.7752735,,,n_11964033092,"shop=cosmetics, brand=Bath & Body Works"
"Auberry, CA",,retail,446120,New Eyebrow Bar,"637 East Shaw Avenue, Fresno, CA, 93710",+15592281010,,36.8068953,-119.7760818,,,n_11964033111,shop=beauty
"Auberry, CA",,retail,446120,Lush,"645 East Shaw Avenue, Fresno, CA, 93710",+15592301693,https://www.lush.com/us/en_us/?y_source=1_ODM2OTI4OC03MTUtbG9jYXRpb24ud2Vic2l0ZQ%3D%3D,36.8070776,-119.7757045,,,n_11964033112,"shop=cosmetics, brand=Lush"
"Auberry, CA",,retail,452210,Macy's,"4888 North Fresno Street, Fresno, CA, 93726",+15592283333,https://l.macys.com/fashion-fair-mall-in-fresno-ca,36.8058253,-119.7759033,,,n_11964033121,"shop=department_store, brand=Macy's"
"Auberry, CA",,retail,452210,Ross,"7487 North Blackstone Avenue, Fresno, CA, 93720",+1 559-431-6783,https://www.rossstores.com/,36.8453062,-119.7932528,,,n_11965760605,"shop=department_store, brand=Ross"
"Auberry, CA",,retail,446120,Young Nail & Spa,"322 East Shaw Avenue, Fresno, CA, 93710",+15592244657,https://www.fresnopedicureservice.com/,36.8090322,-119.7835382,,,n_11965803053,shop=beauty
"Auberry, CA",,retail,446120,Perfect Threading & Henna,"349 East Shaw Avenue, Fresno, CA, 93710",+15593751800,,36.8077678,-119.7826329,,,n_11968367280,shop=beauty
"Auberry, CA",,retail,446120,Pretty Nails,"391 East Shaw Avenue, Fresno, CA, 93710",+15592300537,https://puty.top/list/pretty-nails,36.8070164,-119.781768,,,n_11968367282,shop=beauty
"Auberry, CA",,retail,452319,Korea Mart,"353 East Shaw Avenue, Fresno, CA, 93710",+15594470262,,36.8075196,-119.7826296,,,n_11968367291,shop=general
"Auberry, CA",,retail,446120,Simply Soothing Therapy,"7845 North Palm Avenue, Fresno, CA, 93711",+15594935184,https://simplysoothingtherapy.com/,36.8516857,-119.8064461,,,n_11998396174,shop=beauty
"Auberry, CA",,retail,446120,Michael Blunt Salon,,,,36.8516853,-119.8065174,,,n_11998396176,shop=beauty
"Auberry, CA",,retail,446120,Skin Remedy,"7845 North Palm Avenue, Fresno, CA, 93711",+15598628300,https://skinremedybybrenda.glossgenius.com/,36.8517379,-119.80644,,,n_11998396177,shop=beauty
"Auberry, CA",,retail,446120,Bella Nails & Spa,"784 West Palmdon Drive, Fresno, CA, 93704",+15594322934,,36.8366496,-119.8076928,,,n_12000305522,shop=beauty
"Auberry, CA",,retail,446120,In Style Nailspa,"7090 North Palm Avenue, Fresno, CA, 93650",+15593267788,https://www.facebook.com/In-Style-Nail-Spa-Fresno-104291574655263/,36.8383951,-119.8078065,,,n_12005788877,shop=beauty
"Auberry, CA",,retail,446120,Four Seasons Nails & Spa,"7076 North West Avenue, Fresno, CA, 93711",+15594326225,,36.8384797,-119.8244202,,,n_12005788955,shop=beauty
"Auberry, CA",,retail,452319,Dollar Tree,"625 West Herndon Avenue, Clovis, CA, 93612",+15598622029,https://www.dollartree.com/locations/ca/clovis/5404/,36.8388249,-119.725641,,,n_12037280092,"shop=variety_store, brand=Dollar Tree"
"Auberry, CA",,retail,446120,Sola Salons,"625 West Herndon Avenue, Clovis, CA, 93611",+15595692772,https://www.solasalonstudios.com/locations/clovis?utm_source=gmb&utm_medium=organic,36.8389611,-119.7256512,,,n_12037280093,"shop=beauty, brand=Sola Salons"
"Auberry, CA",,retail,453110,Buckin' Blooms,"635 West Herndon Avenue, Clovis, CA, 93612",+15594723383,https://www.buckinblooms.com/,36.839208,-119.7256815,,,n_12037280106,shop=florist
"Auberry, CA",,retail,446120,Palm Beach Tan,"635 West Herndon Avenue, Clovis, CA, 93612",+15599002164,https://palmbeachtan.com/locations/CA/Clovis-Commons,36.8394012,-119.7256775,,,n_12037280108,"shop=beauty, brand=Palm Beach Tan"
"Auberry, CA",,retail,446120,Ooh La La Nails & Spa,"635 West Herndon Avenue, Clovis, CA, 93612",+15593226363,https://oohlalanailsandspa.com/,36.8393518,-119.7256795,,,n_12037280109,shop=beauty
"Auberry, CA",,retail,446120,Facelogic Spa,"605 West Herndon Avenue, Clovis, CA, 93612",+15593247546,https://facelogicclovis.com/,36.8381894,-119.7254374,,,n_12041167840,shop=beauty
"Auberry, CA",,retail,446120,BouDoir Nailspa,"6825 North Willow Avenue, Fresno, CA, 93710",+15593234898,,36.8360545,-119.7299504,,,n_12041167863,shop=beauty
"Auberry, CA",,retail,453991,The Spot Smoke Shop,"6929 North Willow Avenue, Fresno, CA, 93710",+15595471954,,36.8372219,-119.7313393,,,n_12041173675,shop=tobacco
"Auberry, CA",,retail,446120,Spotlight Beauty Salon,"1057 North Willow Avenue, Clovis, CA, 93611",+15592979157,,36.8490179,-119.7291641,,,n_12043023011,shop=beauty
"Auberry, CA",,retail,453991,Cigarette Station,"1127 North Willow Avenue, Clovis, CA, 93611",,,36.8502956,-119.7281121,,,n_12047230530,shop=tobacco
"Auberry, CA",,retail,446120,iBeauty Nails and Spa,"1127 North Willow Avenue, Clovis, CA, 93611",+15599407968,https://ibeautynailsclovis.com/,36.8502651,-119.7281086,,,n_12047230532,shop=beauty
"Auberry, CA",,retail,452319,Dollar Tree,,,,37.3325324,-119.6560844,,,n_12050509862,"shop=variety_store, brand=Dollar Tree"
"Auberry, CA",,retail,446120,Le Nails & Spa,"1365 North Willow Avenue, Clovis, CA, 93619",+15592983807,,36.8539956,-119.7285852,,,n_12050638179,shop=beauty
"Auberry, CA",,retail,446120,Aqua Nail Bar,"2950 East Nees Avenue, Fresno, CA, 93720",+15592989818,https://aquanailsbar.com/,36.8536523,-119.7312629,,,n_12143522795,shop=beauty
"Auberry, CA",,retail,445310,JK Liquor,"2930 East Nees Avenue, Fresno, CA, 93720",+15592992476,https://www.fresnoliquorstore.com/,36.8530051,-119.7316256,,,n_12145177139,shop=alcohol
"Auberry, CA",,retail,445120,Sanjha Punjab,"2930 East Nees Avenue, Fresno, CA, 93720",+15595122500,,36.8531169,-119.7316341,,,n_12145177141,shop=convenience
"Auberry, CA",,retail,446120,Estancia Day Spa & Salon,"2950 East Nees Avenue, Fresno, CA, 93720",+15592980200,https://www.estanciadayspa.com/,36.8536482,-119.7316043,,,n_12145177145,shop=beauty
"Auberry, CA",,retail,452319,Dollar Tree,"2950 North Fowler Avenue, Fresno, CA, 93727",+1-559-550-7064,https://www.dollartree.com/locations/ca/fresno/7214/,36.7789434,-119.6816025,,,n_12146616464,"shop=variety_store, brand=Dollar Tree"
"Auberry, CA",,retail,445120,Fast N Esy #7,"6451 East Shields Avenue, Fresno, CA, 93727",+1-559-346-0835,,36.7788749,-119.6736619,,,n_12146625518,shop=convenience
"Auberry, CA",,retail,453991,Cigar Mas Fino,"1568 East Nees Avenue, Fresno, CA, 93720",+15593260060,http://www.cigarmasfino.com/,36.8523873,-119.7549966,,,n_12151119030,shop=tobacco
"Auberry, CA",,retail,446120,Four Seasons Tanning,"8060 North Cedar Avenue, Fresno, CA, 93720",+15592998266,https://fourseasonstanningfresno.com/,36.8532326,-119.7552564,,,n_12234358101,shop=beauty
"Auberry, CA",,retail,446120,Sonia Tello,"8054 North Cedar Avenue, Fresno, CA, 93720",+15598994551,https://makeupbysonia.net/,36.8530634,-119.7552706,,,n_12234358104,shop=beauty
"Auberry, CA",,retail,446120,Top Nails & Spa,"8845 North Cedar Avenue, Fresno, CA, 93720",+15594489404,,36.8644954,-119.7583594,,,n_12285698003,shop=beauty
"Auberry, CA",,retail,446120,Hands over Heels Salon,"8837 North Cedar Avenue, Fresno, CA, 93720",+15594384029,https://headoverheelssalonfresno.com/,36.8643558,-119.7583629,,,n_12285698006,shop=beauty
"Auberry, CA",,retail,445310,Vintage Reserve Wine,"1552 East Champlain Drive, Fresno, CA, 93720",+15598783953,https://vintagereserve.biz/,36.8678946,-119.7549572,,,n_12320041635,shop=wine
"Auberry, CA",,retail,446120,Afterglow,"1552 East Champlain Drive, Fresno, CA, 93720",+15594922204,https://www.afterglowfresno.com/,36.8678239,-119.7549142,,,n_12320041636,shop=beauty
"Auberry, CA",,retail,446120,Meraki Salon and Spa,"1528 East Champlain Drive, Fresno, CA, 93720",+15593751163,,36.866926,-119.7554006,,,n_12320041653,shop=beauty
"Auberry, CA",,retail,446120,Emerald Nails & Spa,"1528 East Champlain Drive, Fresno, CA, 93720",,,36.866958,-119.7556932,,,n_12320041655,shop=beauty
"Auberry, CA",,retail,446120,Savage Serenity Medical Spa,"997 East Champlain Drive, Fresno, CA, 93720",+15593888726,https://savageserenityspa.com/,36.8720167,-119.7656019,,,n_12363619495,shop=beauty
"Auberry, CA",,retail,446120,WAVES,"1145 East Champlain Drive, Fresno, CA, 93720",,,36.8701677,-119.7632833,,,n_12363619520,shop=beauty
"Auberry, CA",,retail,446120,Wonderful Threading & Henna Art,"1173 East Champlain Drive, Fresno, CA, 93720",+15592934919,,36.8704596,-119.7630669,,,n_12363619529,shop=beauty
"Auberry, CA",,retail,446120,Season Nails & Spa,"1175 East Champlain Drive, Fresno, CA, 93720",+15594345051,,36.8704995,-119.7630403,,,n_12363619530,shop=beauty
"Auberry, CA",,retail,445310,Wine Barrel,"1105 East Champlain Drive, Fresno, CA, 93720",+15594340922,,36.8706771,-119.7653715,,,n_12363619532,shop=alcohol
"Auberry, CA",,retail,453991,Cali Smoke Shop,"1097 East Champlain Drive, Fresno, CA, 93720",+15593696351,,36.8707918,-119.7656185,,,n_12411478984,shop=tobacco
"Auberry, CA",,retail,446120,True REST Float Spa,"1144 East Champlain Drive, Fresno, CA, 93720",+15597214336,https://truerest.com/locations/fresno/,36.8722081,-119.7623174,,,n_12411532623,shop=beauty
"Auberry, CA",,retail,446120,Creative Nails,"1102 East Champlain Drive, Fresno, CA, 93720",+15594336763,,36.8721074,-119.7639149,,,n_12411532631,shop=beauty
"Auberry, CA",,retail,453110,Flora Flower Co.,"2888 East Shepherd Avenue, Fresno, CA, 93720",+15597126232,http://floraflowerco.com/,36.8680378,-119.7308543,,,n_12479605911,shop=florist
"Auberry, CA",,retail,446120,,"2886 East Shepherd Avenue, Fresno, CA, 93720",+15596809990,https://alyrinanailsandspa.com/,36.8675658,-119.7313082,,,n_12479605914,shop=beauty
"Auberry, CA",,retail,446120,Faith Nails & Spa,"8939 North Chestnut Avenue, Fresno, CA, 93720",+15592988809,,36.865817,-119.7403189,,,n_12479905207,shop=beauty
"Auberry, CA",,retail,446120,Adorn Nails and Spa,"682 East Nees Avenue, Fresno, CA, 93720",+15594323676,https://adornnailsandspafresno.com/,36.8522727,-119.7728921,,,n_12554940593,shop=beauty
"Auberry, CA",,retail,453991,Fresno Cigarettes & Cigars,"7773 North First Street, Fresno, CA, 93720",+15594352600,,36.8515417,-119.7769655,,,n_12588785488,shop=tobacco
"Auberry, CA",,retail,453110,Elegant Flowers,"7771 North First Street, Fresno, CA, 93720",+15594510431,http://elegantflowersfresno.com/,36.8514716,-119.7769601,,,n_12588785489,shop=florist
"Auberry, CA",,retail,446120,LV Nails Spa,"7765 North First Street, Fresno, CA, 93720",+15598782959,https://gocheckin.link/book@EKe12N,36.8513973,-119.7769612,,,n_12588785491,shop=beauty
"Auberry, CA",,retail,446191,ActivMeals,"7757 North First Street, Fresno, CA, 93720",+15595006699,https://activmeals.com/,36.8511448,-119.7769665,,,n_12588785493,shop=health_food
"Auberry, CA",,retail,446120,First Lady Nails,"7728 North First Street, Fresno, CA, 93720",+15594382328,http://firstladynails.net/,36.850779,-119.7739394,,,n_12588851105,shop=beauty
"Auberry, CA",,retail,446120,R&G Threading Bar,"7795 North First Street, Fresno, CA, 93720",+15592315650,,36.8516507,-119.7754986,,,n_12588851116,shop=beauty
"Auberry, CA",,retail,445120,O'Neals Marketplace,,,,37.1251441,-119.7362486,,,n_12616938742,shop=convenience
"Auberry, CA",,retail,445120,Fresh Fill Modern Market,,,,36.922261,-119.7988581,,,n_12617690771,shop=convenience
"Auberry, CA",,retail,446120,LaserAway,"8346 North Fresno Street, Fresno, CA, 93720",+15597859830,https://www.laseraway.com/locations/ca/fresno,36.8550237,-119.7834002,,,n_12688460508,"shop=beauty, brand=LaserAway"
"Auberry, CA",,retail,446120,Neon Nails & Spa,"8480 North Friant Road, Fresno, CA, 93720",+15594345678,https://neonnailsspa.com/,36.8583508,-119.7835972,,,n_12692449344,shop=beauty
"Auberry, CA",,retail,446120,Copper Nails & Spa,"2042 East Copper Avenue, Fresno, CA, 93730",+15599815789,https://coppernailspa.com/,36.8963163,-119.7461402,,,n_12748350531,shop=beauty
"Auberry, CA",,retail,452319,Dollar Tree,"930 Herndon Avenue, Clovis, CA, 93612",+15596283471,https://locations.dollartree.com/ca/clovis/930-herndon-avenue,36.8362686,-119.696649,,,n_12974807491,"shop=variety_store, brand=Dollar Tree"
"Auberry, CA",,retail,452210,Ross,"920 Herndon Avenue, Clovis, CA, 93612",+15593248679,https://www.rossstores.com/,36.836206,-119.6971493,,,n_12974807492,"shop=department_store, brand=Ross"
"Auberry, CA",,retail,446120,Impression Nails and Spa,"950 Herndon Avenue, Clovis, CA, 93612",+15597974686,,36.8366082,-119.6963375,,,n_12974807497,shop=beauty
"Auberry, CA",,retail,445120,,,,,37.2183125,-119.7083978,,,n_12976070755,shop=convenience
"Auberry, CA",,retail,445110,FoodMaxx,"5422 North Blackstone Avenue, Fresno, CA",+1 559 438 5368,,36.8167919,-119.7881573,,,n_12976103524,"shop=supermarket, brand=FoodMaxx"
"Auberry, CA",,retail,445310,,,,,36.8524294,-119.7928247,,,w_61218976,shop=alcohol
"Auberry, CA",,retail,452210,Macy's,"7890 North Blackstone Avenue, Fresno, CA, 93720",+15594513333,https://www.macys.com/stores/ca/fresno/river-park-shopping-center_369.html,36.8507977,-119.7896004,,,w_61258394,"shop=department_store, brand=Macy's"
"Auberry, CA",,retail,445110,Sprouts Farmers Market,"7477 North Blackstone Avenue, Fresno, CA, 93720",+15592561735,https://sprouts.com/store/ca/fresno/fresno,36.844848,-119.7933015,,,w_61297849,"shop=supermarket, brand=Sprouts Farmers Market"
"Auberry, CA",,retail,452319,Dollar Tree,"7457 North Blackstone Avenue, Fresno, CA, 93720",+15594706973,https://www.dollartree.com/locations/ca/fresno/8812/,36.8447144,-119.7911727,,,w_61307737,"shop=variety_store, brand=Dollar Tree"
"Auberry, CA",,retail,452210,,,,,36.8434926,-119.7870374,,,w_61308626,shop=department_store
"Auberry, CA",,retail,453110,D & L Flowers,"7280 North Blackstone Avenue, Fresno, CA, 93650",+18006401542,https://www.dandlroses.com/,36.8424051,-119.7901035,,,w_61338321,shop=florist
"Auberry, CA",,retail,445110,Save Mart,,,,36.8221919,-119.7707492,,,w_61405180,"shop=supermarket, brand=Save Mart"
"Auberry, CA",,retail,445110,WinCo Foods,,,,36.792021,-119.7172257,,,w_61865534,"shop=supermarket, brand=WinCo Foods"
"Auberry, CA",,retail,445110,,,,,36.8075539,-119.6810095,,,w_61879563,shop=supermarket
"Auberry, CA",,retail,446110,Walgreens,"610 East Nees Avenue, Fresno, CA, 93720",+15594311379,https://www.walgreens.com/locator/walgreens-610+e+nees+ave-fresno-ca-93720/id=5847,36.8525373,-119.7739046,,,w_85933065,"shop=chemist, brand=Walgreens"
"Auberry, CA",,retail,445110,Sprouts Farmers Market,"850 Herndon Avenue, Clovis, CA, 93612",+1 559-326-1169,https://www.sprouts.com/store/ca/clovis/herndon-ave/,36.8362051,-119.6981742,,,w_130006614,"shop=supermarket, brand=Sprouts Farmers Market"
"Auberry, CA",,retail,445110,Save Mart Supermarket,"1835 Herndon Ave, Clovis, 93611",,,36.8388475,-119.6823725,,,w_130006709,"shop=supermarket, operator=SaveMart"
"Auberry, CA",,retail,445110,Save Mart,"7733 North 1ST, 93720",,https://local.vons.com/ca/fresno-2181.html,36.8506695,-119.7734044,,,w_131509884,"shop=supermarket, brand=Save Mart"
"Auberry, CA",,retail,445110,Vons,"8949 North Cedar Avenue, Fresno, CA, 93720",+1 559-438-1403,https://local.vons.com/ca/fresno/8949-n-cedar-ave.html,36.864927,-119.7585325,,,w_131511269,"shop=supermarket, brand=Vons"
"Auberry, CA",,retail,445110,Vons,"40044 Highway 49, Oakhurst, CA, 93644",+1 559-642-4250,https://local.vons.com/ca/oakhurst/40044-hwy-49.html,37.3303815,-119.6590395,,,w_132687487,"shop=supermarket, brand=Vons"
"Auberry, CA",,retail,446110,CVS Pharmacy,,,https://www.cvs.com/store-locator/oakhurst-ca-pharmacies/40044-highway-49-oakhurst-ca-93644/storeid=9935,37.3308586,-119.6596974,,,w_132687488,"shop=chemist, brand=CVS Pharmacy"
"Auberry, CA",,retail,445110,Vons,"1650 Herndon Avenue, Clovis, CA, 93611",+1 559-297-6410,https://local.vons.com/ca/clovis/1650-herndon-ave.html,36.8357029,-119.6850394,,,w_225438033,"shop=supermarket, brand=Vons"
"Auberry, CA",,retail,452210,Target,"695 West Herndon Avenue, Clovis, CA, 93612",+15593210009,https://www.target.com/sl/clovis-nw/2018,36.8403248,-119.7283412,,,w_225638319,"shop=department_store, brand=Target"
"Auberry, CA",,retail,452319,Ken's Market & Fountain,,,,37.1113372,-119.3202064,,,w_292148102,shop=variety_store
"Auberry, CA",,retail,446110,CVS Pharmacy,,,,37.0381034,-119.5170325,,,w_292517462,"shop=chemist, brand=CVS Pharmacy"
"Auberry, CA",,retail,445110,MarVal,,,,37.0370339,-119.5171013,,,w_292517469,shop=supermarket
"Auberry, CA",,retail,452210,Target,"7600 North Blackstone Avenue, Fresno, CA, 93720",+15594310104,https://www.target.com/sl/blackstone-and-nees-ave/911,36.8475095,-119.7864877,,,w_309859481,"shop=department_store, brand=Target"
"Auberry, CA",,retail,445120,China Peak Landing,,,https://www.chinapeaklanding.com/,37.2537273,-119.1655044,,,w_357366572,"shop=convenience, operator=China Peak"
"Auberry, CA",,retail,452319,,,,,37.2555588,-119.1606671,,,w_357366587,shop=variety_store
"Auberry, CA",,retail,452210,Burlington,"685 West Herndon Avenue, Clovis, CA, 93612",+1 559-314-0217,https://stores.burlington.com/ca/clovis/1449/,36.8401213,-119.7273571,,,w_370657581,"shop=department_store, brand=Burlington"
"Auberry, CA",,retail,452210,TJ Maxx,"675 West Herndon Avenue, Clovis, CA, 93612",+15592980172,https://tjmaxx.tjx.com/store/index.jsp,36.8401235,-119.7268998,,,w_370657582,"shop=department_store, brand=TJ Maxx"
"Auberry, CA",,retail,445120,Ahwahnee Mart Gas Station,,,,37.3676861,-119.7254564,,,w_419118110,shop=convenience
"Auberry, CA",,retail,445110,Raley's,,,,37.3332991,-119.6567875,,,w_419118117,"shop=supermarket, brand=Raley's"
"Auberry, CA",,retail,445110,Grocery Outlet,"1848 Clovis Avenue, Clovis, CA, 93612",,,36.8093716,-119.7015751,,,w_443634069,"shop=supermarket, brand=Grocery Outlet"
"Auberry, CA",,retail,445110,Walmart Neighborhood Market,"6855 North Willow Avenue, Fresno, CA, 93710",+1 559-862-2062,https://www.walmart.com/store/5634-fresno-ca,36.8363082,-119.7311121,,,w_454970361,"shop=supermarket, brand=Walmart, operator=Walmart"
"Auberry, CA",,retail,446110,Walgreens,"8975 North Chestnut Avenue, Fresno, CA, 93720",+15593256439,https://www.walgreens.com/locator/walgreens-8975+n+chestnut+ave-fresno-ca-93720/id=7266,36.8661013,-119.7395519,,,w_522312011,"shop=chemist, brand=Walgreens"
"Auberry, CA",,retail,452210,Target,"5740 North Blackstone Avenue, Fresno, CA, 93710",+15594318622,https://www.target.com/sl/blackstone-and-bullard/1417,36.8216761,-119.7878804,,,w_553164173,"shop=department_store, brand=Target"
"Auberry, CA",,retail,445120,Vallee Food Store,10091 N Maple Ave,(559)433-9370,,36.8817905,-119.7478787,,,w_583846244,shop=convenience
"Auberry, CA",,retail,445120,Chevron,,,,36.8378951,-119.6991612,,,w_610280639,"shop=convenience, brand=Chevron"
"Auberry, CA",,retail,445110,Walmart Supercenter,"1185 Herndon Avenue, Clovis, CA, 93612",+1 559-321-0067,https://www.walmart.com/store/5337-clovis-ca,36.8397512,-119.6956662,,,w_610594839,"shop=supermarket, brand=Walmart, operator=Walmart"
"Auberry, CA",,retail,452210,Target,"900 Shaw Avenue, Clovis, CA, 93612-3900",+1 559-297-4691,https://www.target.com/sl/clovis/358,36.8065372,-119.6989326,,,w_620473382,"shop=department_store, brand=Target"
"Auberry, CA",,retail,446110,CVS Pharmacy,,,https://www.cvs.com/store-locator/clovis-ca-pharmacies/1405-herndon-ave-clovis-ca-93611/storeid=9933,36.8382031,-119.6903989,,,w_626428645,"shop=chemist, brand=CVS Pharmacy"
"Auberry, CA",,retail,445120,Chukchansi Crossing,,,,37.214163,-119.7071519,,,w_675098639,shop=convenience
"Auberry, CA",,retail,445110,Walmart Supercenter,"323 West Shaw Avenue, Clovis, CA, 93612",+1 559-297-4176,https://www.walmart.com/store/2277-clovis-ca,36.8113285,-119.716866,,,w_692391356,"shop=supermarket, brand=Walmart, operator=Walmart"
"Auberry, CA",,retail,445110,Walmart Supercenter,"7065 North Ingram Avenue, Fresno, CA, 93650",+1 559-431-0107,https://www.walmart.com/store/2985-fresno-ca,36.8391793,-119.8032897,,,w_692404431,"shop=supermarket, brand=Walmart, operator=Walmart"
"Auberry, CA",,retail,445110,Trader Joe's,"1077 North Willow Avenue, Clovis, CA, 93611",+15593253120,https://locations.traderjoes.com/ca/clovis/180/?utm_source=gmb&utm_medium=organic&utm_campaign=local,36.8492525,-119.7279445,,,w_697404511,"shop=supermarket, brand=Trader Joe's"
"Auberry, CA",,retail,445120,7-Eleven,,,,37.334246,-119.6462345,,,w_727506060,"shop=convenience, brand=7-Eleven"
"Auberry, CA",,retail,445310,Yosemite Wine Tails,,,,37.3337394,-119.6479605,,,w_727506065,shop=alcohol
"Auberry, CA",,retail,445120,,,,,36.7934342,-119.7174715,,,w_733414653,shop=convenience
"Auberry, CA",,retail,445120,Chevron,,,,37.2997694,-119.5366421,,,w_878824596,"shop=convenience, brand=Chevron"
"Auberry, CA",,retail,445120,Arco,,,,36.8090243,-119.6375461,,,w_973905485,shop=convenience
"Auberry, CA",,retail,445120,Johnny Quick,,,,36.8234519,-119.6822799,,,w_973905487,shop=convenience
"Auberry, CA",,retail,446120,Wish Salon and Boutique,,,,36.8233942,-119.682648,,,w_973905490,shop=beauty
"Auberry, CA",,retail,445110,Peacock Market,,,,36.8272813,-119.6903453,,,w_973910496,shop=supermarket
"Auberry, CA",,retail,452319,Happy Camper General Store,,,,37.1218669,-119.3110334,,,w_977084834,shop=general
"Auberry, CA",,retail,452319,Sierra Marina Store,,,,37.1519007,-119.2983691,,,w_977375212,shop=general
"Auberry, CA",,retail,452319,Shaver Lake Marina Store,,,,37.1265002,-119.3070941,,,w_977377043,shop=general
"Auberry, CA",,retail,452319,,,,,37.3532789,-119.3400463,,,w_1011496238,shop=general
"Auberry, CA",,retail,445120,Jack's Car Wash Co.,"8995 North Cedar Avenue, Fresno, CA, 93720",+15594357335,https://jackscarwashfresno.com/,36.8661766,-119.757322,,,w_1056817896,shop=convenience
"Auberry, CA",,retail,445120,Bubble Clean,"8004 North Cedar Avenue, Fresno, CA, 93720",+15593249194,,36.852627,-119.7561968,,,w_1056817938,shop=convenience
"Auberry, CA",,retail,446110,Rite Aid,"8027 North Cedar Avenue, Fresno, CA, 93720",+15594311002,https://www.riteaid.com/locations/ca/fresno/8027-north-cedar-avenue.html,36.8526327,-119.7575182,,,w_1056817940,"shop=chemist, brand=Rite Aid"
"Auberry, CA",,retail,446120,Palm Beach Tan,"8460 North Friant Road, Fresno, CA, 93720",+15594207856,https://palmbeachtan.com/locations/CA/Fresno-North-First/,36.857776,-119.7840735,,,w_1057102519,"shop=beauty, brand=Palm Beach Tan"
"Auberry, CA",,retail,445120,,,,,37.1777434,-119.764825,,,w_1057102538,shop=convenience
"Auberry, CA",,retail,446110,Yosemite Drug,,,,37.2622404,-119.6999038,,,w_1130603759,shop=chemist
"Auberry, CA",,retail,445120,,,,,37.2617832,-119.6997862,,,w_1137965714,shop=convenience
"Auberry, CA",,retail,445120,ampm,,,,36.8378662,-119.6982025,,,w_1214654291,"shop=convenience, brand=ampm"
"Auberry, CA",,retail,445120,Food Shop,,,,36.8261498,-119.691417,,,w_1217440963,shop=convenience
"Auberry, CA",,retail,445120,,,,,36.9904892,-119.710685,,,w_1230452468,shop=convenience
"Auberry, CA",,retail,445120,Chevron,"7216 North Blackstone Avenue, Pinedale, CA, 93650",+15594391445,https://www.chevronwithtechron.com/station/,36.841204,-119.7900127,,,w_1268415922,"shop=convenience, brand=Chevron"
"Auberry, CA",,retail,452210,Kohl's,"175 East Alluvial Avenue, Fresno, CA, 93720",+1 559-261-9445,https://www.kohls.com/stores/ca/fresno-724.shtml,36.8431773,-119.7860749,,,w_1268416428,"shop=department_store, brand=Kohl's"
"Auberry, CA",,retail,445110,Hillside Supermarket,,,,37.1606716,-119.7488963,,,w_1278898865,shop=supermarket
"Auberry, CA",,retail,445120,7-Eleven,"7314 North Blackstone Avenue, Fresno, CA, 93650",+1 559-439-9231,https://www.7-eleven.com/locations/ca/fresno/7314-n-blackstone-23947,36.8429965,-119.7900608,,,w_1279806952,"shop=convenience, brand=7-Eleven"
"Auberry, CA",,retail,445120,Valero,"7264 North Blackstone Avenue, Fresno, CA, 93650",+15593890573,,36.8421381,-119.7900513,,,w_1279806956,"shop=convenience, brand=Valero"
"Auberry, CA",,retail,445120,ampm,"6375 North Blackstone Avenue, Fresno, CA, 93710",+15594322502,https://www.ampm.com/,36.8297634,-119.7911424,,,w_1280941670,"shop=convenience, brand=ampm"
"Auberry, CA",,retail,452210,Burlington,"5630 North Blackstone Avenue, Fresno, CA, 93710",+1 559-432-2628,https://stores.burlington.com/ca/fresno/299/,36.8202897,-119.7878546,,,w_1280941672,"shop=department_store, brand=Burlington"
"Auberry, CA",,retail,445120,ampm,"6020 North Blackstone Avenue, Fresno, CA, 93710",+15594361248,https://www.ampm.com/,36.8235261,-119.789949,,,w_1282096547,"shop=convenience, brand=ampm"
"Auberry, CA",,retail,445120,7-Eleven,"6015 North Blackstone Avenue, Fresno, CA, 93710",+1 559-436-1217,https://www.7-eleven.com/locations/ca/fresno/6015-n-blackstone-ave-25141,36.8232287,-119.7908762,,,w_1282096548,"shop=convenience, brand=7-Eleven"
"Auberry, CA",,retail,452319,Kennel Marketplace,"3010 East Campus Pointe Drive, Fresno, CA, 93710",+15593700557,http://www.thekennelmarketplace.com/,36.8125404,-119.7357717,,,w_1282722616,shop=general
"Auberry, CA",,retail,445120,7-Eleven,"2389 East Shaw Avenue, Fresno, CA, 93710",+1 559-229-2400,https://www.7-eleven.com/locations/ca/fresno/2389-e-shaw-ave-16947,36.8080714,-119.745672,,,w_1283804876,"shop=convenience, brand=7-Eleven"
"Auberry, CA",,retail,445120,Gulf Express,"1418 East Shaw Avenue, Fresno, CA, 93710",+15592270323,,36.8090389,-119.7628182,,,w_1283804887,"shop=convenience, brand=Gulf Express"
"Auberry, CA",,retail,445120,Bad Bud's,"6777 North Cedar Avenue, Fresno, CA, 93710",+15594388970,,36.8370607,-119.754733,,,w_1284793069,shop=convenience
"Auberry, CA",,retail,445120,ampm,,,,36.8525968,-119.7707029,,,w_1290260682,"shop=convenience, brand=ampm"
"Auberry, CA",,retail,446110,CVS Pharmacy,"4987 North Fresno Street, Fresno, CA, 93710",+15592277137,https://www.cvs.com/store-locator/fresno-ca-pharmacies/4987-n-fresno-st-fresno-ca-93726/storeid=6772?WT.mc_id=LS_GOOGLE_FS_6772,36.8081052,-119.7818587,,,w_1290574479,"shop=chemist, brand=CVS Pharmacy"
"Auberry, CA",,retail,445120,C's Oasis,"388 East Shaw Avenue, Fresno, CA, 93710",,,36.8090317,-119.7819252,,,w_1290574482,shop=convenience
"Auberry, CA",,retail,445120,Day and Night Markets,"7505 North Willow Avenue, Clovis, CA, 93612",+15599407538,https://dayandnightmarkets.com/,36.8453761,-119.730352,,,w_1290654478,shop=convenience
"Auberry, CA",,retail,445120,Shop-N-Go,"1197 North Willow Avenue, Clovis, CA, 93611",+15593247644,,36.8518162,-119.7289041,,,w_1290671942,shop=convenience
"Auberry, CA",,retail,445310,Bulldog Liquor,"420 East Shaw Avenue, Fresno, CA, 93710",+15592266926,https://instagram.com/bulldog.liquor?igshid=OGQ5ZDc2ODk2ZA==,36.8089646,-119.7809798,,,w_1290843592,shop=alcohol
"Auberry, CA",,retail,445310,Circle C Market,"16246 East Kings Canyon Road, Sanger, CA, 93657",+15597872111,,36.7337343,-119.4971168,,,w_1292294357,shop=alcohol
"Auberry, CA",,retail,446110,CVS Pharmacy,"7096 North West Avenue, Fresno, CA, 93711",+15594360471,https://www.cvs.com/store-locator/fresno-ca-pharmacies/7096-n-west-ave-fresno-ca-93711/storeid=9865?WT.mc_id=LS_GOOGLE_FS_9865,36.8387423,-119.8255444,,,w_1295614978,"shop=chemist, brand=CVS Pharmacy"
"Auberry, CA",,retail,445110,The Market,"7088 North West Avenue, Fresno, CA, 93711",+15594323306,https://www.themarketfresno.com/,36.8387727,-119.8248598,,,w_1295614979,shop=supermarket
"Auberry, CA",,retail,445120,ampm,"825 North Willow Avenue, Clovis, CA, 93611",+15599407062,https://www.ampm.com/,36.8455633,-119.7287433,,,w_1300170423,"shop=convenience, brand=ampm"
"Auberry, CA",,retail,446110,CVS Pharmacy,"1107 North Willow Avenue, Clovis, CA, 93611",+15593220340,https://www.cvs.com/store-locator/clovis-ca-pharmacies/1107-n-willow-ave-clovis-ca-93611/storeid=3940?WT.mc_id=LS_GOOGLE_FS_3940,36.850009,-119.7279309,,,w_1300680056,"shop=chemist, brand=CVS Pharmacy"
"Auberry, CA",,retail,445110,Save Mart,"1157 North Willow Avenue, Clovis, CA, 93611",+15592970109,,36.8509465,-119.7279234,,,w_1300680058,"shop=supermarket, brand=Save Mart"
"Auberry, CA",,retail,445110,Grocery Outlet,,,,36.8527084,-119.7307762,,,w_1300680060,"shop=supermarket, brand=Grocery Outlet"
"Auberry, CA",,retail,445120,Fast 'N' Esy,"1235 North Willow Avenue, Clovis, CA, 93619",,,36.8525195,-119.7290593,,,w_1301044650,shop=convenience
"Auberry, CA",,retail,445110,Trader Joe's,"8478 North Friant Road, Fresno, CA, 93720",+15594336478,https://locations.traderjoes.com/ca/fresno/8/?utm_source=gmb&utm_medium=organic&utm_campaign=local,36.8580489,-119.7825897,,,w_1318168329,"shop=supermarket, brand=Trader Joe's"
"Auberry, CA",,retail,446110,CVS Pharmacy,,,,36.8367322,-119.7803908,,,w_1319945973,"shop=chemist, brand=CVS Pharmacy"
"Auberry, CA",,retail,445120,Johnny Quik Food Store,"7995 North Cedar Avenue, Fresno, CA, 93720",+15594318852,,36.8517415,-119.7573572,,,w_1322066059,shop=convenience
"Auberry, CA",,retail,445110,Save Mart,"1107 East Champlain Drive, Fresno, CA, 93720",+15594330280,https://www.savemart.com/stores/823325b4-95e8-408b-8700-2ccef4104e8e/WASHINGTON%20SQ/78/FRESNO,36.8704222,-119.7650585,,,w_1322312488,"shop=supermarket, brand=Save Mart"
"Auberry, CA",,retail,446110,CVS Pharmacy,"1113 East Champlain Drive, Fresno, CA, 93720",+15594342158,https://www.cvs.com/store-locator/fresno-ca-pharmacies/1113-e-champlain-dr-fresno-ca-93720/storeid=9391?WT.mc_id=LS_GOOGLE_FS_9391,36.8700136,-119.764312,,,w_1322312490,"shop=chemist, brand=CVS Pharmacy"
"Auberry, CA",,retail,452319,Dollar Tree,"1544 East Champlain Drive, Fresno, CA, 93720",+15594706050,https://www.dollartree.com/locations/CA/fresno/3676/,36.8681991,-119.7551852,,,w_1331536616,"shop=variety_store, brand=Dollar Tree"
"Auberry, CA",,retail,445310,ShaverKeps Mild-To-Wild Liquor,"41387 CA-168, Shaver Lake, CA, 93664",+1 (559) 841-7711,,37.1018349,-119.3183045,,,w_1340424668,shop=alcohol
"Auberry, CA",,retail,445110,Food 4 Less,"8921 North Chestnut Avenue, Fresno, CA, 93720",+15593222280,https://food4lesscentralvalley.com/,36.8653963,-119.7405814,,,w_1349153160,"shop=supermarket, brand=Food 4 Less"
"Auberry, CA",,retail,445110,Smart & Final Extra!,"7733 North First Street, Fresno, CA, 93720",+15594409266,https://www.smartandfinal.com/store,36.850595,-119.7762077,,,w_1356528333,"shop=supermarket, brand=Smart & Final"
"Auberry, CA",,retail,445120,,,,,36.815334,-119.7898524,,,w_1362729245,shop=convenience
"Auberry, CA",,retail,445120,,,,,37.2637886,-119.6914247,,,w_1412092341,shop=convenience
"Auberry, CA",,retail,445120,,,,,36.8161842,-119.7909727,,,w_1412095840,shop=convenience
