Location,Search Keyword,Segment,NAICS Code,Business Name,Address,Phone Number,Website,Latitude,Longitude,Rating,User Ratings,Place ID,Types
"River Pines, CA",,retail,445120,,,,,38.6424552,-121.1902117,,,n_1095300030,shop=convenience
"River Pines, CA",,retail,445120,Mother Lode Market,"6421 Mother Lode Drive, 95667-8217",,,38.699976,-120.8498372,,,n_1386707683,shop=convenience
"River Pines, CA",,retail,445310,BevMo!,,,,38.6469299,-121.1157099,,,n_1712260341,"shop=alcohol, brand=BevMo!"
"River Pines, CA",,retail,446120,Ulta Beauty,"2381 Iron Point Road, Folsom, CA, 95630",+1 916-984-7582,https://www.ulta.com/stores/folsom-ca-389,38.6442928,-121.1231895,,,n_1712260345,"shop=beauty, brand=Ulta Beauty"
"River Pines, CA",,retail,446120,European Wax Center,,,https://locations.waxcenter.com/ca/folsom/folsom-broadstone-0115.html,38.6547276,-121.1221259,,,n_1752655289,"shop=beauty, brand=European Wax Center"
"River Pines, CA",,retail,445110,Belair,,,,38.6609925,-120.9664973,,,n_1771982199,shop=supermarket
"River Pines, CA",,retail,445120,Buena Vista Store,,,,38.2937175,-120.9124482,,,n_1818064852,shop=convenience
"River Pines, CA",,retail,445110,Sender's Market,,,,38.2284773,-120.5408459,,,n_1904630537,shop=supermarket
"River Pines, CA",,retail,445110,One Stop,,,,38.3526631,-120.9360392,,,n_1923884554,shop=supermarket
"River Pines, CA",,retail,445120,,,,,38.2277664,-120.542538,,,n_2085378878,shop=convenience
"River Pines, CA",,retail,445110,Raley's,,916-200-4858,,38.6557983,-121.069652,,,n_2278977537,"shop=supermarket, brand=Raley's"
"River Pines, CA",,retail,452210,Target,"430 Blue Ravine Road, Folsom, CA, 95630-3402",+1 916-984-9131,https://www.target.com/sl/Folsom--Target-Store/1098,38.6718137,-121.1526678,,,n_2295122552,"shop=department_store, brand=Target"
"River Pines, CA",,retail,445110,Trader Joe's,"850 East Bidwell Street, Folsom, CA, 95630",+1 916-817-8820,https://locations.traderjoes.com/ca/folsom/172/,38.6724297,-121.1558851,,,n_2295128397,"shop=supermarket, brand=Trader Joe's"
"River Pines, CA",,retail,445110,Walmart Supercenter,"1018 Riley Street, Folsom, CA, 95630",+1 916-983-1090,https://www.walmart.com/store/1760-folsom-ca,38.6683603,-121.1675262,,,n_2295281773,"shop=supermarket, brand=Walmart, operator=Walmart"
"River Pines, CA",,retail,445110,Davis Ranch,,,,38.4935621,-121.1695904,,,n_2983791594,shop=supermarket
"River Pines, CA",,retail,452319,Rancho Murieta Country Store,,,,38.4956628,-121.0988635,,,n_2983792621,shop=variety_store
"River Pines, CA",,retail,445110,Pokerville Market,,,,38.4719985,-120.8508113,,,n_3245704838,shop=supermarket
"River Pines, CA",,retail,445110,Grocery Outlet,,,,38.3470571,-120.7757321,,,n_3245704839,"shop=supermarket, brand=Grocery Outlet"
"River Pines, CA",,retail,445292,Rocky Mountain Chocolate Factory,,,,38.6430597,-121.1872319,,,n_3359167691,"shop=confectionery, brand=Rocky Mountain Chocolate Factory"
"River Pines, CA",,retail,446120,Bath & Body Works,,,,38.6523126,-121.1250105,,,n_3365984213,"shop=cosmetics, brand=Bath & Body Works"
"River Pines, CA",,retail,452210,Marshalls,,,,38.65398,-121.1271155,,,n_3365984217,"shop=department_store, brand=Marshalls"
"River Pines, CA",,retail,452210,Ross,"2745 East Bidwell Street, Folsom, CA, 95630",+1 916-984-5890,https://www.rossstores.com/,38.6536393,-121.1268709,,,n_3365984222,"shop=department_store, brand=Ross"
"River Pines, CA",,retail,445310,Total Wine,"2765 East Bidwell Street, Folsom, CA, 95630",+1 916-984-6923,https://www.totalwine.com/eng/storeLocator/redirect.cfm?sectionID=b2c/storeLocator/storeDetails.cfm&storeid=1&locationId=17821,38.6529718,-121.1261627,,,n_3365984224,"shop=alcohol, brand=Total Wine"
"River Pines, CA",,retail,446120,Salorah Salon,,,,38.6507018,-121.0658976,,,n_3367562373,shop=beauty
"River Pines, CA",,retail,452210,Target,"4400 Town Center Boulevard, El Dorado Hills, CA, 95762-7130",+1 916-605-0184,https://www.target.com/sl/el-dorado-hills/2270,38.6499626,-121.0621558,,,n_3367640055,"shop=department_store, brand=Target"
"River Pines, CA",,retail,445110,Nugget Markets,"4500 Post Street, El Dorado Hills, CA, 95762",916-933-1433,https://www.nuggetmarket.com/locations/el-dorado-hills/,38.6528595,-121.0672066,,,n_3367652211,shop=supermarket
"River Pines, CA",,retail,446120,Montano Nails,,,,38.6468707,-121.0665141,,,n_3369841096,shop=beauty
"River Pines, CA",,retail,446120,Urban Wax Studios,,,,38.6468336,-121.0668223,,,n_3369841103,shop=beauty
"River Pines, CA",,retail,446120,Phenix Salon Suites,,,,38.650472,-121.1215813,,,n_4460957384,shop=beauty
"River Pines, CA",,retail,445292,See's Candies,,,,38.6483479,-121.1182956,,,n_4460957387,"shop=confectionery, brand=See's Candies"
"River Pines, CA",,retail,446120,Threading Place,,,,38.6482013,-121.1192639,,,n_4460957490,shop=beauty
"River Pines, CA",,retail,446120,Maribou,,,,38.6494723,-121.1194208,,,n_4462135994,shop=beauty
"River Pines, CA",,retail,445310,Amador 360 Winery,18950 State Highway 49,,,38.4794375,-120.8466892,,,n_4514710694,shop=wine
"River Pines, CA",,retail,445310,Helwig Winery,11555 Shenandoah Road,,,38.5310762,-120.8117808,,,n_4514763991,shop=wine
"River Pines, CA",,retail,445310,Coopers Vineyard,23165 Shenandoah School Road,,,38.511729,-120.8088511,,,n_4514776890,shop=wine
"River Pines, CA",,retail,445310,24 Bridge Wines,17585 CA 49,,,38.4637717,-120.857111,,,n_4514783890,shop=wine
"River Pines, CA",,retail,445310,Sobon Estate Winery,14430 Shenandoah Road,,,38.5323697,-120.7550553,,,n_4514786889,shop=wine
"River Pines, CA",,retail,445310,Borjón Winery,11270 Shenandoah Road,,,38.5268266,-120.8131267,,,n_4514789593,shop=wine
"River Pines, CA",,retail,445310,Wine Tree Farm,13941 State Highway 49,209 787-5694,https://winetreefarm.com/,38.419846,-120.8415712,,,n_4518469690,shop=wine
"River Pines, CA",,retail,446120,LK Nails,"2791 East Bidwell Street, Folsom, CA, 95630",+1 916-817-8880,,38.6534047,-121.1236667,,,n_4581046988,shop=beauty
"River Pines, CA",,retail,452210,Walmart,"4300 Missouri Flat Road, Placerville, CA, 95667",+1 530-621-2917,https://www.walmart.com/store/2418-placerville-ca,38.704024,-120.8290516,,,n_4936005121,"shop=department_store, brand=Walmart, operator=Walmart"
"River Pines, CA",,retail,446120,Nail Perfection,,,,38.7306865,-120.7526831,,,n_5468600979,shop=beauty
"River Pines, CA",,retail,445120,,,,,38.6705268,-121.1658877,,,n_6037967606,shop=convenience
"River Pines, CA",,retail,445230,Davis Ranch,"13211 Jackson Road, 95683",,https://www.davisranchproduce.com/index.html,38.4927928,-121.1714566,,,n_6844993185,shop=greengrocer
"River Pines, CA",,retail,445110,Fork Lift by Nugget,,,,38.6586047,-120.9720249,,,n_6993875393,shop=supermarket
"River Pines, CA",,retail,445310,Renegade Winery,,,,38.3019382,-120.7061332,,,n_7550126986,shop=wine
"River Pines, CA",,retail,445110,Safeway,"3383 Bass Lake Road, El Dorado Hills, CA, 95762",+1 530-313-4920,https://local.safeway.com/safeway/ca/el-dorado-hills/3383-bass-lake-rd.html,38.6751471,-121.028389,,,n_8861225034,"shop=supermarket, brand=Safeway"
"River Pines, CA",,retail,446120,Angels Nails,"328 East Bidwell Street, Folsom, CA, 95630",,,38.6742132,-121.1673018,,,n_8901896153,shop=beauty
"River Pines, CA",,retail,445310,5 Star Liquor,,,,38.6741837,-121.1671421,,,n_8901896154,shop=alcohol
"River Pines, CA",,retail,446120,Silky Nails,"401 East Bidwell Street, Folsom, CA, 95630",,,38.6736261,-121.1673599,,,n_8901899926,shop=beauty
"River Pines, CA",,retail,445120,Speedway,"519 Placerville Drive, Placerville, CA, 95667",,https://www.speedway.com/locations/CA/Placerville/519-PLACERVILLE-DR,38.7335643,-120.8267559,,,n_9184245036,"shop=convenience, brand=Speedway"
"River Pines, CA",,retail,446120,Wispy Dream Lashes,"13000 Folsom Boulevard, Folsom, CA, 95630",,www.WispyDreamLashes.com,38.6440013,-121.1881007,,,n_9419949838,"shop=cosmetics, brand=Wispy Dream Lashes"
"River Pines, CA",,retail,445110,99 Ranch Market,Blue Ravine Road,1-916-984-6899,https://99ranch.com/,38.6906887,-121.125382,,,n_9830870617,"shop=supermarket, brand=99 Ranch Market"
"River Pines, CA",,retail,452319,Dollar Tree,"Blue Ravine Road, 95630",1-916-850-6674,https://www.dollartree.com/locations/ca/folsom/5786/,38.6903472,-121.125183,,,n_9830870618,"shop=variety_store, brand=Dollar Tree"
"River Pines, CA",,retail,445120,Quik Stop,,,,38.6953765,-120.8126696,,,n_10001015546,"shop=convenience, brand=Quik Stop"
"River Pines, CA",,retail,445120,,,,,38.3776785,-120.8027593,,,n_10084859820,shop=convenience
"River Pines, CA",,retail,445110,Safeway,"3380 Coach Lane, Cameron Park, CA, 95682",+1 530-676-6930,https://local.safeway.com/safeway/ca/cameron-park/3380-coach-ln.html,38.6566414,-120.9711073,,,n_10174598980,"shop=supermarket, brand=Safeway"
"River Pines, CA",,retail,446120,Sassy Nails,,,,38.7304547,-120.786522,,,n_10697847984,shop=beauty
"River Pines, CA",,retail,445292,Whoopsie Daisy,,,,38.301137,-120.7060197,,,n_10733396657,shop=confectionery
"River Pines, CA",,retail,445120,Plymouth Trading Post,,,,38.4815337,-120.8453334,,,n_10733711745,shop=convenience
"River Pines, CA",,retail,445310,The End of Nowhere,,,,38.419146,-120.8244352,,,n_10733776316,shop=alcohol
"River Pines, CA",,retail,446120,Revamps Salon,,,,38.6824802,-120.6631208,,,n_10917103324,shop=beauty
"River Pines, CA",,retail,446120,Gateway Nails & Spa,2405 Iron Point Road,,,38.6449933,-121.1221341,,,n_11087509101,shop=beauty
"River Pines, CA",,retail,446110,Walgreens,,,https://www.walgreens.com/locator/walgreens-4220+missouri+flat+rd-placerville-ca-95667/id=11823,38.7063204,-120.8314844,,,n_11430282551,"shop=chemist, brand=Walgreens"
"River Pines, CA",,retail,452210,Target,"3968 Missouri Flat Road, Placerville, CA, 95667-5240",+1 530-303-5921,https://www.target.com/sl/placerville/3355,38.7102953,-120.8433618,,,n_11430282557,"shop=department_store, brand=Target"
"River Pines, CA",,retail,445110,Save Mart,,,,38.7112018,-120.8433747,,,n_11430282558,"shop=supermarket, brand=Save Mart"
"River Pines, CA",,retail,452210,Ross,"3966 Missouri Flat Road, Placerville, CA, 95667-5239",+1 530-344-9430,,38.7116063,-120.8433269,,,n_11430282559,"shop=department_store, brand=Ross"
"River Pines, CA",,retail,446120,Bath & Body Works,,,,38.7118551,-120.8433032,,,n_11430282562,"shop=cosmetics, brand=Bath & Body Works"
"River Pines, CA",,retail,446110,CVS Pharmacy,,,https://www.cvs.com/store-locator/placerville-ca-pharmacies/3964-missouri-flat-rd-ste-a-placerville-ca-95667/storeid=9184,38.7121928,-120.8429035,,,n_11430282563,"shop=chemist, brand=CVS Pharmacy"
"River Pines, CA",,retail,452210,TJ Maxx,,,,38.7141609,-120.8388661,,,n_11430282567,"shop=department_store, brand=TJ Maxx"
"River Pines, CA",,retail,445110,Raley's,,,,38.7272685,-120.8355986,,,n_11430295019,"shop=supermarket, brand=Raley's"
"River Pines, CA",,retail,452210,Big Lots,"47 Fair Lane, Placerville, CA, 95667",+1 530-642-8927,https://local.biglots.com/ca/placerville/47-fair-ln,38.72284,-120.8324022,,,n_11430295024,"shop=department_store, brand=Big Lots"
"River Pines, CA",,retail,446110,Rite Aid,,,,38.7230379,-120.8330477,,,n_11430295025,"shop=chemist, brand=Rite Aid"
"River Pines, CA",,retail,445120,Circle K,,,,38.6548459,-121.0707716,,,n_11621305810,"shop=convenience, brand=Circle K"
"River Pines, CA",,retail,445110,Groccery Outlet,"3040 Green Valley Road, Cameron Park, CA, 95682",+15303502802,,38.6975599,-121.0002978,,,n_11918971279,shop=supermarket
"River Pines, CA",,retail,445110,Pine Grove Market,,,,38.4126705,-120.6669079,,,n_12078857944,shop=supermarket
"River Pines, CA",,retail,452319,Dollar General,"19310 Ridge Road, Pine Grove, CA, 95665",,,38.4128659,-120.6689088,,,n_12078857948,"shop=variety_store, brand=Dollar General"
"River Pines, CA",,retail,446120,Sola Salons,,,,38.6573525,-121.1739616,,,n_12109425444,"shop=beauty, brand=Sola Salons"
"River Pines, CA",,retail,445110,Young’s Payless Market IGA,"26560 CA 88, Buckhorn, CA, 95666",,,38.4430205,-120.5351823,,,n_12229232047,shop=supermarket
"River Pines, CA",,retail,445120,Dino Mart,,,,38.658416,-120.968576,,,n_12357027966,shop=convenience
"River Pines, CA",,retail,445120,Frontier Mini Mart,,,,38.4103457,-120.652406,,,n_12606141783,shop=convenience
"River Pines, CA",,retail,445120,Pine Grove Stage Stop,,,,38.4133329,-120.6601293,,,n_12606141784,shop=convenience
"River Pines, CA",,retail,446120,Lavish Lounge Nail,,,,38.6543384,-121.1799397,,,n_12758796903,shop=beauty
"River Pines, CA",,retail,446120,Mimi’s Nails,,,,38.6543584,-121.1789643,,,n_12758796999,shop=beauty
"River Pines, CA",,retail,446120,Tanya Martin Skincare,,,,38.6543397,-121.1784432,,,n_12758797003,shop=beauty
"River Pines, CA",,retail,445120,Strauch & Co,,,,38.6533674,-121.1796024,,,n_12758797115,shop=convenience
"River Pines, CA",,retail,445120,,,,,38.6535619,-121.1233456,,,w_60420031,shop=convenience
"River Pines, CA",,retail,445110,Safeway,"1850 Prairie City Road, Folsom, CA, 95630",+1 916-608-2450,https://local.safeway.com/safeway/ca/folsom/1850-prairie-city-rd.html,38.6498352,-121.1658144,,,w_130917515,"shop=supermarket, brand=Safeway"
"River Pines, CA",,retail,445120,Chevron,,,,38.6495276,-121.164043,,,w_130917516,"shop=convenience, brand=Chevron"
"River Pines, CA",,retail,445110,Whole Foods Market,"270 Palladio Parkway, Folsom, CA, 95630",+1 916-984-8500,https://www.wholefoodsmarket.com/stores/folsom,38.6488159,-121.1181014,,,w_156575051,"shop=supermarket, brand=Whole Foods Market"
"River Pines, CA",,retail,445110,Bel Air,"2760 East Bidwell Street, CA, 95630",,,38.6561923,-121.1218964,,,w_158236636,shop=supermarket
"River Pines, CA",,retail,445110,WinCo Foods,,,,38.6559062,-121.1746167,,,w_160403526,"shop=supermarket, brand=WinCo Foods"
"River Pines, CA",,retail,446120,,,,,38.6442971,-121.1232701,,,w_162052152,shop=beauty
"River Pines, CA",,retail,445110,Raley's,"25025 Blue Ravine Road, Folsom, CA, 95630",,,38.6888803,-121.1223992,,,w_163020259,"shop=supermarket, brand=Raley's"
"River Pines, CA",,retail,446110,Walgreens,"2595 East Bidwell Street, Folsom, CA, 95630",(916) 817-6533,https://www.walgreens.com/locator/walgreens-2595+e+bidwell+st-folsom-ca-95630/id=9048,38.6581127,-121.1294252,,,w_220543520,"shop=chemist, brand=Walgreens"
"River Pines, CA",,retail,452210,Kohl's,"1013 Riley Street, Folsom, CA, 95630",+1 916-983-9970,https://www.kohls.com/stores/ca/folsom-663.shtml,38.6720905,-121.1676609,,,w_236659394,"shop=department_store, brand=Kohl's"
"River Pines, CA",,retail,445110,Safeway,"6498 Pony Express Trail, Pollock Pines, CA, 95726",+1 530-647-7440,https://local.safeway.com/safeway/ca/pollock-pines/6498-pony-express-trail.html,38.7621035,-120.5768761,,,w_240338495,"shop=supermarket, brand=Safeway"
"River Pines, CA",,retail,445110,Safeway,"3955 Missouri Flat Road, Placerville, CA, 95667",+1 530-295-2972,https://local.safeway.com/safeway/ca/placerville/3955-missouri-flat-rd.html,38.714394,-120.8397779,,,w_240468204,"shop=supermarket, brand=Safeway"
"River Pines, CA",,retail,445110,Raley's,,,,38.6699033,-121.1598238,,,w_244235551,"shop=supermarket, brand=Raley's"
"River Pines, CA",,retail,445110,Safeway,"12110 Industry Boulevard, Jackson, CA, 95642",+1 209-257-0779,https://local.safeway.com/safeway/ca/jackson/12110-industry-blvd.html,38.3682439,-120.8000466,,,w_253010114,"shop=supermarket, brand=Safeway"
"River Pines, CA",,retail,445110,Safeway,"2207 Francisco Drive, El Dorado Hills, CA, 95762",+1 916-939-9456,https://local.safeway.com/safeway/ca/el-dorado-hills/2207-francisco-dr.html,38.7113687,-121.084109,,,w_253584184,"shop=supermarket, brand=Safeway"
"River Pines, CA",,retail,445110,Nugget Markets,,,,38.6528444,-121.0671826,,,w_329818890,shop=supermarket
"River Pines, CA",,retail,445120,Jackson Rancheria General Store,,,,38.3631837,-120.7326908,,,w_367885989,shop=convenience
"River Pines, CA",,retail,445310,Raymond's Liquor,"1370 Broadway, Placerville, CA, 95667",,,38.7319049,-120.7802681,,,w_492253614,shop=alcohol
"River Pines, CA",,retail,445120,Chevron,,,,38.7316209,-120.7829848,,,w_492253617,"shop=convenience, brand=Chevron"
"River Pines, CA",,retail,452319,Somerset Store,"5931 Mount Aukum Road, Somerset, CA",,,38.6473096,-120.685637,,,w_566511066,shop=general
"River Pines, CA",,retail,445120,Valero,,,,38.7314774,-120.7834192,,,w_568469435,"shop=convenience, brand=Valero"
"River Pines, CA",,retail,445120,Valero,,,,38.650592,-121.0677395,,,w_656618463,"shop=convenience, brand=Valero"
"River Pines, CA",,retail,445120,7-Eleven,,,https://www.7-eleven.com/locations/ca/el-dorado-hills/4316-town-center-blvd-41230,38.6500212,-121.0674799,,,w_656618464,"shop=convenience, brand=7-Eleven"
"River Pines, CA",,retail,452210,Walmart,"10355 Wicklow Way, Jackson, CA, 95642",+1 209-223-5384,https://www.walmart.com/store/2054-jackson-ca,38.3578447,-120.8062105,,,w_694049321,"shop=department_store, brand=Walmart, operator=Walmart"
"River Pines, CA",,retail,446110,CVS Pharmacy,,,https://www.cvs.com/store-locator/cameron-park-ca-pharmacies/3020-green-valley-rd-ste-b-cameron-park-ca-95682/storeid=6793,38.697498,-121.0030353,,,w_749936929,"shop=chemist, brand=CVS Pharmacy"
"River Pines, CA",,retail,446110,Walgreens,"475 CA 49, Sutter Creek, CA, 95685",,https://www.walgreens.com/locator/walgreens-475+state+highway+49-sutter+creek-ca-95685/id=12528,38.3788711,-120.8031651,,,w_751692446,"shop=chemist, brand=Walgreens"
"River Pines, CA",,retail,452319,Family Dollar,"6524 Pony Express Trail, Pollock Pines, CA, 95726",1-530-748-2278,,38.7620893,-120.5756784,,,w_871778932,"shop=variety_store, brand=Family Dollar"
"River Pines, CA",,retail,445120,Happy Hour Food & Liquot,"5115 Pony Express Trail, CA",1-530-644-2843,,38.7455641,-120.6305912,,,w_917144187,shop=convenience
"River Pines, CA",,retail,445210,Kings Meats,"787 Pleasant Valley Road, Diamond Springs, CA, 95619",+15304975398,https://kingsmeats.net/,38.6952105,-120.8056655,,,w_921540632,shop=butcher
"River Pines, CA",,retail,445120,Safeway Express,,,,38.6750703,-121.0301693,,,w_957655006,shop=convenience
"River Pines, CA",,retail,445110,Raley's,,,,38.3393959,-120.7667277,,,w_962491667,"shop=supermarket, brand=Raley's"
"River Pines, CA",,retail,445110,Grocery Outlet,,,,38.1899887,-120.8259933,,,w_965100489,"shop=supermarket, brand=Grocery Outlet"
"River Pines, CA",,retail,452319,Dollar Tree,"11986 CA-88, Jackson, CA, 95642",+1-209-418-6137,https://www.dollartree.com/locations/ca/jackson/1735/,38.3629178,-120.8003226,,,w_966308842,"shop=variety_store, brand=Dollar Tree"
"River Pines, CA",,retail,445110,Save Mart,"11980 CA-88, Jackson, CA, 95642",+1-209-223-5945,https://savemart.com/stores/jackson-609/4934,38.362303,-120.8014299,,,w_966308843,"shop=supermarket, brand=Save Mart"
"River Pines, CA",,retail,453991,Your Cigarette Source,,,,38.3621068,-120.8027159,,,w_971468685,shop=tobacco
"River Pines, CA",,retail,446120,Tan Yer Hide,"12070 Industry Boulevard, Jackson, CA, 95642",,,38.3683167,-120.8007425,,,w_971507668,shop=beauty
"River Pines, CA",,retail,446120,Martell Nails & Spa,"12070 Industry Boulevard, Jackson, CA, 95642",,,38.368279,-120.8008784,,,w_971507670,shop=beauty
"River Pines, CA",,retail,446120,Jackson Nails,,,,38.3618944,-120.8022974,,,w_971804290,shop=beauty
"River Pines, CA",,retail,445120,ampm,"10923 CA 49, Jackson, CA, 95642",,,38.3670982,-120.796715,,,w_971832809,"shop=convenience, brand=ampm"
"River Pines, CA",,retail,445110,Cost Less,,,,38.3425936,-120.76911,,,w_972711574,shop=supermarket
"River Pines, CA",,retail,446110,CVS Pharmacy,,,https://www.cvs.com/store-locator/jackson-ca-pharmacies/515-s-state-highway-49-jackson-ca-95642/storeid=9233,38.343755,-120.7703202,,,w_972711590,"shop=chemist, brand=CVS Pharmacy"
"River Pines, CA",,retail,453991,Discount Cigarettes Cigars,,,,38.3440472,-120.770485,,,w_972711591,shop=tobacco
"River Pines, CA",,retail,446120,Top Nails,,,,38.344082,-120.7705345,,,w_972711592,shop=beauty
"River Pines, CA",,retail,445310,Jeff Runquist Winery,"10776 Shenandoah Road, Plymouth, CA, 95669",,,38.5167146,-120.8224317,,,w_983880259,shop=wine
"River Pines, CA",,retail,445310,,,,,38.5411219,-120.796032,,,w_1081239787,shop=wine
"River Pines, CA",,retail,446110,CVS Pharmacy,"6450 Pony Express Trail, Pollock Pines, CA, 95726",,https://www.cvs.com/store-locator/pollock-pines-ca-pharmacies/6450-pony-express-trl-pollock-pines-ca-95726/storeid=9490,38.7618363,-120.579729,,,w_1084726709,"shop=chemist, brand=CVS Pharmacy"
"River Pines, CA",,retail,445120,Chevron,"3600 Carson Road, Camino, CA, 95709",,,38.7404512,-120.6977526,,,w_1085743007,"shop=convenience, brand=Chevron"
"River Pines, CA",,retail,445120,Food Mart,,,,38.3783174,-120.8019422,,,w_1102158200,"shop=convenience, brand=Food Mart"
"River Pines, CA",,retail,445120,ampm,,,,38.6571215,-121.1834454,,,w_1274478856,"shop=convenience, brand=ampm"
"River Pines, CA",,retail,445110,Holiday Market,"4653 Mount Aukum Road, Placerville, CA",,,38.6822389,-120.6616868,,,w_1280036929,shop=supermarket
"River Pines, CA",,retail,446191,Placerville Food Coop,535 Placerville Drive,,,38.7335548,-120.826004,,,w_1280066798,shop=health_food
"River Pines, CA",,retail,445120,Mobil Mart,,,,38.7359831,-120.7104662,,,w_1280344184,"shop=convenience, brand=Mobil Mart"
"River Pines, CA",,retail,445120,Shell,,,,38.7278485,-120.8046827,,,w_1280900885,"shop=convenience, brand=Shell"
"River Pines, CA",,retail,445120,Chevron,,,,38.6863306,-120.6682101,,,w_1290816132,"shop=convenience, brand=Chevron"
"River Pines, CA",,retail,445120,7-Eleven,,,,38.714135,-120.843877,,,w_1291891496,"shop=convenience, brand=7-Eleven"
"River Pines, CA",,retail,445120,76,"1178 Broadway, Placerville, CA",,,38.7306948,-120.7887914,,,w_1324176091,"shop=convenience, brand=76"
"River Pines, CA",,retail,446120,Monroe the Salon,,,,38.6748293,-121.174587,,,w_1382187694,shop=beauty
"River Pines, CA",,retail,446120,Transformative Beauty Spa,,,,38.6747627,-121.1747548,,,w_1382187695,shop=beauty
"River Pines, CA",,retail,452319,Thrift Store,,,,38.6729243,-121.1622957,,,r_8890522,shop=variety_store
