Location,Search Keyword,Segment,NAICS Code,Business Name,Address,Phone Number,Website,Latitude,Longitude,Rating,User Ratings,Place ID,Types
"Pleasanton, CA",,retail,446110,CVS Pharmacy,,,https://www.cvs.com/store-locator/livermore-ca-pharmacies/1500-1st-st-livermore-ca-94550/storeid=9678,37.6801778,-121.778198,,,n_194986631,"shop=chemist, amenity=pharmacy, brand=CVS Pharmacy"
"Pleasanton, CA",,retail,445110,Trader Joe's,"5727 College Avenue, Oakland, CA, 94618",+1 510-923-9428,https://locations.traderjoes.com/ca/oakland/231/,37.8455422,-122.252612,,,n_212435197,"shop=supermarket, brand=Trader Joe's"
"Pleasanton, CA",,retail,452210,dd's Discounts,,,,37.3612614,-122.0262864,,,n_266625620,"shop=department_store, brand=dd's Discounts"
"Pleasanton, CA",,retail,445110,India Cash & Carry,"1032 East El Camino Real, Sunnyvale, CA, 94087",,,37.3513957,-122.0056924,,,n_266630158,shop=supermarket
"Pleasanton, CA",,retail,445110,Kumud Groceries,,,,37.3529854,-122.0041823,,,n_266630161,shop=supermarket
"Pleasanton, CA",,retail,445292,Rangoli Sweets,"1584 Halford Avenue, Santa Clara, 95051",,,37.3537997,-121.9996548,,,n_266651418,shop=confectionery
"Pleasanton, CA",,retail,445120,Tresidder Marketplace,,,,37.4244304,-122.171109,,,n_281870076,"shop=convenience, operator=Stanford Bookstore"
"Pleasanton, CA",,retail,445120,7-Eleven,"678 Concar Drive, San Mateo, CA, 94402-2622",+1 650-341-0668,https://www.7-eleven.com/locations/ca/san-mateo/678-concar-dr-14317,37.5547005,-122.303105,,,n_297818479,"shop=convenience, brand=7-Eleven"
"Pleasanton, CA",,retail,452210,Ross,"640 Concar Drive, San Mateo, CA, 94402",+1 650-574-7720,,37.5535845,-122.3046329,,,n_297818716,"shop=department_store, brand=Ross"
"Pleasanton, CA",,retail,445110,Lucky,"3705 El Camino Real, Santa Clara, 95051",,,37.3539748,-121.998114,,,n_309331540,"shop=supermarket, brand=Lucky"
"Pleasanton, CA",,retail,445310,UC Liquor,,,,37.7612531,-122.2451106,,,n_310972988,shop=beverages
"Pleasanton, CA",,retail,445310,Alameda Wine Co.,,,,37.7646438,-122.2434813,,,n_310973037,shop=beverages
"Pleasanton, CA",,retail,445292,Little Old-Fashioned Candie,,,,37.7646235,-122.2426824,,,n_310973050,shop=confectionery
"Pleasanton, CA",,retail,445120,7-Eleven,"1555 Lincoln Avenue, Alameda, CA, 94501",+1-510-865-4381,https://www.7-eleven.com/locations/ca/alameda/2301-lincoln-ave-24003,37.7673947,-122.242103,,,n_310973094,"shop=convenience, brand=7-Eleven"
"Pleasanton, CA",,retail,445110,Alameda Natural Grocery,"1650 Park Street, Alameda, 94501",+1-510-865-1500,https://www.alamedanaturalgrocery.com/,37.7676863,-122.2396875,,,n_310973114,shop=supermarket
"Pleasanton, CA",,retail,445110,Andronico’s,"690 Fremont Avenue, Los Altos, CA, 94024",,https://local.andronicos.com/ca/los-altos/690-fremont-ave.html,37.3607935,-122.0968991,,,n_314151916,"shop=supermarket, brand=Andronico’s"
"Pleasanton, CA",,retail,445110,Lucky,,,,37.5675185,-122.0231979,,,n_340151571,"shop=supermarket, brand=Lucky, operator=Lucky"
"Pleasanton, CA",,retail,445210,Meat House,701 West Evelyn Avenue,(408) 560-7888,,37.3942457,-122.077527,,,n_343272363,shop=butcher
"Pleasanton, CA",,retail,445110,Sprouts Farmers Market,"111 East El Camino Real, Sunnyvale, CA, 94087",+1 408-702-1172,https://www.sprouts.com/store/ca/sunnyvale/e-el-camino-real/,37.3675387,-122.0302442,,,n_343600298,"shop=supermarket, brand=Sprouts Farmers Market"
"Pleasanton, CA",,retail,452210,Ross,"1030 North Rengstorff Avenue, Mountain View, CA, 94043-1716",+1 650-625-8049,http://rosstores.com,37.4194476,-122.096088,,,n_345476776,"shop=department_store, brand=Ross"
"Pleasanton, CA",,retail,445110,99 Ranch Market,"1350 Grant Road, Mountain View, 94040",,https://www.99ranch.com/store-locator/northern-california/mountain-view.aspx,37.377664,-122.076577,,,n_346427267,"shop=supermarket, brand=99 Ranch Market"
"Pleasanton, CA",,retail,452319,Daiso Japan,"685 Saratoga Avenue, San Jose, CA, 95129",,,37.3146198,-121.9771,,,n_353697111,"shop=variety_store, brand=Daiso, operator=Daiso Japan LLC Saratoga"
"Pleasanton, CA",,retail,445110,Nijiya Market,"143 East El Camino Real, Mountain View, 94040",+1 650 6911600,https://www.nijiya.com/,37.3786706,-122.0714464,,,n_357600882,"shop=supermarket, operator=Nijiya Market"
"Pleasanton, CA",,retail,445110,Trader Joe's,"3250 Lakeshore Avenue, Oakland, CA, 94610",+1 510-238-9076,https://locations.traderjoes.com/ca/oakland/203/,37.8099099,-122.2443754,,,n_363915431,"shop=supermarket, brand=Trader Joe's"
"Pleasanton, CA",,retail,445110,Trader Joe's,"635 Coleman Avenue, San Jose, CA, 95110",+1 408-298-9731,https://locations.traderjoes.com/ca/san-jose/212/,37.3410206,-121.909507,,,n_373374203,"shop=supermarket, brand=Trader Joe's"
"Pleasanton, CA",,retail,445110,Nature's Best Food,,,,37.8027213,-122.264995,,,n_410243509,shop=grocery
"Pleasanton, CA",,retail,445310,Vino,"6319 College Avenue, Oakland, 94618",,https://vinoeastbay.com/,37.8506823,-122.2525651,,,n_412212695,shop=wine
"Pleasanton, CA",,retail,445230,Yasai Market,,+15106554880,,37.8504283,-122.2525355,,,n_412212696,shop=greengrocer
"Pleasanton, CA",,retail,445120,7 Up Town Market,,,,37.8062477,-122.274255,,,n_428114273,shop=convenience
"Pleasanton, CA",,retail,445110,Tokyo Central,"19750 Stevens Creek Boulevard, Cupertino",,,37.3218846,-122.0185478,,,n_435104547,shop=supermarket
"Pleasanton, CA",,retail,452319,Daiso Japan,"19750 Stevens Creek Boulevard, Cupertino",,,37.3219177,-122.018272,,,n_435104548,"shop=variety_store, brand=Daiso, operator=Daiso"
"Pleasanton, CA",,retail,445120,7-Eleven,"2887 College Avenue, Berkeley, CA, 94705-2113",+1 510-841-6291,https://www.7-eleven.com/locations/ca/berkeley/2887-college-ave-16192,37.858767,-122.253055,,,n_444644977,"shop=convenience, brand=7-Eleven"
"Pleasanton, CA",,retail,445110,Lion Market,"1070 Story Road, San Jose, 95122",,https://lionsupermarket.com/,37.3315271,-121.8538537,,,n_445291449,shop=supermarket
"Pleasanton, CA",,retail,453110,Ashby Flowers,,(510) 849-3121,https://www.ashbyflowers.com/,37.8560178,-122.25991,,,n_446235110,shop=florist
"Pleasanton, CA",,retail,445120,7-Eleven,"1201 Wildwood Avenue, Sunnyvale, CA, 94089-2701",+1 408-739-5240,https://www.7-eleven.com/locations/ca/sunnyvale/1201-wildwood-ave-16189,37.3921779,-121.99433,,,n_447936226,"shop=convenience, brand=7-Eleven"
"Pleasanton, CA",,retail,446120,Elegant nails,,,,37.3527986,-122.0321704,,,n_466092059,shop=beauty
"Pleasanton, CA",,retail,445310,Liquors foodmart,,,,37.3525397,-122.0312104,,,n_466092083,shop=alcohol
"Pleasanton, CA",,retail,445110,Safeway,"2227 South Shore Center, Alameda, CA, 94501",+1-510-863-9000,https://local.safeway.com/safeway/ca/alameda/2227-s-shore-ctr.html,37.7574333,-122.2507884,,,n_470780580,"shop=supermarket, brand=Safeway"
"Pleasanton, CA",,retail,445110,Trader Joe's,"2217 South Shore Center, Alameda, CA, 94501",+1-510-769-5450,https://locations.traderjoes.com/ca/alameda/109/,37.7577613,-122.2514016,,,n_470780581,"shop=supermarket, brand=Trader Joe's"
"Pleasanton, CA",,retail,445110,Lucky,"484 North Mathilda Avenue, Sunnyvale, CA, 94085",+1 408-737-1834,https://luckysupermarkets.com/stores/f37f906e-3b46-4968-b952-2aa7992107b3/SUNNYVALE/780/SUNNYVALE,37.388455,-122.0294043,,,n_487082163,"shop=supermarket, brand=Lucky"
"Pleasanton, CA",,retail,445110,New India Bazaar,,,,37.3528899,-121.9629999,,,n_487639344,shop=supermarket
"Pleasanton, CA",,retail,452319,Dollar Tree,,,https://www.dollartree.com/locations/ca/sunnyvale/3725/,37.3611931,-122.02624,,,n_488698436,"shop=variety_store, brand=Dollar Tree"
"Pleasanton, CA",,retail,452210,Ross,"119 East El Camino Real, Sunnyvale, CA, 94087",+1 408-730-4737,,37.3673385,-122.0292593,,,n_488725308,"shop=department_store, brand=Ross, operator=Ross"
"Pleasanton, CA",,retail,445230,Foothill Produce,,,,37.3367787,-122.067631,,,n_519482217,shop=greengrocer
"Pleasanton, CA",,retail,445120,7-Eleven,"1380 Pear Avenue, Mountain View, CA, 94043",+1 650-964-7259,https://www.7-eleven.com/locations/ca/mountain-view/1380-pear-avenue-33660,37.415979,-122.0771488,,,n_529145110,"shop=convenience, brand=7-Eleven"
"Pleasanton, CA",,retail,452210,Kohl's,"2201 South Shore Center, Alameda, CA, 94501",+1-510-263-0308,https://www.kohls.com/stores/ca/alameda-1324.shtml,37.7583943,-122.252605,,,n_533868356,"shop=department_store, brand=Kohl's"
"Pleasanton, CA",,retail,445120,Vin Fin Wines,,,,37.7638302,-122.2391914,,,n_547548502,shop=convenience
"Pleasanton, CA",,retail,445120,Sunbeam Market,1400 Adeline Street,,,37.809737,-122.2858454,,,n_558566895,shop=convenience
"Pleasanton, CA",,retail,445120,Golden West Market,18th Street,,,37.8123138,-122.2843108,,,n_559822366,shop=convenience
"Pleasanton, CA",,retail,446120,Sky Nails,"1059 Crane Street, Menlo Park, CA, 94025",6504620836,,37.4505488,-122.1849348,,,n_559831179,shop=beauty
"Pleasanton, CA",,retail,445110,Penzeys Spices,"771 Santa Cruz Avenue, Menlo Park, CA, 94025",,penzeysspices.com,37.4511212,-122.184771,,,n_559833060,shop=grocery
"Pleasanton, CA",,retail,445120,Corner Store,,,,37.4388858,-122.1787788,,,n_560469131,shop=convenience
"Pleasanton, CA",,retail,445120,7-Eleven,"1408 North 1st Street, San Jose, CA, 95112",+1 408-392-9207,https://www.7-eleven.com/locations/ca/san-jose/1408-n-1st-st-18965,37.362043,-121.9095179,,,n_563312834,"shop=convenience, brand=7-Eleven"
"Pleasanton, CA",,retail,445110,Nob Hill Foods,"270 Redwood Shores Parkway, Redwood City, CA, 94065",+1 (650) 654-2106,https://www.raleys.com/stores/nob-hill-foods-redwood-shores-redwood-city-california,37.5232544,-122.2518725,,,n_567010256,"shop=supermarket, operator=Raley's"
"Pleasanton, CA",,retail,446110,CVS Pharmacy,"1039 El Camino Real, Redwood City, 94063",(650) 780-9910,https://www.cvs.com/store-locator/redwood-city-ca-pharmacies/1039-el-camino-real-redwood-city-ca-94063/storeid=9329,37.4852762,-122.231299,,,n_567674191,"shop=chemist, brand=CVS Pharmacy"
"Pleasanton, CA",,retail,445292,See's Candies,"1027 El Camino Real, Redwood City, 94063",(650) 365-5434,,37.485041,-122.2319737,,,n_568046483,"shop=confectionery, brand=See's Candies"
"Pleasanton, CA",,retail,445110,India Metro Hypermarket,"5130 Mowry Avenue, Fremont, CA",,,37.5335039,-121.9970652,,,n_571853447,shop=supermarket
"Pleasanton, CA",,retail,445110,Lucky,"32300 Dyer Street, Union City, CA, 94587",,,37.5983937,-122.0690938,,,n_574012863,"shop=supermarket, brand=Lucky"
"Pleasanton, CA",,retail,445120,,,,,37.3459552,-121.99428,,,n_599326234,"shop=convenience, operator=7-Eleven"
"Pleasanton, CA",,retail,445110,Smart & Final,"2065 El Camino Real, Santa Clara, 95050",,,37.3530306,-121.9611027,,,n_611542090,"shop=supermarket, brand=Smart & Final, operator=Smart and Final"
"Pleasanton, CA",,retail,452210,Big Lots,"3735 El Camino Real, Santa Clara, CA, 95051",+1 408-247-0389,https://local.biglots.com/ca/santa-clara/3735-el-camino-real,37.3536299,-121.998654,,,n_622352576,"shop=department_store, brand=Big Lots"
"Pleasanton, CA",,retail,445310,Adel's Liquor & Check Cashing,"3737 El Camino Real, Santa Clara, 95051",,,37.3533841,-121.998899,,,n_622788410,shop=alcohol
"Pleasanton, CA",,retail,445110,Star Grocery,"3068 Claremont Avenue, Berkeley",+1 510-652-2490,https://m.facebook.com/stargroceryberkeley/,37.8547256,-122.2482299,,,n_661753960,shop=supermarket
"Pleasanton, CA",,retail,445120,7-Eleven,"5741 Thornhill Drive, Oakland, CA, 94611-2144",+1 510-339-9123,https://www.7-eleven.com/locations/ca/oakland/5741-thornhill-dr-14170,37.8346561,-122.2124927,,,n_661906871,"shop=convenience, brand=7-Eleven"
"Pleasanton, CA",,retail,445210,Wayland's Meat,,+1-510-530-3344,,37.7996971,-122.2165975,,,n_712646128,shop=butcher
"Pleasanton, CA",,retail,445120,Nick's Liquors,,,,37.8173328,-122.283537,,,n_728301693,shop=convenience
"Pleasanton, CA",,retail,445310,Fast Mart,,,,37.5519723,-122.0548741,,,n_746914824,shop=alcohol
"Pleasanton, CA",,retail,445120,Danny's Market,,,,37.3518382,-121.987069,,,n_760778504,shop=convenience
"Pleasanton, CA",,retail,445292,See's Candies,,,,37.3520414,-121.9870221,,,n_760778600,"shop=confectionery, brand=See's Candies"
"Pleasanton, CA",,retail,445110,Trader Joe's,"785 Oak Grove Road, Concord, CA, 94518",+1 925-521-1134,https://locations.traderjoes.com/ca/concord/83/,37.9377015,-122.0256327,,,n_761870395,"shop=supermarket, brand=Trader Joe's"
"Pleasanton, CA",,retail,445310,Wente Brothers Winery,,,,37.6647944,-121.7261024,,,n_804613613,shop=alcohol
"Pleasanton, CA",,retail,445230,Sigona's Farmers Market,,,,37.4426077,-122.1727706,,,n_824605394,shop=greengrocer
"Pleasanton, CA",,retail,445120,Sunol Corners Little Market,,,,37.5930709,-121.8820348,,,n_926022751,shop=convenience
"Pleasanton, CA",,retail,453110,,,,,37.8235144,-122.2070892,,,n_957441753,shop=florist
"Pleasanton, CA",,retail,445120,Shell,,,,37.7184056,-122.182019,,,n_976349358,"shop=convenience, brand=Shell"
"Pleasanton, CA",,retail,445110,Lucky,"Mowry Avenue, Fremont, CA",,,37.5347405,-121.9976697,,,n_984077415,"shop=supermarket, brand=Lucky"
"Pleasanton, CA",,retail,446120,Dream Face Beauty Spa,520 Lawrence Expressway,,,37.3827536,-121.9952496,,,n_988281121,shop=beauty
"Pleasanton, CA",,retail,445310,World Liquor,"34596 Alvarado-Niles Road, Union City, CA, 94587",,,37.5870856,-122.0191843,,,n_1014217315,shop=beverages
"Pleasanton, CA",,retail,446120,Silhouette Salon,"1766 Decoto Road, Union City, CA, 94587",,,37.5881579,-122.0191519,,,n_1014233835,shop=beauty
"Pleasanton, CA",,retail,452319,Dollar Tree,"1720 Decoto Road, Union City, CA, 94587",,https://www.dollartree.com/locations/ca/union-city/1233/,37.5886469,-122.0189581,,,n_1014233840,"shop=variety_store, brand=Dollar Tree"
"Pleasanton, CA",,retail,446120,Nail Genie,"1714 Decoto Road, Union City, CA, 94587",,,37.5888608,-122.0188658,,,n_1014233844,shop=beauty
"Pleasanton, CA",,retail,445310,Liquor Barrel,"2641 Decoto Road, Union City, 94587",,,37.582663,-122.0236638,,,n_1019485696,shop=beverages
"Pleasanton, CA",,retail,445110,Roshni Videos and Grocery,"2633 Decoto Road, Union City, CA, 94587",,,37.5827167,-122.0236516,,,n_1019485697,shop=grocery
"Pleasanton, CA",,retail,446120,Venus Salon,"2625 Decoto Road, Union City, 94587",,,37.5827826,-122.023637,,,n_1019485698,shop=beauty
"Pleasanton, CA",,retail,445120,Niles Liquors & Mini-mart,"34359 Alvarado-Niles Road, Union City, CA, 94587",,,37.5871836,-122.0229974,,,n_1019495681,shop=convenience
"Pleasanton, CA",,retail,445110,Bharat Bazar,"34301 Alvarado-Niles Road, Union City, CA, 94587",,,37.5872349,-122.0231341,,,n_1019495684,shop=supermarket
"Pleasanton, CA",,retail,445310,BevMo!,"Mowry Avenue, Fremont, CA",,,37.5357287,-122.0000891,,,n_1030445227,"shop=alcohol, brand=BevMo!"
"Pleasanton, CA",,retail,445120,Bevbox Market & Liquor,"1585 Madison Street, Oakland, 94612",,,37.8040509,-122.262678,,,n_1037993306,shop=convenience
"Pleasanton, CA",,retail,445110,Smart and Final Express,"31070 Union Landing Boulevard, Union City, CA, 94587",,,37.601648,-122.068044,,,n_1040620887,"shop=supermarket, brand=Smart & Final"
"Pleasanton, CA",,retail,445120,Gourmet Market,,,,37.8043229,-122.2639785,,,n_1068441480,shop=convenience
"Pleasanton, CA",,retail,446120,Elite Nail Spa,"32288 Dyer Street, Union City, 94587",,,37.5988199,-122.0692286,,,n_1077894734,shop=beauty
"Pleasanton, CA",,retail,445120,EM Deli & Catering,,+1-510-834-3651,https://emdelicatering.com/,37.8266034,-122.210125,,,n_1097204393,shop=convenience
"Pleasanton, CA",,retail,445292,Le Bonbon,,,,37.8266696,-122.2093748,,,n_1097204458,shop=confectionery
"Pleasanton, CA",,retail,445230,J.E. Perry Farms,"34600 Ardenwood Blvd, 94555",,http://www.perryfarmsorganic.com/,37.5533645,-122.0546405,,,n_1110068308,shop=greengrocer
"Pleasanton, CA",,retail,445110,FoodMaxx,,,,37.6322694,-122.0964258,,,n_1126598126,"shop=supermarket, brand=FoodMaxx"
"Pleasanton, CA",,retail,445120,Valero,,,https://locations.valero.com/en-us/LocationDetails/Index/4095-PACIFIC-BLVD/0000004722,37.530541,-122.287783,,,n_1141656456,"shop=convenience, amenity=fuel, brand=Valero"
"Pleasanton, CA",,retail,446120,Le Hair & Nails,"33360 Alvarado-Niles Road, Union City, 94587",,,37.5925294,-122.0383964,,,n_1145034506,shop=beauty
"Pleasanton, CA",,retail,445230,Mandela Grocery Cooperative,1430 7th Street,,https://www.mandelagrocery.coop/,37.8053283,-122.2941997,,,n_1186333561,shop=greengrocer
"Pleasanton, CA",,retail,445110,Trader Joe's,"45 West Hillsdale Boulevard, San Mateo, CA, 94403",+1 650-286-1509,https://locations.traderjoes.com/ca/san-mateo/245/,37.5354941,-122.298437,,,n_1199004366,"shop=supermarket, brand=Trader Joe's"
"Pleasanton, CA",,retail,446120,Perfumania,,,,37.5370315,-122.300046,,,n_1199004431,"shop=perfumery, brand=Perfumania"
"Pleasanton, CA",,retail,445292,Sweet Factory,,,,37.5370678,-122.3000865,,,n_1199004501,shop=confectionery
"Pleasanton, CA",,retail,445292,See's Candies,,,,37.5371783,-122.300738,,,n_1199358726,"shop=confectionery, brand=See's Candies"
"Pleasanton, CA",,retail,446120,MAC Cosmetics,,,,37.5373123,-122.3002123,,,n_1199358789,"shop=cosmetics, brand=MAC Cosmetics"
"Pleasanton, CA",,retail,446120,Pure Beauty,,,,37.5370508,-122.3007598,,,n_1199358834,shop=cosmetics
"Pleasanton, CA",,retail,446120,The Body Shop,,,,37.5373804,-122.3006847,,,n_1199358837,"shop=cosmetics, brand=The Body Shop"
"Pleasanton, CA",,retail,446120,Bath & Body Works,,,,37.5367786,-122.3002367,,,n_1199358862,"shop=cosmetics, brand=Bath & Body Works"
"Pleasanton, CA",,retail,446120,Aveda,,,,37.5379994,-122.3008912,,,n_1199358898,"shop=cosmetics, brand=Aveda"
"Pleasanton, CA",,retail,445120,7-Eleven,"15651 Washington Avenue, San Lorenzo, CA, 94580-1428",+1 510-276-0917,https://www.7-eleven.com/locations/ca/san-lorenzo/15651-washington-ave-14190,37.6820448,-122.1378871,,,n_1218560204,"shop=convenience, brand=7-Eleven"
"Pleasanton, CA",,retail,445310,The Wine Mine,,,,37.8398397,-122.2624402,,,n_1232879234,shop=alcohol
"Pleasanton, CA",,retail,445310,Voyager Liquors,,,,37.3918011,-121.9942037,,,n_1238685815,shop=alcohol
"Pleasanton, CA",,retail,445120,7-Eleven,"848 East Evelyn Avenue, Sunnyvale, CA, 94086",+1 408-542-9370,https://www.7-eleven.com/locations/ca/sunnyvale/848-e-evelyn-ave-29243,37.3702894,-122.0143808,,,n_1242653426,"shop=convenience, brand=7-Eleven"
"Pleasanton, CA",,retail,445120,Tazah Market,"2207 MacArthur Boulevard, Oakland, CA, 94602",510-531-9000,,37.8001844,-122.2159367,,,n_1244729027,shop=convenience
"Pleasanton, CA",,retail,445110,Foodnet,,,,37.6793441,-122.154365,,,n_1247598192,shop=supermarket
"Pleasanton, CA",,retail,445110,Mercadito Latino,"1726 El Camino Real, Redwood City, 94063",(650) 306-0104,,37.478652,-122.2251858,,,n_1251606827,shop=supermarket
"Pleasanton, CA",,retail,445110,Bianchini's,,,,37.5033115,-122.2577495,,,n_1251635656,shop=supermarket
"Pleasanton, CA",,retail,452210,Ross,"1119 Industrial Road, San Carlos, CA, 94070",+1 650-654-7953,,37.5035895,-122.2466021,,,n_1251643248,"shop=department_store, brand=Ross"
"Pleasanton, CA",,retail,445120,,,,,37.4640553,-122.1574318,,,n_1256830735,shop=convenience
"Pleasanton, CA",,retail,453110,Twig And Petal,,,,37.459179,-122.1527419,,,n_1257027872,shop=florist
"Pleasanton, CA",,retail,445230,Cupertino Market,"19725 Stevens Creek Boulevard, 95014-2405",,,37.3238036,-122.0181611,,,n_1296642200,shop=greengrocer
"Pleasanton, CA",,retail,446120,Kayla's nail care,22356 Homestead Road,,,37.3370456,-122.0662219,,,n_1305225433,shop=beauty
"Pleasanton, CA",,retail,446120,Envy Nails,"4119 El Camino Way, Palo Alto",,,37.414418,-122.1250975,,,n_1306297063,shop=beauty
"Pleasanton, CA",,retail,445110,Namaste Plaza Supermarket,890 Ralston Avenue,,,37.520286,-122.27704,,,n_1312453891,shop=supermarket
"Pleasanton, CA",,retail,453110,Ralston Florist,932 Ralston Avenue,,,37.5196011,-122.2771067,,,n_1312463185,shop=florist
"Pleasanton, CA",,retail,445120,7-Eleven,"11 Laurie Meadows Drive, San Mateo, CA, 94403-4610",+1 650-573-9038,https://www.7-eleven.com/locations/ca/san-mateo/11-laurie-meadows-dr-14319,37.530961,-122.287182,,,n_1312578373,"shop=convenience, brand=7-Eleven"
"Pleasanton, CA",,retail,445310,brown & gold market liquors,,,,37.3909836,-122.0961714,,,n_1313539234,shop=alcohol
"Pleasanton, CA",,retail,452210,TJ Maxx,,,,37.7571824,-122.25339,,,n_1315928617,"shop=department_store, brand=TJ Maxx"
"Pleasanton, CA",,retail,446120,OMG! Nails & Spa,"2033 West El Camino Real, Mountain View, CA, 94040",,,37.3945958,-122.100379,,,n_1335304626,shop=beauty
"Pleasanton, CA",,retail,446120,Capelli Beauty,"2567 El Camino Real, Redwood City, 94061",(650) 363-8966,,37.4731251,-122.2168444,,,n_1337779930,shop=beauty
"Pleasanton, CA",,retail,445310,Vin Vino Wine,"437 South California Avenue, Palo Alto, 94306",+16503244903,http://www.vinvinowine.com/,37.4258473,-122.145016,,,n_1350903587,shop=alcohol
"Pleasanton, CA",,retail,446120,H & T Beauty Salon,"1683 Broadway, Redwood City",,,37.4867608,-122.2205415,,,n_1350903651,shop=beauty
"Pleasanton, CA",,retail,446120,Park Avenue Salon and Spa,"609 Santa Cruz Avenue, Menlo Park, CA, 94025",650-328-6311,,37.453227,-122.183071,,,n_1353170650,shop=beauty
"Pleasanton, CA",,retail,446120,Nail Spa,,,,37.4525476,-122.182659,,,n_1353171038,shop=beauty
"Pleasanton, CA",,retail,446120,Perfect Nails,"400d Walnut Street, Redwood City, CA, 94063",,,37.4905338,-122.2249697,,,n_1355479718,shop=beauty
"Pleasanton, CA",,retail,445120,7-Eleven,"1126 Davis Street, San Leandro, CA, 94577-2500",+1 510-638-3584,https://www.7-eleven.com/locations/ca/san-leandro/1126-davis-st-20273,37.722078,-122.16814,,,n_1361601871,"shop=convenience, brand=7-Eleven"
"Pleasanton, CA",,retail,445120,Arrowhead food & liquor,3860 lake arrowhead,,,37.586092,-122.060232,,,n_1364682119,shop=convenience
"Pleasanton, CA",,retail,445292,Wonder Bakery Thriftshop,833 Montague Avenue,,,37.7107841,-122.1568554,,,n_1370586475,shop=confectionery
"Pleasanton, CA",,retail,446120,Ann's Nails,"105 Main Street, Los Altos, CA, 94022",6509492446,,37.3803655,-122.1145725,,,n_1373306760,shop=beauty
"Pleasanton, CA",,retail,446120,Orchid Bloom Spa,"Main Street, Los Altos",6509170900,http://www.orchidbloomspa.com/,37.3803186,-122.1146181,,,n_1373306815,shop=beauty
"Pleasanton, CA",,retail,446120,The Body Klinique Day Spa & salon,"39474 Fremont Boulevard, Fremont, 94538",,,37.5456871,-121.9807491,,,n_1374388682,shop=beauty
"Pleasanton, CA",,retail,445120,Sunshine Mart,"Fremont Boulevard, Fremont, 94538",,,37.5457287,-121.9807097,,,n_1374388947,shop=convenience
"Pleasanton, CA",,retail,445120,Oasis Food Market,,,,37.8198916,-122.26717,,,n_1377034082,shop=convenience
"Pleasanton, CA",,retail,445110,Lakeshore Natural Foods,,+1-510-452-1079,https://lakeshorenatural.com/,37.8109894,-122.2439078,,,n_1378041461,shop=supermarket
"Pleasanton, CA",,retail,445120,7-Eleven,"1951 Old Middlefield Way, Mountain View, CA, 94043-2543",+1 650-961-5913,https://www.7-eleven.com/locations/ca/mountain-view/1951-old-middlefield-way-14321,37.4140197,-122.089619,,,n_1387206075,"shop=convenience, brand=7-Eleven"
"Pleasanton, CA",,retail,445120,Happy Times Discount Shop,"2882 Telegraph Avenue, 94609",,,37.8180313,-122.267258,,,n_1388233468,shop=convenience
"Pleasanton, CA",,retail,453991,New City Plus Discount Shop,,,,37.8191146,-122.2669747,,,n_1395340513,shop=tobacco
"Pleasanton, CA",,retail,453110,Flowers for Joy,,,,37.8082873,-122.2662418,,,n_1421088346,shop=florist
"Pleasanton, CA",,retail,446120,Velvet Head Spa,"3961 Rivermark Parkway, Santa Clara, CA, 95054",,,37.3952714,-121.946294,,,n_1424445757,shop=beauty
"Pleasanton, CA",,retail,445110,Nob Hill Foods,,,,37.7627649,-121.9515436,,,n_1425314672,shop=supermarket
"Pleasanton, CA",,retail,446120,Radhika Beauty Salon,"2033 El Camino Real, Palo Alto, CA, 94306",+1 6504229182,https://radhikabeautysalon.com/,37.4276045,-122.14875,,,n_1432280508,shop=beauty
"Pleasanton, CA",,retail,453110,Village Flower Shop,"2237 El Camino Real, Palo Alto",+1 650-328-5992,https://www.villageflowershoppe.net,37.426019,-122.1469406,,,n_1432284453,shop=florist
"Pleasanton, CA",,retail,452319,Dollar Tree,"516 El Camino Real, 94002-2121",+1 (650) 595-1196,https://www.dollartree.com/locations/ca/belmont/2782/,37.525309,-122.282366,,,n_1435913550,"shop=variety_store, brand=Dollar Tree"
"Pleasanton, CA",,retail,445110,Smart & Final Extra!,"1265 South Mary Avenue, Sunnyvale, CA, 94087",+1 408 245 4423,,37.3534132,-122.051227,,,n_1459467598,"shop=supermarket, brand=Smart & Final"
"Pleasanton, CA",,retail,446120,Elegance Threading Salon,"440 High Street, Palo Alto, CA, 94301",,https://www.elegancethreadingsalon.com/,37.4443448,-122.1640432,,,n_1460242858,shop=beauty
"Pleasanton, CA",,retail,446120,La Jolie Nail Spa,"364 South California Avenue, Palo Alto, CA, 94306",650-322-8882,https://www.lajolienailspa.com/,37.4269106,-122.1445814,,,n_1481755782,shop=beauty
"Pleasanton, CA",,retail,453110,Showers of Flowers,,,,37.829857,-122.2793082,,,n_1491017875,shop=florist
"Pleasanton, CA",,retail,452210,Ross,"5412 Ygnacio Valley Road, Concord, CA, 94521",+1 925-524-0276,,37.9489185,-121.9587844,,,n_1492592014,"shop=department_store, brand=Ross"
"Pleasanton, CA",,retail,445110,Raley's,,,,37.5535901,-121.9790541,,,n_1543828800,"shop=supermarket, brand=Raley's"
"Pleasanton, CA",,retail,445310,BevMo!,,,,37.7960108,-122.2790131,,,n_1556168730,"shop=alcohol, brand=BevMo!"
"Pleasanton, CA",,retail,445110,Nob Hill Foods,"1250 Grant Road, Mountain View, 94040",(650) 390-9222,,37.3783433,-122.0763504,,,n_1570138528,shop=supermarket
"Pleasanton, CA",,retail,445110,Felipe's Market,"1101 West El Camino Real, Sunnyvale, CA, 94087",+1 408 720 8111,,37.3731537,-122.0523686,,,n_1572294518,shop=supermarket
"Pleasanton, CA",,retail,445120,Galamart,"1193 West El Camino Real, Sunnyvale, CA, 94087",,,37.3745036,-122.0557763,,,n_1572294521,shop=convenience
"Pleasanton, CA",,retail,445110,Madras Groceries,,,,37.3744131,-122.0554677,,,n_1572297515,shop=supermarket
"Pleasanton, CA",,retail,445120,Easy Foods,299 Castro Street,,,37.392596,-122.0795602,,,n_1578531199,shop=convenience
"Pleasanton, CA",,retail,452210,Marshalls,1040 #130 Grant Road,,,37.3791084,-122.0753822,,,n_1579611532,"shop=department_store, brand=Marshalls"
"Pleasanton, CA",,retail,445120,7-Eleven,"77 Newell Road, East Palo Alto, CA, 94303-2721",+1 650-324-8592,https://www.7-eleven.com/locations/ca/east-palo-alto/77-newell-rd-14336,37.4573234,-122.1368923,,,n_1600385962,"shop=convenience, brand=7-Eleven"
"Pleasanton, CA",,retail,445120,Village Market,,,,37.9408329,-121.9347295,,,n_1608420289,shop=convenience
"Pleasanton, CA",,retail,446120,bluemercury,"855 Town and Country Village, Palo Alto, 94301",,https://bluemercury.com/,37.4386625,-122.159925,,,n_1642124861,"shop=cosmetics, brand=bluemercury"
"Pleasanton, CA",,retail,445110,Safeway,"867 Island Drive, Alameda, CA, 94502",+1 510-521-4833,https://local.safeway.com/safeway/ca/alameda/867-island-dr.html,37.7377092,-122.239576,,,n_1643851282,"shop=supermarket, brand=Safeway"
"Pleasanton, CA",,retail,446120,A Touch of Elegance,1150 Crane Street,,,37.451628,-122.185925,,,n_1649224008,shop=beauty
"Pleasanton, CA",,retail,445110,99 Ranch Market,"35219 Newark Boulevard, Newark, CA, 94560",,,37.5477641,-122.0467976,,,n_1654045179,"shop=supermarket, brand=99 Ranch Market, operator=99 Ranch"
"Pleasanton, CA",,retail,452319,Dollar Tree,"2222 Business Circle, San Jose, 95128",,https://www.dollartree.com/locations/ca/san-jose/5522/,37.3229244,-121.9330855,,,n_1660054719,"shop=variety_store, brand=Dollar Tree"
"Pleasanton, CA",,retail,446120,Perfect 10 Nails,"1049 El Camino Real, Redwood City, 94063",(650) 216-7266,,37.4851048,-122.230973,,,n_1669480255,shop=beauty
"Pleasanton, CA",,retail,445310,Vera Cash Market,"400 Vera Avenue, Redwood City, 94061",,,37.4786945,-122.2300993,,,n_1669602735,shop=alcohol
"Pleasanton, CA",,retail,452210,JCPenney,,,,37.9658084,-121.733731,,,n_1669925513,"shop=department_store, brand=JCPenney"
"Pleasanton, CA",,retail,446120,FR Spa,"1406 El Camino Real, Redwood City, 94063",,,37.4812434,-122.2287662,,,n_1674164739,shop=beauty
"Pleasanton, CA",,retail,446120,Nails Trix Salon,"1540 El Camino Real, Redwood City, 94063",(650) 365-3822,,37.4803909,-122.2275832,,,n_1675288462,shop=beauty
"Pleasanton, CA",,retail,445230,Trinethra Super Market,"812 West El Camino Real, Sunnyvale, CA, 94087",,,37.369178,-122.041748,,,n_1676581901,shop=greengrocer
"Pleasanton, CA",,retail,445120,7-Eleven,"1039 Sunnyvale-Saratoga Road, Sunnyvale, CA, 94087-2503",+1 408-245-9711,https://www.7-eleven.com/locations/ca/sunnyvale/1039-sunnyvale-saratoga-r-27244,37.3586138,-122.0329432,,,n_1678631164,"shop=convenience, brand=7-Eleven"
"Pleasanton, CA",,retail,453991,Sequoia Smoke & Sundries,"1061 El Camino Real, Redwood City, 94063",(650) 365-3858,,37.4850271,-122.2307675,,,n_1679196590,shop=tobacco
"Pleasanton, CA",,retail,445310,Roosevelt Liquor,"1700 El Camino Real, Redwood City, 94063",(650) 365-4071,,37.4789416,-122.2255657,,,n_1684183296,shop=alcohol
"Pleasanton, CA",,retail,452319,99 Cents And Over,"1812 El Camino Real, Redwood City, 94063",(650) 306-0117,,37.4780769,-122.2243706,,,n_1684183366,shop=variety_store
"Pleasanton, CA",,retail,445110,FoodMaxx,"39965 Cedar Boulevard, Fremont, CA",,,37.519625,-121.991627,,,n_1691658594,"shop=supermarket, brand=FoodMaxx"
"Pleasanton, CA",,retail,445310,Woodside Manor Liquors,"524 Woodside Road, Redwood City, 94061",(650) 366-5456,,37.4703337,-122.2237888,,,n_1700520910,shop=alcohol
"Pleasanton, CA",,retail,452210,Kohl's,"1150 Great Mall Drive, Milpitas, CA, 95035",+1 408-262-4055,https://www.kohls.com/stores/ca/milpitas-994.shtml,37.4170186,-121.8995682,,,n_1700616940,"shop=department_store, brand=Kohl's"
"Pleasanton, CA",,retail,445110,99 Ranch Market,"338 Barber Lane, Milpitas, CA, 95035",+1-408-946-8899,https://www.99ranch.com/stores/milpitas-california,37.4227499,-121.916896,,,n_1700616945,"shop=supermarket, brand=99 Ranch Market"
"Pleasanton, CA",,retail,445110,Smart & Final,"401 Jacklin Road, Milpitas, CA, 95035",,,37.4476401,-121.902509,,,n_1700633025,"shop=supermarket, brand=Smart & Final"
"Pleasanton, CA",,retail,446120,I Nails,"353 Jacklin Road, Milpitas, CA, 95035",+1 408-946-1800,,37.4466264,-121.903202,,,n_1700633026,shop=beauty
"Pleasanton, CA",,retail,445120,Gold Star Liquor-Deli,"615 Woodside Road, Redwood City, 94061",(650) 363-8915,,37.4689989,-122.2231798,,,n_1703921195,shop=convenience
"Pleasanton, CA",,retail,445110,Marina Foods,"1791 Decoto Road, Union City, 94587",,,37.5888196,-122.0230714,,,n_1705367190,shop=supermarket
"Pleasanton, CA",,retail,445110,Woodminster Market,5000 Woodminster Lane,,,37.811192,-122.1971997,,,n_1707556416,shop=supermarket
"Pleasanton, CA",,retail,445120,Calidad Market,"2512 El Camino Real, Redwood City, 94061",,,37.473536,-122.2180671,,,n_1707914530,shop=convenience
"Pleasanton, CA",,retail,446120,Fabulous Nails,"2519 El Camino Real, Redwood City, 94061",(650) 369-3190,,37.4738857,-122.217007,,,n_1709500177,shop=beauty
"Pleasanton, CA",,retail,446120,The Pedestal,"956 Main Street, 94063",,http://thepedestalsalon.com,37.4846894,-122.226363,,,n_1718921130,shop=beauty
"Pleasanton, CA",,retail,445120,Main Street Market,"804 Main Street, Redwood City, 94063",,,37.4864106,-122.2264385,,,n_1721445034,shop=convenience
"Pleasanton, CA",,retail,446120,Happy Nails,"2005 Broadway, 94063",,,37.4865087,-122.2265276,,,n_1723252751,shop=beauty
"Pleasanton, CA",,retail,446120,Retreat Salon,"2072 Broadway Street, Redwood City, 94063",,,37.4866935,-122.2276678,,,n_1724869726,shop=beauty
"Pleasanton, CA",,retail,453110,Flower Bowl Florist,,,,37.895775,-122.072229,,,n_1727144380,shop=florist
"Pleasanton, CA",,retail,446120,Metamorphosis,,,,37.901642,-122.064777,,,n_1727225699,shop=beauty
"Pleasanton, CA",,retail,446120,Galaxy Nail Spa,"1671 North California Boulevard, Walnut Creek, CA",,,37.902058,-122.065113,,,n_1727225739,shop=beauty
"Pleasanton, CA",,retail,453991,Raw,"2363 Broadway, Redwood City, 94063",,,37.4862887,-122.2307898,,,n_1729170151,shop=tobacco
"Pleasanton, CA",,retail,445110,Raley's,"2550 Tracy Blvd, 95377",,https://www.raleys.com/,37.7122935,-121.4327012,,,n_1729192485,"shop=supermarket, brand=Raley's"
"Pleasanton, CA",,retail,446120,The Beauty Lounge,"2417 Broadway, Redwood City, 94063",(650) 365-6022,http://www.thebeautylounge.bz,37.4862318,-122.2315885,,,n_1731368535,shop=beauty
"Pleasanton, CA",,retail,446120,Natalie’s Salon,"2606 Broadway, Redwood City, 94063",(650) 298-8586,http://www.nataliesalon.com,37.4864061,-122.2335389,,,n_1734830410,shop=beauty
"Pleasanton, CA",,retail,446120,Shiny Nails,"2649 Broadway, Redwood City, 94063",(650) 366-1077,,37.4861176,-122.2341329,,,n_1734830477,shop=beauty
"Pleasanton, CA",,retail,453991,Sky Zone Smoke Shop,"2664 Broadway, Redwood City, 94063",(650) 369-4470,,37.4863511,-122.2347294,,,n_1736874245,shop=tobacco
"Pleasanton, CA",,retail,446120,Omomi,"350 South California Avenue, Palo Alto, 94306",,,37.4270209,-122.1445077,,,n_1737926909,shop=beauty
"Pleasanton, CA",,retail,446120,LaBelle Day Spas and Salons,"855 Town and Country Village, Palo Alto, 94301",(650) 327-6964,https://www.labelledayspas.com/,37.4388422,-122.1592454,,,n_1747200870,shop=beauty
"Pleasanton, CA",,retail,446120,New Age Hair & Nail Spa,"2773 El Camino Real, Redwood City, 94061",(650) 261-1278,,37.4710557,-122.2140306,,,n_1758992076,shop=beauty
"Pleasanton, CA",,retail,446120,Nail Galleria,"643 South Bernardo Avenue, Sunnyvale, CA, 94087",,https://nailgalleriaonline.com/,37.3723112,-122.058094,,,n_1777779992,shop=beauty
"Pleasanton, CA",,retail,446120,Nancy's Nails,"738 Woodside Road, Redwood City, 94061",(650) 369-4386,,37.4676133,-122.2246173,,,n_1782888256,shop=beauty
"Pleasanton, CA",,retail,446120,Precious Nails,"760 Woodside Road, Redwood City, 94061",(650) 368-1488,,37.4669942,-122.2244339,,,n_1782888293,shop=beauty
"Pleasanton, CA",,retail,445120,Stop In Food,"754 Woodside Road, Redwood City, 94061",,,37.4671832,-122.2243906,,,n_1782888308,shop=convenience
"Pleasanton, CA",,retail,445310,Prima Vini,,,,37.9002864,-122.0610363,,,n_1803588118,shop=alcohol
"Pleasanton, CA",,retail,445110,Zanotto's Market Sunnyvale,"1356 South Mary Avenue, Sunnyvale, CA, 94087",+1 408-212-4928,https://www.zanottos.com/,37.3501764,-122.0495621,,,n_1843364371,"shop=supermarket, brand=Zanotto's, operator=Zanotto's Family Markets"
"Pleasanton, CA",,retail,445110,New India Bazaar,"1340 South Mary Avenue, Sunnyvale, CA, 94087",(408) 530-9555,http://www.newindiabazar.us/,37.3508028,-122.0494746,,,n_1843364386,shop=supermarket
"Pleasanton, CA",,retail,445120,Bottleneck,,,,37.7541232,-122.1524995,,,n_1861077529,shop=convenience
"Pleasanton, CA",,retail,445120,7-Eleven,"708 North Fair Oaks Avenue, Sunnyvale, CA, 94085",+1 408-530-8290,https://www.7-eleven.com/locations/ca/sunnyvale/708-n-fair-oaks-ave-27768,37.3915044,-122.013947,,,n_1865864914,"shop=convenience, brand=7-Eleven"
"Pleasanton, CA",,retail,446120,European Wax Center,"1063 El Camino Real, Redwood City, 94063",(650) 261-0100,https://locations.waxcenter.com/ca/redwoodcity/redwood-city-0278.html,37.4849965,-122.2307948,,,n_1918122665,"shop=beauty, brand=European Wax Center"
"Pleasanton, CA",,retail,445110,Walgreens,,,,37.9523055,-121.954894,,,n_1920275837,shop=supermarket
"Pleasanton, CA",,retail,445110,Lucky,,,,37.9538917,-121.9657488,,,n_1920278633,"shop=supermarket, brand=Lucky"
"Pleasanton, CA",,retail,445110,FoodMaxx,,,,37.9639857,-121.9874844,,,n_1920361993,"shop=supermarket, brand=FoodMaxx"
"Pleasanton, CA",,retail,445310,BevMo!,,,,37.9305468,-122.015808,,,n_1920398781,"shop=alcohol, brand=BevMo!"
"Pleasanton, CA",,retail,445120,7-Eleven,,,https://www.7-eleven.com/locations/ca/concord/4101-concord-blvd-32604,37.9782517,-121.9939529,,,n_1920761599,"shop=convenience, brand=7-Eleven"
"Pleasanton, CA",,retail,452210,Marshalls,"Fremont, CA",,,37.545022,-121.98621,,,n_1963997096,"shop=department_store, brand=Marshalls"
"Pleasanton, CA",,retail,445120,Namaste Plaza,,,,37.3781563,-121.9953153,,,n_1998283900,shop=convenience
"Pleasanton, CA",,retail,453110,Apple Blossom Florist,"2807 Telegraph Avenue, 94609",,https://www.floristinoaklandca.com/,37.8175962,-122.2677651,,,n_2050257371,shop=florist
"Pleasanton, CA",,retail,446120,Impression Spa,"717 East El Camino Real, Sunnyvale, CA, 94087",,https://www.impressionspasunnyvale.com/,37.359118,-122.021026,,,n_2050793997,shop=beauty
"Pleasanton, CA",,retail,445110,Grocery Outlet,"3445 Alma Street, Palo Alto, 94306",(650)561-4394,,37.4190516,-122.124512,,,n_2051505803,"shop=supermarket, brand=Grocery Outlet"
"Pleasanton, CA",,retail,445310,BevMo!,,,,37.541818,-122.289866,,,n_2084086118,"shop=alcohol, brand=BevMo!"
"Pleasanton, CA",,retail,445110,Lucky,,,,37.692665,-121.7750444,,,n_2104739903,"shop=supermarket, brand=Lucky"
"Pleasanton, CA",,retail,445110,Trader Joe's,"1122 A East Stanley Boulevard, Livermore, CA, 94550",+1 925-243-1947,https://locations.traderjoes.com/ca/livermore/208/,37.6800597,-121.7817694,,,n_2104775676,"shop=supermarket, brand=Trader Joe's"
"Pleasanton, CA",,retail,445110,Nob Hill,,,,37.6772755,-121.7849677,,,n_2104779661,shop=supermarket
"Pleasanton, CA",,retail,445120,7-Eleven,"1880 Fourth Street, Livermore, CA, 94550-4454",+1 925-455-0611,https://www.7-eleven.com/locations/ca/livermore/1880-fourth-st-14203,37.6785674,-121.771886,,,n_2104795995,"shop=convenience, brand=7-Eleven"
"Pleasanton, CA",,retail,445120,7-Eleven,"891 Airway Boulevard, Livermore, CA, 94551",+1 925-294-9361,https://www.7-eleven.com/locations/ca/livermore/891-airway-blvd-33480,37.6995142,-121.8172339,,,n_2104803485,"shop=convenience, brand=7-Eleven"
"Pleasanton, CA",,retail,446120,Atelier Studio,"377 Santana Row, San Jose, CA, 95128",+1 408-244-4222,https://www.ateliersalon.com/,37.3193428,-121.9493282,,,n_2109314183,"shop=beauty, amenity=training, brand=Aveda, operator=Bennett Holdings Incorporated"
"Pleasanton, CA",,retail,445310,Vintage Wine Merchants,"377 Santana Row, San Jose, CA, 95128",+1 408-260-1115,https://www.vintagewinemerchants.com/,37.3193484,-121.9485215,,,n_2109330890,"shop=alcohol, operator=New Montrachet LLC"
"Pleasanton, CA",,retail,446120,Sephora,"377 Santana Row, San Jose, CA, 95128",+1 408-247-0907,https://www.sephora.com/happening/stores/santanarow,37.3201928,-121.9481554,,,n_2109382527,"shop=cosmetics, brand=Sephora"
"Pleasanton, CA",,retail,446120,W’s Salon,"377 Santana Row, San Jose, CA, 95128",+1 408-247-8953,http://wssaloninc.com/,37.3204044,-121.9493541,,,n_2109414095,shop=beauty
"Pleasanton, CA",,retail,446120,LaserAway,"377 Santana Row, San Jose, CA, 95128",+1 408-248-2929,https://www.laseraway.com/locations/ca/san-jose/,37.3203956,-121.9495367,,,n_2109414096,"shop=beauty, brand=LaserAway"
"Pleasanton, CA",,retail,446120,Australian Tan,"451 Saratoga Avenue, San Jose, 95129",,,37.319831,-121.9747312,,,n_2120292071,shop=beauty
"Pleasanton, CA",,retail,445110,Lion,"471 Saratoga Avenue, San Jose, 95129",,,37.3191154,-121.9746084,,,n_2120292072,shop=supermarket
"Pleasanton, CA",,retail,446120,Diptyque',,,,37.4384448,-122.159448,,,n_2124086184,"shop=perfumery, brand=Diptyque'"
"Pleasanton, CA",,retail,452319,Baby Super&Rocker,"1523 Parkmoor Avenue, San Jose, 95128",,,37.3176171,-121.9153432,,,n_2124692042,shop=general
"Pleasanton, CA",,retail,445110,Trader Joe's,"316 West El Camino Real, Sunnyvale, CA, 94087",+1 408-736-7573,https://locations.traderjoes.com/ca/sunnyvale/68/,37.3679656,-122.0358812,,,n_2125918594,"shop=supermarket, brand=Trader Joe's"
"Pleasanton, CA",,retail,452210,Kohl's,"2302 Monument Boulevard, Pleasant Hill, CA, 94523",+1 925-691-9650,https://www.kohls.com/stores/ca/pleasanthill-978.shtml,37.9435608,-122.0573791,,,n_2131729855,"shop=department_store, brand=Kohl's"
"Pleasanton, CA",,retail,445110,99 Ranch Market,,,,37.974627,-122.039901,,,n_2131739199,"shop=supermarket, brand=99 Ranch Market"
"Pleasanton, CA",,retail,446120,SalonCentric,"2517 El Camino Real, Redwood City, 94061",(650) 363-8530,https://www.saloncentric.com/,37.4738324,-122.2170546,,,n_2148386525,shop=beauty
"Pleasanton, CA",,retail,446120,Wink Beauty Spa,"854 Villa Street, Mountain View",,,37.3941608,-122.0795341,,,n_2157948524,shop=beauty
"Pleasanton, CA",,retail,445230,Ava's Market and Deli,340 Castro Street,,,37.3920833,-122.0802082,,,n_2157948533,shop=greengrocer
"Pleasanton, CA",,retail,445310,Sousa's Wine & Liquors,"400 Moffett Boulevard, Mountain View, CA, 94043",+1-650-967-4461,https://sousaswineandliquors.com,37.3992903,-122.075508,,,n_2158272711,"shop=alcohol, operator=Alberto Sousa"
"Pleasanton, CA",,retail,453110,Fleur de Lis,,,,37.3868129,-122.0830588,,,n_2160143579,shop=florist
"Pleasanton, CA",,retail,446120,,"821 Castro Street, Mountain View, CA, 94041",,,37.3867499,-122.083098,,,n_2160143769,shop=beauty
"Pleasanton, CA",,retail,445110,Patel Brothers,,,,37.3530378,-121.960403,,,n_2195192134,"shop=supermarket, brand=Patel Brothers"
"Pleasanton, CA",,retail,446120,Nails by Kathy,"2145 El Camino Real, Santa Clara, CA, 95050",,,37.3529796,-121.961961,,,n_2195192959,shop=beauty
"Pleasanton, CA",,retail,445120,99c Bay,,,,37.3528847,-121.9632464,,,n_2195194197,shop=convenience
"Pleasanton, CA",,retail,445310,Bobby's Liquors,,,,37.3528314,-121.965631,,,n_2195200542,shop=alcohol
"Pleasanton, CA",,retail,446110,Rite Aid,"2310 Homestead Road, Los Altos, CA, 94024",+1-408-773-0134,https://www.riteaid.com/locations/ca/los-altos/2310-homestead-rd.html,37.3364597,-122.0674365,,,n_2204100721,"shop=chemist, brand=Rite Aid, operator=Thrifty Payless Incorporated"
"Pleasanton, CA",,retail,445110,Trader Joe's,"2310 Homestead Road, Los Altos, CA, 94024",+1 408-245-1917,https://locations.traderjoes.com/ca/los-altos/127/,37.3371572,-122.0675117,,,n_2204100722,"shop=supermarket, brand=Trader Joe's"
"Pleasanton, CA",,retail,446120,Salon Finesse,732 Villa Street,+1 650 968 1386,,37.393586,-122.078113,,,n_2207148369,shop=beauty
"Pleasanton, CA",,retail,445310,Jane's Beer Store,120 Villa Street,,,37.3935395,-122.077995,,,n_2217251263,shop=alcohol
"Pleasanton, CA",,retail,445110,FoodMaxx,,,,37.9559165,-122.0416269,,,n_2221256810,"shop=supermarket, brand=FoodMaxx"
"Pleasanton, CA",,retail,445310,Cork'n Bottle Liquor,,,,37.9376797,-122.0260808,,,n_2221320214,shop=alcohol
"Pleasanton, CA",,retail,452210,Ross,"1295 South Main Street, Walnut Creek, CA, 94596",+1 925-934-1900,,37.8941064,-122.0601717,,,n_2221470127,"shop=department_store, brand=Ross"
"Pleasanton, CA",,retail,445292,Kara's Cupcakes,,,,37.8991312,-122.060566,,,n_2221476373,shop=confectionery
"Pleasanton, CA",,retail,446120,Image Beauty Salon,"834 West El Camino Real, Sunnyvale, CA, 94087",,,37.3696025,-122.0425448,,,n_2225536000,shop=beauty
"Pleasanton, CA",,retail,445110,99 Ranch Market,"1688 Hostetter Road, San Jose, CA, 95131",+1 408-436-8899,,37.3863372,-121.8844054,,,n_2235254641,"shop=supermarket, brand=99 Ranch Market"
"Pleasanton, CA",,retail,445292,Chocolatier Desiree,165c South Murphy Avenue,,,37.3766245,-122.0304771,,,n_2235551629,shop=confectionery
"Pleasanton, CA",,retail,446120,Bollywood Salon and Spa,"616 Hollenbeck Avenue, Sunnyvale, CA, 94087",+1 408 732 3998,https://www.bollywoodsalonspa.com/,37.3693253,-122.040745,,,n_2245698270,"shop=beauty, operator=Bollywood Salon & Spa Incorporated"
"Pleasanton, CA",,retail,445120,Super Quick Mart,"622 Hollenbeck Avenue, Sunnyvale, CA, 94087",,,37.3691835,-122.0408102,,,n_2245698276,shop=convenience
"Pleasanton, CA",,retail,446120,Glenn Nail Salon,,,,37.3687987,-122.0375643,,,n_2246766268,shop=beauty
"Pleasanton, CA",,retail,452210,Kohl's,"250 Walnut Street, Redwood City, CA, 94063",+1 650-599-9149,https://www.kohls.com/stores/ca/redwoodcity-1389.shtml,37.4922157,-122.22432,,,n_2255931338,"shop=department_store, brand=Kohl's"
"Pleasanton, CA",,retail,446120,L'Occitane,,,,37.4441676,-122.1705961,,,n_2283292387,"shop=cosmetics, brand=L'Occitane"
"Pleasanton, CA",,retail,452210,Ross,"11 Curtner Avenue, San Jose, CA, 95125",+1 408-947-1318,,37.3038631,-121.8632219,,,n_2293224705,"shop=department_store, brand=Ross"
"Pleasanton, CA",,retail,453110,Rose Cart Florist,,,,37.3379053,-122.0428652,,,n_2307923073,shop=florist
"Pleasanton, CA",,retail,445120,Sunol Food and Liquor,11914 Main Street,,,37.5939033,-121.8878806,,,n_2327208913,shop=convenience
"Pleasanton, CA",,retail,445120,QuikStop Liquor,"Merritt Avenue, Oakland, CA, 94610",,,37.8051337,-122.2498803,,,n_2328648583,shop=convenience
"Pleasanton, CA",,retail,445120,East Bay Liquors,,,,37.8387592,-122.2690555,,,n_2352103113,shop=convenience
"Pleasanton, CA",,retail,445310,BevMo!,,,,37.3238271,-121.9520671,,,n_2356411132,"shop=alcohol, brand=BevMo!"
"Pleasanton, CA",,retail,445110,FoodMaxx,"1539 Parkmoor Avenue, San Jose, CA, 95128",,,37.3175641,-121.916399,,,n_2388067817,"shop=supermarket, brand=FoodMaxx"
"Pleasanton, CA",,retail,445210,Baron's Meat & Poultry,"1650 Park Street, Alameda, 94501",+1-510-864-1915,http://www.baronsmeats.com/,37.7677811,-122.239313,,,n_2390885971,shop=butcher
"Pleasanton, CA",,retail,445120,Grand Market,"1702 Lincoln Avenue, Alameda, CA, 94501",+1-510-263-8250,,37.7725514,-122.2551727,,,n_2390987804,shop=convenience
"Pleasanton, CA",,retail,445230,Dan's Fresh Produce,"2300 Central Avenue, Alameda, CA, 94501",+1-510-523-1777,https://www.dansfreshproduce.com/,37.7645507,-122.2441261,,,n_2390997308,shop=greengrocer
"Pleasanton, CA",,retail,445120,Larkey Market & Deli,"2800 Larkey Lane, Walnut Creek, CA, 94597",+19259327970,,37.9241415,-122.0780066,,,n_2392213888,shop=convenience
"Pleasanton, CA",,retail,445110,Piazza's Fine Foods,"3922 Middlefield Road, Palo Alto, CA, 94303",+16504941629,https://www.piazzasfinefoods.com/,37.4187525,-122.1098756,,,n_2398606788,shop=supermarket
"Pleasanton, CA",,retail,446120,Monica Foster,"2699 Middlefield Road, Palo Alto, CA, 94306",,https://www.monicafostersalon.com/,37.4342867,-122.1290416,,,n_2399562219,"shop=beauty, operator=MF Salon Incorporated"
"Pleasanton, CA",,retail,446120,From Europe With Love,"3483 El Camino Real, Palo Alto, CA, 94306",,https://www.fromeuropewithluv.com/,37.4195974,-122.1347145,,,n_2405247045,shop=beauty
"Pleasanton, CA",,retail,445310,Ruby Hill Winery,"400 Vinyard Avenue, Pleasanton",,,37.6515018,-121.8067614,,,n_2412472027,shop=alcohol
"Pleasanton, CA",,retail,445310,Rubino Estates Winery,"1188 Vinyard Avenue, Pleasanton",,,37.6539874,-121.82086,,,n_2412599517,shop=alcohol
"Pleasanton, CA",,retail,445110,hk outlets,"178 10th Street, 94607",,,37.7991623,-122.2664057,,,n_2412716300,shop=supermarket
"Pleasanton, CA",,retail,445310,,,,,37.6911263,-122.0621561,,,n_2415389375,shop=alcohol
"Pleasanton, CA",,retail,445110,Hometown Grocery,241 10th Street,,,37.7994307,-122.267846,,,n_2416941915,shop=supermarket
"Pleasanton, CA",,retail,445110,LG Supermarket,325 10th Street,,,37.8002901,-122.2700186,,,n_2416945139,shop=supermarket
"Pleasanton, CA",,retail,445110,99 Ranch Market,,,,37.3367415,-122.015328,,,n_2418420316,"shop=supermarket, brand=99 Ranch Market"
"Pleasanton, CA",,retail,452319,Dollar Tree,,,https://www.dollartree.com/locations/ca/san-ramon/8944/,37.7248496,-121.944093,,,n_2418553452,"shop=variety_store, brand=Dollar Tree, operator=Dollar Tree"
"Pleasanton, CA",,retail,445310,Total Wine,"43484 Christy Street, Fremont, CA, 94538",+1 510-403-0126,https://www.totalwine.com/store-info/1115,37.5030642,-121.9750209,,,n_2420490883,"shop=alcohol, brand=Total Wine"
"Pleasanton, CA",,retail,445120,7-Eleven,"7120 Dublin Boulevard, Dublin, CA, 94568",+1 925-833-7245,https://www.7-eleven.com/locations/ca/dublin/7120-dublin-blvd-35485,37.7055739,-121.92283,,,n_2438436771,"shop=convenience, brand=7-Eleven"
"Pleasanton, CA",,retail,446120,Theresa's Hair & Nail,"34763 Ardenwood Terrace, Fremont, CA",+1 510-793-9270,,37.5518225,-122.0548725,,,n_2443721618,shop=beauty
"Pleasanton, CA",,retail,445310,Rios-Lovell Winery,,,,37.6657657,-121.7142385,,,n_2450823421,shop=alcohol
"Pleasanton, CA",,retail,446120,NJ Nails Lounge,"810 Middlefield Road, Redwood City, 94063",(650) 369-5555,,37.486215,-122.2293245,,,n_2458639518,shop=beauty
"Pleasanton, CA",,retail,452319,Dollar Tree,,,https://www.dollartree.com/locations/ca/fremont/1846/,37.5298059,-121.983136,,,n_2459942316,"shop=variety_store, brand=Dollar Tree"
"Pleasanton, CA",,retail,445310,CJ's Liquor & Wine,"4949 Stevenson Boulevard, Fremont, CA",,,37.5291853,-121.9836473,,,n_2459956561,shop=alcohol
"Pleasanton, CA",,retail,445110,Grocery Outlet,,,,37.5300618,-121.98297,,,n_2459956563,"shop=supermarket, brand=Grocery Outlet"
"Pleasanton, CA",,retail,452210,Macy's,,,https://www.macys.com/stores/ca/newark/newpark-mall_336.html,37.5255857,-122.0011274,,,n_2459988875,"shop=department_store, brand=Macy's"
"Pleasanton, CA",,retail,446120,Elegant Nails,"187 West Washington Avenue, Sunnyvale, CA, 94086",+1.408.469.4992,,37.3762979,-122.031191,,,n_2472520691,shop=beauty
"Pleasanton, CA",,retail,452210,Ross,"157 Crescent Plaza, Pleasant Hill, CA, 94523",+1 925-671-2614,,37.9465206,-122.0633969,,,n_2476918531,"shop=department_store, brand=Ross"
"Pleasanton, CA",,retail,446120,La Familia,"1794 Broadway, Redwood City",,,37.4868898,-122.2231959,,,n_2479620501,shop=beauty
"Pleasanton, CA",,retail,453991,Broadway Tobbaconists,"2013 Main Street, Redwood City",,,37.4865016,-122.2267344,,,n_2479620510,shop=tobacco
"Pleasanton, CA",,retail,445310,Mission Liquors,,,,37.5567585,-121.9524984,,,n_2480678811,shop=alcohol
"Pleasanton, CA",,retail,445110,Lucky,,,,37.5559096,-121.9520093,,,n_2480678818,"shop=supermarket, brand=Lucky"
"Pleasanton, CA",,retail,446120,Sparkles,,,,37.5562202,-121.952643,,,n_2480678823,shop=beauty
"Pleasanton, CA",,retail,446120,Nails Salon,40071 Mission Boulevard,,,37.5555035,-121.9510499,,,n_2480681076,shop=beauty
"Pleasanton, CA",,retail,445120,7-Eleven,"400 El Camino Real, Redwood City, CA, 94062-1726",+1 650-364-0200,https://www.7-eleven.com/locations/ca/redwood-city/400-el-camino-real-22434,37.4907493,-122.240809,,,n_2481418838,"shop=convenience, brand=7-Eleven"
"Pleasanton, CA",,retail,453110,Everyday Flowers and Ballons,"512 El Camino Real, Redwood City",,,37.4900207,-122.2396057,,,n_2481419158,shop=florist
"Pleasanton, CA",,retail,452210,Ross,"150 Woodside Plaza, Redwood City, CA, 94061",+1 650-364-5990,,37.4572955,-122.229978,,,n_2483022375,"shop=department_store, brand=Ross"
"Pleasanton, CA",,retail,445110,Raley's,,,,37.6517724,-121.878781,,,n_2484033132,"shop=supermarket, brand=Raley's"
"Pleasanton, CA",,retail,445110,Safeway,"6310 College Avenue, Oakland, CA, 94618",+1 510-985-0012,https://local.safeway.com/safeway/ca/oakland/6310-college-ave.html,37.8506081,-122.25203,,,n_2487652502,"shop=supermarket, brand=Safeway"
"Pleasanton, CA",,retail,453110,Flowers,,(510) 656-4444,http://www.fremontflowerpavilion.com,37.5319032,-121.9199598,,,n_2493043661,shop=florist
"Pleasanton, CA",,retail,453110,Chicky Blooms,,,,37.5787597,-121.9759006,,,n_2500351808,shop=florist
"Pleasanton, CA",,retail,445120,7-Eleven,"38003 Mission Boulevard, Fremont, CA, 94536-1741",+1 510-793-3211,https://www.7-eleven.com/locations/ca/fremont/38003-mission-blvd-26343,37.5760201,-121.971511,,,n_2500351815,"shop=convenience, brand=7-Eleven"
"Pleasanton, CA",,retail,445110,FoodMaxx,"4500 Lone Tree Way, Antioch, 94531",+1 9257560150,,37.9652976,-121.781917,,,n_2503295303,"shop=supermarket, brand=FoodMaxx"
"Pleasanton, CA",,retail,453110,The Flower Shop,,,,37.5550229,-121.9816289,,,n_2509820301,shop=florist
"Pleasanton, CA",,retail,445110,Luck 7 Supermercado,"398 South King Road, San Jose, 95116",,,37.3456591,-121.8481844,,,n_2510589067,"shop=supermarket, operator=Luck 7"
"Pleasanton, CA",,retail,445120,Derby Food Center,"2707 College Avenue, Berkeley",,,37.8618,-122.253404,,,n_2557860419,shop=convenience
"Pleasanton, CA",,retail,445310,Eddie's Liquor Video,,,,37.841915,-122.251726,,,n_2557916490,shop=alcohol
"Pleasanton, CA",,retail,453110,Wildflower & Fern,,,,37.8438068,-122.252025,,,n_2559452988,shop=florist
"Pleasanton, CA",,retail,446120,Drybar,"180 El Camino Real, Palo Alto, CA, 94304",,https://locations.drybarshops.com/drybar-2ff2b825c27f?utm_source=Google&utm_medium=Yext&y_source=1_MjI2ODA0NjQtNzE1LWxvY2F0aW9uLndlYnNpdGU%3D,37.4420508,-122.172944,,,n_2561939872,"shop=beauty, operator=Drybar Holdings LLC"
"Pleasanton, CA",,retail,446120,Sephora,,,,37.4422381,-122.1725635,,,n_2561939899,"shop=cosmetics, brand=Sephora"
"Pleasanton, CA",,retail,446120,Elegant Nails,5406 College Avenue,,,37.8403621,-122.251227,,,n_2565002738,shop=beauty
"Pleasanton, CA",,retail,446120,Bing's Salon,5408 College Avenue,,,37.8404099,-122.251233,,,n_2565002742,shop=beauty
"Pleasanton, CA",,retail,445120,7-Eleven,"1096 Oak Grove Road, Concord, CA, 94518",+1 925-609-5978,https://www.7-eleven.com/locations/ca/concord/1096-oak-grove-rd-36789,37.9562997,-122.0385946,,,n_2586290020,"shop=convenience, brand=7-Eleven"
"Pleasanton, CA",,retail,452210,Ross,,,,37.7584319,-121.4575681,,,n_2589550241,"shop=department_store, brand=Ross"
"Pleasanton, CA",,retail,446120,Beauty Plaza,1040 Grant Road,,,37.3792477,-122.075253,,,n_2600782811,shop=beauty
"Pleasanton, CA",,retail,446120,Crystal Nails,173 East El Camino Real,,,37.3786658,-122.0708815,,,n_2600782828,shop=beauty
"Pleasanton, CA",,retail,446120,My Facial Beauty,990 Grant Road,+1-650-669-1312,https://www.mtnviewfacial.com/,37.3806338,-122.0755002,,,n_2600782833,shop=beauty
"Pleasanton, CA",,retail,446120,Cinderella Nails,"1040 Grant Road, Mountain View, CA, 94040",,,37.3793035,-122.075204,,,n_2600782834,shop=beauty
"Pleasanton, CA",,retail,445110,Smart & Final extra!,"141 East El Camino Real, Mountain View, CA, 94040",,,37.378767,-122.0715874,,,n_2600782845,"shop=supermarket, brand=Smart & Final"
"Pleasanton, CA",,retail,446120,European Wax Center,"1039 West El Camino Real, 94040",,https://locations.waxcenter.com/ca/mountainview/mountain-view-0277.html,37.3902576,-122.0944777,,,n_2604121121,"shop=beauty, brand=European Wax Center"
"Pleasanton, CA",,retail,446120,Sole di Paradiso,"1039 North El Monte Avenue, 94040",6509691888,http://www.soletan.com/,37.390429,-122.0943492,,,n_2604121127,shop=beauty
"Pleasanton, CA",,retail,446120,Instyle Salon,1155 Lawrence Expressway,4087342035,,37.3978463,-121.9969387,,,n_2604149615,shop=beauty
"Pleasanton, CA",,retail,445120,Lake Vista Liquors,,,,37.3968405,-121.9969205,,,n_2604149617,shop=convenience
"Pleasanton, CA",,retail,445110,New Wing Yuan Market,1139 Lawrence Expressway,,,37.3975655,-121.996942,,,n_2604149621,shop=supermarket
"Pleasanton, CA",,retail,446120,Hi Nail Salon & Eyelash,"546 Lawrence Expressway, Sunnyvale, CA, 94085",+1-408-830-9594,,37.3844782,-121.9952129,,,n_2607395550,shop=beauty
"Pleasanton, CA",,retail,445310,Sav-A-Lot Liquors,909 East Duane Avenue,,,37.3891155,-122.0044641,,,n_2607498434,shop=alcohol
"Pleasanton, CA",,retail,445110,Western Pacific Filipino Grocery,905A East Duane Avenue,,,37.388986,-122.0046114,,,n_2607498435,shop=supermarket
"Pleasanton, CA",,retail,446191,Jenny Craig,"1251 South Mary Avenue, Sunnyvale, CA, 94087",+1 408 733 3334,https://www.jennycraig.com/,37.3538572,-122.051298,,,n_2609866815,"shop=health_food, brand=Jenny Craig"
"Pleasanton, CA",,retail,445310,Lake Merritt Super,"364 Grand Avenue, Oakland, 94610",,,37.8091778,-122.2562101,,,n_2611106499,shop=alcohol
"Pleasanton, CA",,retail,452319,Swag Store,,,,37.4844584,-122.1488306,,,n_2611183819,shop=variety_store
"Pleasanton, CA",,retail,445310,Grand Express,"363 Grand Avenue, Oakland, 94610",,,37.8087217,-122.2555194,,,n_2611523808,shop=alcohol
"Pleasanton, CA",,retail,446120,Tips and Toes 2,"2026 First Street, Livermore, CA",+1 925-449-6062,https://www.facebook.com/pages/First-Nail-Spa/27792396567,37.6812242,-121.770799,,,n_2613660665,shop=beauty
"Pleasanton, CA",,retail,446120,Tips & Toes Salon,"2136 First Street, Livermore, CA",+1 925-373-6267,https://www.facebook.com/TipsToesSalon,37.6815383,-121.7697055,,,n_2613660781,shop=beauty
"Pleasanton, CA",,retail,445310,Liquor,672 North Fair Oaks Avenue,,,37.3905151,-122.0139528,,,n_2614202324,shop=alcohol
"Pleasanton, CA",,retail,446120,Krsto Salon,"682 Fremont Avenue, Los Altos, CA, 94024",,,37.3608787,-122.0973,,,n_2619982648,shop=beauty
"Pleasanton, CA",,retail,446120,Pure Serenity Skincare,,,,37.3615658,-122.0980794,,,n_2619982661,shop=beauty
"Pleasanton, CA",,retail,453110,Just For You Florist,,,,37.3613282,-122.097808,,,n_2619982665,shop=florist
"Pleasanton, CA",,retail,446120,Just Nails,"1712 Miramonte Avenue, Mountain View, CA, 94040",,,37.3727951,-122.087606,,,n_2619982666,shop=beauty
"Pleasanton, CA",,retail,446120,Hygia Nails & Spa,"177 Main Street, Los Altos, CA, 94022",,,37.3789561,-122.115174,,,n_2619982684,shop=beauty
"Pleasanton, CA",,retail,446120,Sirena Scena Salon,"75 Main Street, Los Altos",6509493883,http://sirena-scena.com/,37.3806475,-122.1145567,,,n_2619982718,shop=beauty
"Pleasanton, CA",,retail,445110,Grocery Outlet,"272 East Santa Clara Street, San Jose, CA, 95113",+1 408-477-8350,,37.3383046,-121.883998,,,n_2620441931,"shop=supermarket, brand=Grocery Outlet"
"Pleasanton, CA",,retail,446120,CTG Salon,,,,37.4539549,-122.1841364,,,n_2620593435,shop=beauty
"Pleasanton, CA",,retail,445120,City MiniMart,"1354 The Alameda, San Jose, 95126",,,37.3328361,-121.913229,,,n_2623010379,shop=convenience
"Pleasanton, CA",,retail,446120,Sunny Salon,"149 East Washington Avenue, Sunnyvale, CA, 94086",,https://www.sunnysalonwashingtonave.com/,37.3759936,-122.0298697,,,n_2625552996,"shop=beauty, operator=Sunny Beauty Salon and Spa Incorporated"
"Pleasanton, CA",,retail,446120,Instant Nails I,"476 North Mathilda Avenue, Sunnyvale, CA, 94085",,,37.3882145,-122.029763,,,n_2625553001,shop=beauty
"Pleasanton, CA",,retail,445110,99 Ranch Market,"4299 Rosewood Drive, Pleasanton, 94588",,,37.6995868,-121.8732583,,,n_2626604199,"shop=supermarket, brand=99 Ranch Market"
"Pleasanton, CA",,retail,453991,Smokes & More,,,,37.4165903,-122.1303099,,,n_2626654820,shop=tobacco
"Pleasanton, CA",,retail,446120,Scarlett de Cittores,,,,37.453655,-122.1846422,,,n_2628201930,shop=beauty
"Pleasanton, CA",,retail,446120,LaMigliore Salon,"644 Santa Cruz Avenue, Menlo Park, CA, 94025",6503211100,,37.4526467,-122.183912,,,n_2629382172,shop=beauty
"Pleasanton, CA",,retail,445310,MLS Minimart Liquors,3570 Homestead Road,,,37.3372523,-121.9944887,,,n_2635929497,shop=alcohol
"Pleasanton, CA",,retail,446120,Balisimo Salon,"398 State Street, Los Altos, CA, 94022",,https://balisimosalon.com/,37.3787996,-122.118361,,,n_2637088567,shop=beauty
"Pleasanton, CA",,retail,446120,Fabulous Nails,,6509482429,,37.3789875,-122.1179726,,,n_2637088586,shop=beauty
"Pleasanton, CA",,retail,446120,Bloom Skincare,,,,37.3796793,-122.116619,,,n_2637122644,shop=beauty
"Pleasanton, CA",,retail,446120,FYN For Your Nails,"209 State Street, Los Altos, CA, 94022",,,37.3794648,-122.116514,,,n_2637248139,shop=beauty
"Pleasanton, CA",,retail,446120,Beauty Avenue,,,,37.4499035,-122.1787315,,,n_2637767668,shop=beauty
"Pleasanton, CA",,retail,446120,Tanning,,,,37.4519621,-122.1806788,,,n_2637767675,shop=beauty
"Pleasanton, CA",,retail,453991,Edward's Pipe & Tobacco Shop,,,,37.4003464,-122.1146573,,,n_2638611636,shop=tobacco
"Pleasanton, CA",,retail,446120,Salon Elizabeth,,,,37.3757217,-122.1159022,,,n_2638998584,shop=beauty
"Pleasanton, CA",,retail,446120,Sirena Scena Salon,,,,37.3762474,-122.1163904,,,n_2638998589,shop=beauty
"Pleasanton, CA",,retail,446120,Forever Nail Spa,"301 2nd Street, Los Altos, CA, 94022",,,37.3775099,-122.1155176,,,n_2641068335,shop=beauty
"Pleasanton, CA",,retail,446120,Salon 121,"121 Main Street, Los Altos",,,37.3800261,-122.1146294,,,n_2641692568,shop=beauty
"Pleasanton, CA",,retail,446120,La Venus,"363 Main Street, Los Altos, CA, 94022",6509471336,,37.3778643,-122.1173283,,,n_2642087075,shop=beauty
"Pleasanton, CA",,retail,446120,Narsis Salon,"189 Main Street, Los Altos, CA, 94022",6502744787,https://www.facebook.com/NarsisSalon/,37.3788543,-122.115312,,,n_2642087078,shop=beauty
"Pleasanton, CA",,retail,446120,Zessy's Beauty Salon,,6502079292,,37.4724644,-122.2047728,,,n_2648526032,shop=beauty
"Pleasanton, CA",,retail,452210,99cent Store & Over,,,,37.4727087,-122.2051525,,,n_2648526660,shop=department_store
"Pleasanton, CA",,retail,453110,Brenda's Flower Design,,,,37.4768347,-122.2113315,,,n_2648628015,shop=florist
"Pleasanton, CA",,retail,445110,,,,,37.4805753,-122.2175731,,,n_2648628157,shop=supermarket
"Pleasanton, CA",,retail,445120,7-Eleven,"3775 Williams Road, San Jose, CA, 95117",+1 408-244-1471,https://www.7-eleven.com/locations/ca/san-jose/3775-williams-rd-15532,37.3088801,-121.9667835,,,n_2655212508,"shop=convenience, brand=7-Eleven"
"Pleasanton, CA",,retail,445110,Mitsuwa Marketplace,"675 Saratoga Avenue, San Jose, CA, 95129",,https://mitsuwa.com/sj/,37.3149469,-121.9782,,,n_2655263941,"shop=supermarket, brand=Mitsuwa Marketplace"
"Pleasanton, CA",,retail,446120,Madison Reed,"322 West El Camino Real, Sunnyvale, 94087",,,37.3678636,-122.036045,,,n_2656685533,"shop=beauty, brand=Madison Reed"
"Pleasanton, CA",,retail,445120,7-Eleven,"2800 Benton Street, Santa Clara, CA, 95051-3767",+1 408-246-0517,https://www.7-eleven.com/locations/ca/santa-clara/2800-benton-st-24271,37.3461454,-121.978215,,,n_2657060996,"shop=convenience, brand=7-Eleven"
"Pleasanton, CA",,retail,445110,Hankook,"1092 East El Camino Real, Sunnyvale, CA, 94087",,,37.3515939,-122.001344,,,n_2658424321,shop=supermarket
"Pleasanton, CA",,retail,446120,Seema Beauty Salon,"1082 East El Camino Real, Sunnyvale, CA, 94087",+1-408-244-6009,https://seemabeautysalon.com/,37.3516651,-122.002536,,,n_2658424324,"shop=beauty, operator=JMD Companies LLC"
"Pleasanton, CA",,retail,445110,Apna Bazaar,,,,37.3539363,-122.0143927,,,n_2663431533,shop=grocery
"Pleasanton, CA",,retail,445310,Bob's Discount Liquors,757 South Wolfe Road,,,37.3654682,-122.0146772,,,n_2663431566,shop=alcohol
"Pleasanton, CA",,retail,446191,Homeopathic Vibes,"942 East El Camino Real, Sunnyvale, CA",+1-408-737-7100,,37.3519877,-122.011939,,,n_2663431615,shop=health_food
"Pleasanton, CA",,retail,446120,Khoobsurat Threading Salon,"1014-1016 East El Camino Real, Sunnyvale, CA, 94087",,https://www.khoobsuratsalon.com/,37.3515337,-122.006498,,,n_2663431742,shop=beauty
"Pleasanton, CA",,retail,446120,Nice Nails,878 Old San Francisco Road,4087350335,,37.3662736,-122.0160173,,,n_2663431779,shop=beauty
"Pleasanton, CA",,retail,445110,Wolfe India Bazar,Old San Francisco Road,,,37.3662756,-122.0169278,,,n_2663431885,shop=supermarket
"Pleasanton, CA",,retail,445110,Chavez Supermarket,,,,37.470651,-122.2033108,,,n_2668905354,shop=supermarket
"Pleasanton, CA",,retail,445310,One Stop Liquors,,,,37.4723452,-122.2051605,,,n_2668905557,shop=alcohol
"Pleasanton, CA",,retail,445110,Pena Meat and Food Market,,4153659660,,37.4720461,-122.2047252,,,n_2668905560,shop=supermarket
"Pleasanton, CA",,retail,445110,Osaka Marketplace,"46881 Warm Springs Boulevard, Fremont, CA, 94539",,https://www.osakamarketplace.com/,37.4881103,-121.93073,,,n_2672383507,shop=supermarket
"Pleasanton, CA",,retail,445120,7-Eleven,"46660 Mohave Drive, Fremont, CA, 94539",+1 510-656-9711,https://www.7-eleven.com/locations/ca/fremont/46650-mohave-dr-26596,37.4916304,-121.9266666,,,n_2672383521,"shop=convenience, brand=7-Eleven"
"Pleasanton, CA",,retail,445110,168 Market,"46196 Warm Springs Blvd, Fremont, CA, 94539",,,37.4934798,-121.9298209,,,n_2672383566,shop=supermarket
"Pleasanton, CA",,retail,445120,Chevron,,,,37.9610631,-121.746817,,,n_2683062657,"shop=convenience, amenity=fuel, brand=Chevron"
"Pleasanton, CA",,retail,445120,Food Shop,,,,37.4742692,-122.1886237,,,n_2686015544,shop=convenience
"Pleasanton, CA",,retail,446120,Vico's Beauty Salon,,6502573156,,37.4718197,-122.2037964,,,n_2686015728,shop=beauty
"Pleasanton, CA",,retail,446120,Rosa Maria's Beauty Salon,"1208 East Arques Avenue, Sunnyvale, CA, 94085",,,37.3796988,-121.995041,,,n_2686109546,shop=beauty
"Pleasanton, CA",,retail,445120,Nilgiris (Indian Store),"46481 Mission Boulevard, Fremont, CA",,,37.4924734,-121.9280587,,,n_2693992193,shop=convenience
"Pleasanton, CA",,retail,445292,Shekoh Confections,"2305 El Camino Real, Palo Alto",,,37.4256247,-122.1464683,,,n_2697101131,shop=confectionery
"Pleasanton, CA",,retail,446120,Serenity Nails,"458 Cambridge Avenue, Palo Alto, CA, 94306",6503259800,,37.4264842,-122.1462406,,,n_2697101151,shop=beauty
"Pleasanton, CA",,retail,445292,Sweet 55,,,,37.438703,-122.158922,,,n_2697975456,shop=chocolate
"Pleasanton, CA",,retail,446110,Walgreens,"1130 Bird Avenue, San Jose, CA, 95125",,https://www.walgreens.com/locator/walgreens-1130+bird+ave-san+jose-ca-95125/id=2265,37.310823,-121.8943595,,,n_2701122173,"shop=chemist, brand=Walgreens"
"Pleasanton, CA",,retail,445110,Haafiz Food Mart,34555 Alvarado-Niles Road,5104412800,,37.5863376,-122.0197592,,,n_2725422548,shop=supermarket
"Pleasanton, CA",,retail,446120,Shiseido Visage Cosmetics,,,,37.5756669,-122.040152,,,n_2725422615,shop=beauty
"Pleasanton, CA",,retail,445310,00 Liquors,,,,37.5749361,-122.038663,,,n_2725422932,shop=alcohol
"Pleasanton, CA",,retail,453110,Oakland Flower Market,"821 Jefferson Street, Oakland",,,37.8020707,-122.2772765,,,n_2735584619,shop=florist
"Pleasanton, CA",,retail,452210,TJ Maxx,,,,37.9175453,-122.037127,,,n_2778805942,"shop=department_store, brand=TJ Maxx"
"Pleasanton, CA",,retail,445210,Kinder's Meats & Deli,,,,37.917916,-122.0366185,,,n_2778805945,shop=butcher
"Pleasanton, CA",,retail,445310,,,,,37.3622339,-122.0243241,,,n_2803843928,shop=alcohol
"Pleasanton, CA",,retail,445110,Mulberries' Market,,,,37.825051,-122.232837,,,n_2810181541,shop=supermarket
"Pleasanton, CA",,retail,446120,Femi Macus Nails,,,,37.8073427,-122.222816,,,n_2820916479,shop=beauty
"Pleasanton, CA",,retail,446120,La Soleil Nail Spa,,,,37.8074711,-122.2225617,,,n_2820916481,shop=beauty
"Pleasanton, CA",,retail,446120,Beauty Secret Nail Spa,43917 Hugo Terrace,,,37.5116142,-121.9480508,,,n_2822004792,shop=beauty
"Pleasanton, CA",,retail,446120,Top Hair-Nails,907 West El Camino Real,,,37.3713356,-122.0441007,,,n_2827233170,shop=beauty
"Pleasanton, CA",,retail,446120,Wonder Cuts,"939 West El Camino Real, Sunnyvale, CA, 94087",,https://wonder-cuts.business.site/?utm_source=gmb&utm_medium=referral,37.3717231,-122.045952,,,n_2827315406,shop=beauty
"Pleasanton, CA",,retail,445110,Monte Vista Food Center,"4000 Piedmont Avenue, Oakland, 94611",,,37.8254386,-122.2534898,,,n_2838479530,shop=supermarket
"Pleasanton, CA",,retail,446120,Fresh Looks,,,,37.3711008,-122.0482085,,,n_2838833012,shop=beauty
"Pleasanton, CA",,retail,446120,Golden Vallen Hair & Nails,"958 West El Camino Real, Sunnyvale, CA, 94087",,,37.3712174,-122.0474432,,,n_2838833013,shop=beauty
"Pleasanton, CA",,retail,453991,My Smoke Shop,"964 West El Camino Real, Sunnyvale, CA, 94087",,,37.3712333,-122.047537,,,n_2838833019,shop=tobacco
"Pleasanton, CA",,retail,446120,Nails AA,"994 West El Camino Real, Sunnyvale, CA, 94087",,,37.3711008,-122.0481624,,,n_2838833020,shop=beauty
"Pleasanton, CA",,retail,445120,Paraka Market,"952 West El Camino Real, Sunnyvale, CA, 94087",,,37.3711698,-122.047197,,,n_2838833021,shop=convenience
"Pleasanton, CA",,retail,445110,Safeway,"20620 West Homestead Road, Cupertino, CA, 95014",+1 408-253-0112,https://local.safeway.com/safeway/ca/cupertino/20620-w-homestead-rd.html,37.336179,-122.0347351,,,n_2856527717,"shop=supermarket, brand=Safeway"
"Pleasanton, CA",,retail,452210,TJ Maxx,,,,37.8588782,-122.125721,,,n_2867383552,"shop=department_store, brand=TJ Maxx"
"Pleasanton, CA",,retail,452319,The Dollar Store & Beyond,,,,37.8074769,-122.2218459,,,n_2877110039,shop=variety_store
"Pleasanton, CA",,retail,446120,Finger Paint,4220 Park Blvd,+1-510-530-0345,,37.8073985,-122.2220164,,,n_2880186298,shop=beauty
"Pleasanton, CA",,retail,453110,La Nana Salon,,+1-510-482-2392,https://store.lananasalonflower.com/,37.8073818,-122.2219451,,,n_2880186299,shop=florist
"Pleasanton, CA",,retail,453110,Cute Flowers,,,,37.3519974,-121.9865474,,,n_2882827508,shop=florist
"Pleasanton, CA",,retail,446120,Christine Beauty Salon,"1595 Pomeroy Avenue, Santa Clara, CA, 95051",,,37.3518002,-121.98643,,,n_2882837826,shop=beauty
"Pleasanton, CA",,retail,445310,Lucky’s Discount Liquor,"3290 El Camino Real, Santa Clara, CA, 95051",,,37.3519995,-121.9864578,,,n_2882837827,shop=alcohol
"Pleasanton, CA",,retail,445110,Seafood City,,,,37.9737816,-122.0554713,,,n_2886489681,"shop=supermarket, brand=Seafood City"
"Pleasanton, CA",,retail,445120,7-Eleven,"930 Springtown Boulevard, Livermore, CA, 94551",+1 925-449-7058,https://www.7-eleven.com/locations/ca/livermore/930-springtown-blvd-25693,37.704901,-121.7412626,,,n_2973947836,"shop=convenience, brand=7-Eleven"
"Pleasanton, CA",,retail,445110,Smart & Final,"1840 South Norfolk Street, 94403",,,37.5550283,-122.2938744,,,n_2975330433,shop=supermarket
"Pleasanton, CA",,retail,445110,99 Ranch Market,"1070 Foster City Boulevard, Foster City, CA, 94404",+1 (650) 358-8999,,37.5535619,-122.2571467,,,n_2975342733,"shop=supermarket, brand=99 Ranch Market"
"Pleasanton, CA",,retail,445120,Food Mart,,,,37.352735,-121.9987849,,,n_2988472469,"shop=convenience, brand=Mobil"
"Pleasanton, CA",,retail,445120,76,"21855 Homestead Road, Cupertino, CA, 95014-0111",,,37.337837,-122.0587447,,,n_3003839869,"shop=convenience, brand=76"
"Pleasanton, CA",,retail,445310,The Good Hop,"2421 Telegraph Avenue, Oakland",,,37.8136265,-122.2688131,,,n_3007872775,"shop=alcohol, amenity=bar"
"Pleasanton, CA",,retail,445120,7-Eleven,"4000 San Pablo Avenue, Emeryville, CA, 94608",+1 510-338-3239,https://www.7-eleven.com/locations/ca/emeryville/4000-san-pablo-ave-35017,37.831245,-122.279769,,,n_3011004969,"shop=convenience, brand=7-Eleven"
"Pleasanton, CA",,retail,452210,Ross,"4112 Fremont Hub, Fremont, CA, 94538",+1 510-796-4761,,37.5466276,-121.9887643,,,n_3066182060,"shop=department_store, brand=Ross"
"Pleasanton, CA",,retail,446120,Cosmo Prof,"Fremont, CA",,,37.5463004,-121.9887522,,,n_3066192513,shop=cosmetics
"Pleasanton, CA",,retail,445120,7-Eleven,"1153 Halcyon Drive, San Leandro, CA, 94578",+1 510-276-0667,https://www.7-eleven.com/locations/ca/san-leandro/15101-hesperian-blvd-20364,37.7016738,-122.1304243,,,n_3120885818,"shop=convenience, brand=7-Eleven"
"Pleasanton, CA",,retail,445120,3 Rings,,,,37.7981793,-122.2500792,,,n_3125407606,shop=convenience
"Pleasanton, CA",,retail,446120,,,,,37.798814,-122.2508034,,,n_3125407618,shop=beauty
"Pleasanton, CA",,retail,445120,Carriage Trade Liquors,,1-510-444-8356,,37.7994181,-122.2511467,,,n_3125416918,shop=convenience
"Pleasanton, CA",,retail,446120,,,,,37.7995696,-122.2513841,,,n_3125416925,shop=beauty
"Pleasanton, CA",,retail,445110,Lucky,"234 Saratoga Avenue, Santa Clara, CA, 95050",,,37.3291817,-121.966786,,,n_3137935930,"shop=supermarket, brand=Lucky"
"Pleasanton, CA",,retail,445310,San Tomas Liquor,"240 Saratoga Avenue, Santa Clara, CA, 95050",,,37.3295342,-121.9668461,,,n_3137939729,shop=alcohol
"Pleasanton, CA",,retail,445120,7-Eleven,"315 Saratoga Avenue, Santa Clara, CA, 95050-7002",+1 408-261-3132,https://www.7-eleven.com/locations/ca/santa-clara/315-saratoga-ave-18445,37.3303479,-121.9634888,,,n_3137940129,"shop=convenience, brand=7-Eleven"
"Pleasanton, CA",,retail,453110,Fuji Florist,,,,37.3556603,-121.9583386,,,n_3150078561,shop=florist
"Pleasanton, CA",,retail,446120,Liz Nails,,,,37.6791553,-121.7793915,,,n_3151876961,shop=beauty
"Pleasanton, CA",,retail,445310,Prestige Liquors,490 West Maude Avenue,,,37.3888837,-122.0293444,,,n_3163954392,shop=alcohol
"Pleasanton, CA",,retail,445120,Lee's Market,6342 Shattuck Avenue,,,37.8493782,-122.2655533,,,n_3167010068,shop=convenience
"Pleasanton, CA",,retail,445310,Aiban Market,,,,37.8453598,-122.2684832,,,n_3169064970,shop=alcohol
"Pleasanton, CA",,retail,446120,Focus Beaty,"43707 Boscell Road, Fremont",,,37.5004852,-121.9741945,,,n_3173708736,shop=beauty
"Pleasanton, CA",,retail,452319,Factory 2 U,,,,37.6875541,-122.1381326,,,n_3192694039,shop=variety_store
"Pleasanton, CA",,retail,445110,FoodMax,,,,37.6877467,-122.1352281,,,n_3192694042,shop=supermarket
"Pleasanton, CA",,retail,452319,Cigarettes 4 Less,,,,37.6878647,-122.1382323,,,n_3192700903,shop=variety_store
"Pleasanton, CA",,retail,452319,99 Cent Stores,,,,37.6874972,-122.1375436,,,n_3192700906,shop=variety_store
"Pleasanton, CA",,retail,452319,Five Below,"43732 Christy Street, Fremont, CA, 94538",,,37.5047898,-121.966915,,,n_3209827981,shop=variety_store
"Pleasanton, CA",,retail,445110,Lion Supermarket,"1838 North Milpitas Boulevard, Milpitas, CA, 95035",+1 408-946-0888,https://www.lionsupermarket.com/,37.4565039,-121.910254,,,n_3213621500,shop=supermarket
"Pleasanton, CA",,retail,445230,The Fruit Basket,,,,37.828279,-122.268659,,,n_3231995560,shop=greengrocer
"Pleasanton, CA",,retail,445120,7-Eleven,"4995 Mowry Avenue, Fremont, CA, 94538",+1 510-793-9717,https://www.7-eleven.com/locations/ca/fremont/4995-mowry-ave-39413,37.5371653,-121.9984984,,,n_3243845694,"shop=convenience, brand=7-Eleven"
"Pleasanton, CA",,retail,445120,New India Bazaar,"Mowry Avenue, Fremont, CA",,,37.5363367,-122.0007281,,,n_3243999352,shop=convenience
"Pleasanton, CA",,retail,452319,Dollar Tree,,,https://www.dollartree.com/locations/ca/milpitas/4293/,37.4298358,-121.9219024,,,n_3248794861,"shop=variety_store, brand=Dollar Tree"
"Pleasanton, CA",,retail,452210,Ross,"239 Ranch Road, Milpitas, CA, 95035",+1 408-934-1580,,37.4295497,-121.9221166,,,n_3248794862,"shop=department_store, brand=Ross"
"Pleasanton, CA",,retail,445310,Liquors,,,,37.4010821,-121.9625283,,,n_3257634846,shop=alcohol
"Pleasanton, CA",,retail,445120,7-Eleven,"3777 Lafayette Street, Santa Clara, CA, 95054-2025",+1 408-988-4281,https://www.7-eleven.com/locations/ca/santa-clara/3777-lafayette-st-14243,37.3881452,-121.953363,,,n_3257635213,"shop=convenience, brand=7-Eleven"
"Pleasanton, CA",,retail,453991,HotBOX Smoke Shop,"1111 El Camino Real, Santa Clara, CA, 95050",+1-408-244-6851,https://hotbox408.com/,37.3540617,-121.94907,,,n_3275132517,shop=tobacco
"Pleasanton, CA",,retail,453991,Peace Pipe Smoke Shop,"3282 El Camino Real, Santa Clara, CA, 95051",+1-408-564-7675,https://www.peacepipesmokeshop.com/,37.352006,-121.986275,,,n_3275142941,"shop=tobacco, operator=Ganob Incorporated"
"Pleasanton, CA",,retail,453991,Cityrock Gift & Smoke Shop,"3078 El Camino Real, Santa Clara, CA, 95051",+1 408-244-9922,,37.351971,-121.981577,,,n_3275552269,shop=tobacco
"Pleasanton, CA",,retail,452210,Ross,"340 North Capitol Avenue, San Jose, CA, 95133",+1 408-251-1112,,37.37242,-121.842849,,,n_3331463630,"shop=department_store, brand=Ross"
"Pleasanton, CA",,retail,445110,Sprouts Farmers Market,"2060 El Camino Real, Santa Clara, CA, 95050",+1 408-780-7248,https://www.sprouts.com/store/ca/santa-clara/el-camino-real-2/,37.3499772,-121.9622757,,,n_3379039894,"shop=supermarket, brand=Sprouts Farmers Market"
"Pleasanton, CA",,retail,445120,Choice Korner,,,,37.7992907,-122.2667377,,,n_3393092803,shop=convenience
"Pleasanton, CA",,retail,446120,Tea Nails,,,,37.7043868,-121.8516551,,,n_3393407237,shop=beauty
"Pleasanton, CA",,retail,446120,Bollinger Nail Salon,,,,37.75881,-121.9663402,,,n_3401326494,shop=beauty
"Pleasanton, CA",,retail,446120,Visual Image Too,"1935 Second Street, Livermore, CA",,,37.6797378,-121.771469,,,n_3402208996,shop=beauty
"Pleasanton, CA",,retail,445120,Mr. Mikey's Country Store,,,,37.5775638,-121.982467,,,n_3424123638,shop=convenience
"Pleasanton, CA",,retail,452319,Daiso Japan,,,,37.589154,-122.0229484,,,n_3428100099,"shop=variety_store, brand=Daiso"
"Pleasanton, CA",,retail,446120,Lavender Salon and Spa,"Mowry Avenue, Fremont, CA",,,37.5360129,-122.0005546,,,n_3441916795,shop=beauty
"Pleasanton, CA",,retail,452210,Target,"2004 El Camino Real, Santa Clara, CA, 95050-4051",+1 669-342-3320,https://www.target.com/sl/santa-clara/2830,37.3502894,-121.9609068,,,n_3456741594,"shop=department_store, brand=Target"
"Pleasanton, CA",,retail,445120,Parkside Market,"202 Davi Avenue, Pittsburg",,,38.021443,-121.892495,,,n_3458085812,shop=convenience
"Pleasanton, CA",,retail,453991,510 Smoke & Head Shop,"412 14th Street, Oakland, CA, 94612",,,37.8041334,-122.2702862,,,n_3470332396,shop=tobacco
"Pleasanton, CA",,retail,452210,Marshalls,"535 Coleman Avenue, San Jose, 95110",,,37.3389434,-121.9058653,,,n_3478495313,"shop=department_store, brand=Marshalls"
"Pleasanton, CA",,retail,445120,Civic Center Market,"148 George Street, San Jose, 95110",,,37.3466765,-121.9013254,,,n_3478495341,shop=convenience
"Pleasanton, CA",,retail,446120,SKH Beauty Salon,,,,37.8230575,-122.26674,,,n_3496213706,shop=beauty
"Pleasanton, CA",,retail,445120,Food Market,,,,37.5308077,-121.9374402,,,n_3498203798,shop=convenience
"Pleasanton, CA",,retail,446120,Essence Nail Spa,"1387 Lincoln Avenue, San Jose, 95125",,,37.303836,-121.8977613,,,n_3534542493,shop=beauty
"Pleasanton, CA",,retail,446120,VJ Spa and Wellness,"1345 Lincoln Avenue, San Jose, 95125",,,37.3044465,-121.8983264,,,n_3534542696,shop=beauty
"Pleasanton, CA",,retail,446120,OZ a Salon,"1355 Lincoln Avenue, San Jose, CA, 95125",,https://www.instagram.com/ozasalon_/?igshid=YmMyMTA2M2Y%3D,37.3041736,-121.898056,,,n_3534542793,shop=beauty
"Pleasanton, CA",,retail,445292,See's Candies,"3151 Mowry Avenue, Fremont, CA",,,37.5543283,-121.984423,,,n_3534769399,"shop=confectionery, brand=See's Candies"
"Pleasanton, CA",,retail,446120,Kay’s Shiseido,,,,37.3491989,-121.8942972,,,n_3537287707,shop=cosmetics
"Pleasanton, CA",,retail,445210,無肉不歡;Meat House,"201 East Taylor Street, San Jose, CA, 95112",,,37.3513332,-121.895863,,,n_3539618863,"shop=butcher, brand=Meat House"
"Pleasanton, CA",,retail,445120,Taylor Street Market,"360 East Taylor Street, San Jose, CA, 95112",,,37.3525761,-121.8924039,,,n_3539619986,shop=convenience
"Pleasanton, CA",,retail,445292,See's Candies,5802 College Avenue,,https://chocolateshops.sees.com/ca/oakland/chocolate_shops_oakland_ca_2ca079.html,37.8461781,-122.251818,,,n_3554653080,"shop=confectionery, brand=See's Candies"
"Pleasanton, CA",,retail,446120,Prime Nails,,,,37.4922012,-121.9287508,,,n_3555254320,shop=beauty
"Pleasanton, CA",,retail,445110,Maxim Market,"955 McLaughlin Avenue, San Jose, CA, 95122",,,37.334235,-121.856191,,,n_3560256373,"shop=supermarket, operator=Lucky Best Incorporated"
"Pleasanton, CA",,retail,445110,Story Supermarket,"1200 Story Road, San Jose, CA, 95122",,,37.3329372,-121.85246,,,n_3560256861,shop=supermarket
"Pleasanton, CA",,retail,445110,Cash & Carry,400 Oak Street,,,37.7937589,-122.2672304,,,n_3565153877,shop=supermarket
"Pleasanton, CA",,retail,445110,FoodMaxx,"39441 Fremont Boulevard, Fremont, CA",,,37.5440472,-121.9826684,,,n_3582196297,"shop=supermarket, brand=FoodMaxx"
"Pleasanton, CA",,retail,453991,Rocky Smoke Shop,"39471 Fremont Boulevard, Fremont, CA",,,37.5438352,-121.9819302,,,n_3582196302,shop=tobacco
"Pleasanton, CA",,retail,446120,L'Amour Nails,"39477 Fremont Boulevard, Fremont, CA",+1 510 770 9300,,37.5439189,-121.9817926,,,n_3582196305,shop=beauty
"Pleasanton, CA",,retail,445310,ABC Liquors,"39485 Fremont Boulevard, Fremont, CA",,,37.5440177,-121.981707,,,n_3582196307,shop=alcohol
"Pleasanton, CA",,retail,445310,Cole's Market,,,,37.662347,-121.8712962,,,n_3584997294,shop=alcohol
"Pleasanton, CA",,retail,445120,Hidalgo's Little Market,,,,37.6622518,-121.8727036,,,n_3584997296,shop=convenience
"Pleasanton, CA",,retail,446120,Sunflower Hair & Nail,"560 East Hedding Street, San Jose, CA, 95112",2924779,,37.3588102,-121.8914919,,,n_3595437273,shop=beauty
"Pleasanton, CA",,retail,445292,Sagar Sweets,"146 George Street, San Jose, CA, 95110",+1-408-291-8832,https://www.sagarsweetsrestaurant.com/,37.3467191,-121.901255,,,n_3595854503,"shop=confectionery, amenity=restaurant"
"Pleasanton, CA",,retail,452319,Kogura,231 Jackson Street,+1 408-294-3184,http://koguraco.com/,37.3495059,-121.8936484,,,n_3595854509,shop=variety_store
"Pleasanton, CA",,retail,452319,Nikkei Traditions,"219 Jackson Street, San Jose, 95112",+1 408-297-7554,https://nikkei-traditions-of-san-jose-japantown-inc.myshopify.com,37.3493553,-121.8939466,,,n_3595854510,shop=variety_store
"Pleasanton, CA",,retail,445120,Tri EZ,,,,37.3312622,-121.9071886,,,n_3608593363,shop=convenience
"Pleasanton, CA",,retail,446120,Neo’s Nails Spa,"975 The Alameda, San Jose, CA, 95126",,,37.3318671,-121.9089805,,,n_3608593367,shop=beauty
"Pleasanton, CA",,retail,445310,Choice Liquors,"700 North 13th Street, San Jose, 95112",,,37.3552163,-121.8877,,,n_3609815344,shop=alcohol
"Pleasanton, CA",,retail,445120,Mini Market,,,,37.3508508,-121.8849588,,,n_3609815418,shop=convenience
"Pleasanton, CA",,retail,446120,New Paris Beauty Salon,,,,37.3505544,-121.884244,,,n_3609815428,shop=beauty
"Pleasanton, CA",,retail,446120,Charm’s House Hair and Nails,"304 North 13th Street, San Jose, CA, 95112",,https://charms-house-hair-and-nails.business.site/,37.3467643,-121.881382,,,n_3609815459,shop=beauty
"Pleasanton, CA",,retail,445120,Guru’s Market,"300 North 13th Street, San Jose, 95112",,,37.3466767,-121.8812752,,,n_3609815461,shop=convenience
"Pleasanton, CA",,retail,446120,246 Studio Spa,"246 Jackson Street, San Jose, 95112",+14082712888,,37.3492223,-121.8934819,,,n_3609815489,shop=beauty
"Pleasanton, CA",,retail,453991,Mission Pipe Shop,"1205 The Alameda, San Jose, CA, 95126",,https://www.missionpipe.com/,37.3315814,-121.9126114,,,n_3610163066,shop=tobacco
"Pleasanton, CA",,retail,453110,Tình Thương Flowers,,,,37.339559,-121.8828025,,,n_3612914350,shop=florist
"Pleasanton, CA",,retail,452319,Hub's Five & Ten,"39300 Argonaut Way, Fremont, CA",,,37.5437169,-121.9863856,,,n_3621209290,shop=variety_store
"Pleasanton, CA",,retail,445110,Trader Joe's,"39324 Argonaut Way, Fremont, CA, 94538",+1 510-794-1386,https://www.traderjoes.com/,37.5435716,-121.9860846,,,n_3621209397,"shop=supermarket, brand=Trader Joe's"
"Pleasanton, CA",,retail,452319,Dollar Tree,"1490 Railroad Avenue, Livermore, CA",,https://locations.99only.com/ca/livermore/discount-store-447.html,37.6814846,-121.778415,,,n_3622099692,"shop=variety_store, brand=Dollar Tree"
"Pleasanton, CA",,retail,445310,Perry's Liquor,,,,37.6815331,-121.7780947,,,n_3622100093,shop=alcohol
"Pleasanton, CA",,retail,446120,LeJJBelle,2291 The Alameda,,http://lejjbellenailspa.com/,37.3446341,-121.933435,,,n_3622824133,shop=beauty
"Pleasanton, CA",,retail,453991,Santa Clara smoke shop,"565 East Santa Clara Street, San Jose, CA, 95112",,,37.3420616,-121.8789692,,,n_3624046612,shop=tobacco
"Pleasanton, CA",,retail,445110,Tân Lập Supermarket,"2374 Senter Road, San Jose, 95111",,,37.309198,-121.8474255,,,n_3624624017,shop=supermarket
"Pleasanton, CA",,retail,453110,Van Florist,,+1-408-998-5598,,37.3427814,-121.8762582,,,n_3624970746,shop=florist
"Pleasanton, CA",,retail,445120,Rose Market,,,,37.3477956,-121.8656045,,,n_3624973249,shop=convenience
"Pleasanton, CA",,retail,452319,Furtado’s,,,,37.3488362,-121.8632737,,,n_3624973277,shop=variety_store
"Pleasanton, CA",,retail,445120,V-Mart,"1245 East Julian Street, San Jose, 95116",,,37.351962,-121.870454,,,n_3624973528,shop=convenience
"Pleasanton, CA",,retail,445110,Stop & Save Food Store,"1212 East Julian Street, San Jose, 95116",,,37.3513223,-121.8703601,,,n_3624973535,shop=grocery
"Pleasanton, CA",,retail,445120,Veer Indian Cash & Carry,"1201 East Julian Street, San Jose, 95116",,,37.3519193,-121.8709663,,,n_3624973545,shop=convenience
"Pleasanton, CA",,retail,445120,Bonfare,"1175 East Julian Street, San Jose, 95116",,,37.3510814,-121.8715993,,,n_3624973558,shop=convenience
"Pleasanton, CA",,retail,453110,A Touch of Love Flower Shop,,,https://atouchofloveflowers.us/,37.3486208,-121.8773097,,,n_3624973560,shop=florist
"Pleasanton, CA",,retail,445120,LD-Lucky Market,"309 North 17th Street, San Jose, 95112",,,37.3483244,-121.8779508,,,n_3624973561,shop=convenience
"Pleasanton, CA",,retail,445120,Shop and Save Market,"365 Barack Obama Boulevard, San Jose, CA, 95126",,,37.3237325,-121.900095,,,n_3630269586,shop=convenience
"Pleasanton, CA",,retail,445120,Chevron,,,,37.3232723,-121.900057,,,n_3630269815,"shop=convenience, brand=Chevron"
"Pleasanton, CA",,retail,445120,For You Mini Market,"350 Barack Obama Boulevard, San Jose, CA, 95126",,,37.3248049,-121.899838,,,n_3632356228,shop=convenience
"Pleasanton, CA",,retail,445120,AK’s In & Out Mini Market,"17 South 2nd Street, San Jose, 95113",,,37.3363486,-121.8894906,,,n_3634866120,shop=convenience
"Pleasanton, CA",,retail,445120,AK’s Square,"31 East Santa Clara Street, San Jose, CA, 95113",,,37.3365928,-121.8901449,,,n_3634866127,shop=convenience
"Pleasanton, CA",,retail,453991,Houdini’s Smoke Shop,"118 East Santa Clara Street, San Jose, 95112",,,37.3371578,-121.8880285,,,n_3634866130,shop=tobacco
"Pleasanton, CA",,retail,445120,ExtraMile,"147 East Santa Clara Street, San Jose, CA, 95113",,,37.3378068,-121.888145,,,n_3634866133,"shop=convenience, brand=ExtraMile, operator=George F. Saunders Incorporated"
"Pleasanton, CA",,retail,445110,Bharat Bazaar,,,,37.3673611,-121.9972717,,,n_3640211825,shop=supermarket
"Pleasanton, CA",,retail,445120,Mary’s Market & Water,"192 Race Street, San Jose, 95126",,,37.3265062,-121.9111982,,,n_3643661929,shop=convenience
"Pleasanton, CA",,retail,446120,Elizabeth Beauty Salon,"194 Race Street, San Jose, CA, 95126",,,37.326421,-121.911098,,,n_3643661930,shop=beauty
"Pleasanton, CA",,retail,446120,Nail Pros,"1346 The Alameda, San Jose, CA, 95126",,,37.3325655,-121.912847,,,n_3643661975,shop=beauty
"Pleasanton, CA",,retail,446120,Camille Beauty Salon,"227 Jackson Street, San Jose, 95112",,,37.3494292,-121.8938195,,,n_3648457229,shop=beauty
"Pleasanton, CA",,retail,446120,Alquimia Med Spa,"635 North 1st Street, San Jose, 95112",,https://alquimiamedspa.com/,37.3474431,-121.899335,,,n_3652273224,shop=beauty
"Pleasanton, CA",,retail,445110,Smart & Final,,,,37.5513128,-121.9806847,,,n_3657473857,"shop=supermarket, brand=Smart & Final"
"Pleasanton, CA",,retail,445110,Lucky,,,,37.6478109,-122.0899045,,,n_3667945172,shop=supermarket
"Pleasanton, CA",,retail,445310,Kitty Mand Liquors,,,,37.3543252,-121.9463623,,,n_3668322837,shop=alcohol
"Pleasanton, CA",,retail,445110,Namaste Plaza,"3269 Walnut Avenue, Fremont",,,37.5503357,-121.9803966,,,n_3676699449,shop=supermarket
"Pleasanton, CA",,retail,445120,Kwik & Convenient Liquor Supermarket,"3157 Walnut Avenue, Fremont, 94538",,,37.5516233,-121.9802876,,,n_3676726245,shop=convenience
"Pleasanton, CA",,retail,446120,Sleek Salon,"38990 Paseo Padre Parkway, Fremont, 94538",+1 510 7902600,,37.5539316,-121.9810652,,,n_3676753095,shop=beauty
"Pleasanton, CA",,retail,445110,Sprouts Farmers Market,"615 Coleman Avenue, San Jose, CA, 95110",+1 669-444-3186,https://www.sprouts.com/store/ca/san-jose/coleman-ave/,37.3401952,-121.908258,,,n_3676933244,"shop=supermarket, brand=Sprouts Farmers Market"
"Pleasanton, CA",,retail,446120,Nail & Tan America,"579 Coleman Avenue, San Jose, CA, 95110",,,37.3395811,-121.906848,,,n_3676933251,shop=beauty
"Pleasanton, CA",,retail,446120,European Wax Center,,,https://locations.waxcenter.com/ca/sanjose/san-jose-coleman-0058.html,37.3403856,-121.9064417,,,n_3676933254,"shop=beauty, brand=European Wax Center"
"Pleasanton, CA",,retail,446120,Hibiscus Studio,"136 East Santa Clara Street, San Jose, 95112",,http://hibiscussj.com/,37.3373318,-121.8876986,,,n_3677119102,shop=beauty
"Pleasanton, CA",,retail,453110,Flowers By Ivy,"392 East Santa Clara Street, San Jose, CA, 95113",,https://flowersbyivy.com/,37.3399226,-121.8822294,,,n_3677119103,shop=florist
"Pleasanton, CA",,retail,445110,Trade Rite Market & Liquor,"1555 Alum Rock Avenue, San Jose, 95116",,http://bacalhaugrill.com/,37.3508646,-121.8601236,,,n_3677119614,shop=grocery
"Pleasanton, CA",,retail,445120,Grewal,,,,37.3313609,-121.8743326,,,n_3678414581,shop=convenience
"Pleasanton, CA",,retail,446120,Teresa Beauty Salon,"2314 Senter Road, San Jose, CA, 95112",,,37.3092815,-121.848236,,,n_3679715110,"shop=beauty, operator=AD Valley Corporation"
"Pleasanton, CA",,retail,446120,O’Paradise Spa,"2268 Senter Road, San Jose, CA, 95112",,,37.3106424,-121.8484715,,,n_3679715115,shop=beauty
"Pleasanton, CA",,retail,446120,Extreme Lashes Official,"2266 Senter Road, San Jose, CA, 95112",+1-408-564-5803,,37.3106871,-121.849781,,,n_3679715121,shop=beauty
"Pleasanton, CA",,retail,453110,Phương Nam Plants,"2114 Senter Road, San Jose, 95112",,,37.3120016,-121.850557,,,n_3679715130,shop=florist
"Pleasanton, CA",,retail,452210,Ross,"20650 West Homestead Road, Cupertino, CA, 95014-0451",+1 408-873-8763,,37.3361425,-122.0357968,,,n_3681402862,"shop=department_store, brand=Ross"
"Pleasanton, CA",,retail,445120,3 Kings Market & Beer,,,,37.3238456,-121.9082465,,,n_3700288359,shop=convenience
"Pleasanton, CA",,retail,445310,Lion Liquors,"1653 West San Carlos Street, San Jose, 95128",,,37.3240359,-121.9207851,,,n_3700288375,shop=alcohol
"Pleasanton, CA",,retail,446120,Yenny Spa,"1665 West San Carlos Street, San Jose, 95128",,,37.3240594,-121.9209246,,,n_3700288377,shop=beauty
"Pleasanton, CA",,retail,446120,7teen Salon & Spa,"1665 West San Carlos Street, San Jose, 95128",,http://7teensalonandspa.com/,37.3239975,-121.9210909,,,n_3700288380,shop=beauty
"Pleasanton, CA",,retail,445292,See's Candies,"1675 West San Carlos Street, San Jose, 95128",,,37.3239003,-121.9212358,,,n_3700288381,"shop=confectionery, brand=See's Candies"
"Pleasanton, CA",,retail,445110,Lucky,"1675 Tully Road, San Jose, CA, 95122",,,37.3230314,-121.827985,,,n_3700417832,"shop=supermarket, brand=Lucky, operator=JTV Investments Incorporated"
"Pleasanton, CA",,retail,445110,Lion Supermarket,"1710 Tully Road, San Jose, CA, 95122",,https://www.lionsupermarket.com/,37.3211458,-121.823828,,,n_3700418046,shop=supermarket
"Pleasanton, CA",,retail,445230,Cô 6 Trái Cây,"992 Story Road, San Jose, CA, 95122",,,37.33075,-121.855122,,,n_3700431859,"shop=greengrocer, operator=Pham’s Fresh Fruit Corporation"
"Pleasanton, CA",,retail,452210,Nordstrom,"2400 Forest Avenue, San Jose, 95050",,https://www.nordstrom.com/store-details/nordstrom-valley-fair,37.3262162,-121.946534,,,n_3700772566,"shop=department_store, brand=Nordstrom"
"Pleasanton, CA",,retail,452210,Macy's,,,,37.3245504,-121.948089,,,n_3700772568,"shop=department_store, brand=Macy's"
"Pleasanton, CA",,retail,445120,Shell,,,,37.3436912,-121.928039,,,n_3710953949,shop=convenience
"Pleasanton, CA",,retail,446120,European Wax Center,,,https://locations.waxcenter.com/ca/oakland/oakland-0480.html,37.8112271,-122.243201,,,n_3711137971,"shop=beauty, brand=European Wax Center"
"Pleasanton, CA",,retail,446120,Izek Day Spa Salon,,,,37.8109688,-122.2439652,,,n_3711137976,shop=beauty
"Pleasanton, CA",,retail,445310,Buckingham Wine & Spirits,,,,37.8108731,-122.2442374,,,n_3711137979,shop=alcohol
"Pleasanton, CA",,retail,453110,VIP Florist & Gifts,,,,37.8105602,-122.2451922,,,n_3711137988,shop=florist
"Pleasanton, CA",,retail,446120,Center Stage Salon,,,,37.810412,-122.2455765,,,n_3711137993,shop=beauty
"Pleasanton, CA",,retail,445310,Alkali Rye,,,,37.8123615,-122.247171,,,n_3711138013,shop=alcohol
"Pleasanton, CA",,retail,446120,Beauty Supplies,,,,37.8121537,-122.2472748,,,n_3711138016,shop=beauty
"Pleasanton, CA",,retail,446191,Omnilife,"960 North 10th Street, San Jose, 95112",,,37.3590952,-121.8944598,,,n_3711149878,shop=health_food
"Pleasanton, CA",,retail,445110,Sprouts Farmers Market,"1771 East Capitol Expressway, San Jose, CA, 95121",+1 669-234-5260,https://www.sprouts.com/store/ca/san-jose/san-jose-capitol-expwy/,37.3094073,-121.810676,,,n_3711317169,"shop=supermarket, brand=Sprouts Farmers Market"
"Pleasanton, CA",,retail,445110,Namaste Plaza,"1763 East Capitol Expressway, San Jose, CA, 95121",,,37.3091641,-121.811166,,,n_3711317174,shop=grocery
"Pleasanton, CA",,retail,446110,Walgreens,"1795 East Capitol Expressway, San Jose, CA, 95121",,https://www.walgreens.com/locator/walgreens-1795+e+capitol+expy-san+jose-ca-95121/id=1179,37.310122,-121.810088,,,n_3711324788,"shop=chemist, brand=Walgreens"
"Pleasanton, CA",,retail,445110,Maxim Market,"1930 Aborn Road, San Jose, 95121",,,37.3099684,-121.8111454,,,n_3711324855,shop=supermarket
"Pleasanton, CA",,retail,446120,Pro Nail,"1811 East Capitol Expressway, San Jose, CA, 95121",,,37.3105081,-121.81015,,,n_3711324857,"shop=beauty, operator=Pro Nails Art"
"Pleasanton, CA",,retail,446120,TJ Brows and Lashes,"3005 Silver Creek Road, San Jose, CA, 95121",,,37.3090095,-121.8129074,,,n_3711324868,shop=beauty
"Pleasanton, CA",,retail,446120,Van's Nails,"1680 Lafayette Street, Santa Clara, CA, 95050",,,37.3565401,-121.946946,,,n_3733958219,shop=beauty
"Pleasanton, CA",,retail,445120,Santa Clara Mini Market,,,,37.3601836,-121.9485185,,,n_3733963126,shop=convenience
"Pleasanton, CA",,retail,445310,The Wine Club,,,https://www.thewineclub.com/,37.3570244,-121.9324438,,,n_3733963135,shop=wine
"Pleasanton, CA",,retail,452319,Smart Foodservice Warehouse Stores,"1731 West San Carlos Street, San Jose, 95128",(408) 971-2637,https://www.smartfoodservice.com/locations/store/san-jose-571/,37.3239448,-121.9230069,,,n_3748097998,shop=variety_store
"Pleasanton, CA",,retail,446120,Kimmy's Bliss,"1275 South Mary Avenue, Sunnyvale, CA, 94087",,https://kimmys-bliss.business.site/,37.35303,-122.051313,,,n_3759611672,shop=beauty
"Pleasanton, CA",,retail,445120,Coconut Hill,,,,37.4931934,-121.9316861,,,n_3763984222,shop=convenience
"Pleasanton, CA",,retail,445210,Prime Smoked Meats,"220 Alice Street, Oakland, 94607",,http://www.primesmoked.com/,37.7945257,-122.2711895,,,n_3771490184,shop=butcher
"Pleasanton, CA",,retail,445310,BevMo!,"1133 Lincoln Avenue, San Jose, CA, 95125",+1 408-298-1193,,37.3076924,-121.9009818,,,n_3778987368,"shop=alcohol, brand=BevMo!"
"Pleasanton, CA",,retail,446120,Luxury Nail Bar,"1183 Lincoln Avenue, San Jose, CA, 95125",,,37.3069458,-121.900225,,,n_3778993862,shop=beauty
"Pleasanton, CA",,retail,445120,Samovar Deli,"1077 Independence Avenue, Mountain View, CA, 94043",,https://bestrussianfood.com/,37.4193286,-122.0966398,,,n_3789617901,shop=convenience
"Pleasanton, CA",,retail,445210,Taylor's Sausage,,,,37.8017511,-122.2746994,,,n_3796476187,shop=butcher
"Pleasanton, CA",,retail,445310,M & A Lakeside Market,"138 14th Street, Oakland, CA",,,37.8015291,-122.263693,,,n_3796540703,shop=alcohol
"Pleasanton, CA",,retail,445120,Hometown Donuts,,,,37.7967027,-122.2653248,,,n_3798594291,shop=convenience
"Pleasanton, CA",,retail,445110,Gazzail's Supermarket,,,,37.7677359,-122.1774582,,,n_3799894173,shop=supermarket
"Pleasanton, CA",,retail,446120,Young Beauty Salon,"41255 Fremont Boulevard, Fremont, CA, 94538",+1 510 683-0709,,37.5298151,-121.9590742,,,n_3804379637,shop=beauty
"Pleasanton, CA",,retail,446120,Ulta Beauty,"20580 Homestead Road, Cupertino, CA, 95014-0499",+1 408-873-8065,https://www.ulta.com/stores/cupertino-ca-777,37.336324,-122.03334,,,n_3807526156,"shop=cosmetics, brand=Ulta Beauty"
"Pleasanton, CA",,retail,446120,Pinky Nail Spa,"20373 Stevens Creek Boulevard, Cupertino, CA, 95014",,,37.3235925,-122.030023,,,n_3807643499,shop=beauty
"Pleasanton, CA",,retail,445110,Marina Foods,"10118 Bandley Drive, 95014-2102",,,37.3246458,-122.0337564,,,n_3808428945,shop=supermarket
"Pleasanton, CA",,retail,446120,ChoCo Salon & Spa,"10879 North Wolfe Road, Cupertino, CA, 95014",,,37.3356535,-122.014988,,,n_3815032268,shop=beauty
"Pleasanton, CA",,retail,445120,7-Eleven,,,,37.3772582,-122.062797,,,n_3836342986,"shop=convenience, brand=7-Eleven"
"Pleasanton, CA",,retail,446120,Bollywood Beauty Salon,"820 East El Camino Real, Mountain View, CA, 94040",,https://www.bollywoodbeautysalon.com/,37.3771965,-122.0626128,,,n_3849952457,shop=beauty
"Pleasanton, CA",,retail,445120,Sana Market,,,,37.8256153,-122.265213,,,n_3879006543,shop=convenience
"Pleasanton, CA",,retail,452210,Marshalls,"5160 Stevens Creek Boulevard, San Jose, CA, 95129",,,37.3213533,-121.99398,,,n_3926511561,"shop=department_store, brand=Marshalls"
"Pleasanton, CA",,retail,445120,7-Eleven,"494 Mowry Avenue, Fremont, CA, 94536",+1 510-797-2538,https://www.7-eleven.com/locations/ca/fremont/482-mowry-ave-36794,37.5675853,-121.972233,,,n_3926562449,"shop=convenience, brand=7-Eleven"
"Pleasanton, CA",,retail,445120,14th Street Market,,,,37.8041837,-122.270424,,,n_3927989513,shop=convenience
"Pleasanton, CA",,retail,446120,Central Nails,,,,37.8042026,-122.2699394,,,n_3927998685,shop=beauty
"Pleasanton, CA",,retail,445120,Howden Market,1630 Webster Street,,,37.8055483,-122.2672438,,,n_3927998690,shop=convenience
"Pleasanton, CA",,retail,453110,Empress Florist & Gifts,1269 Harrison Street,,,37.802111,-122.2683113,,,n_3928006154,shop=florist
"Pleasanton, CA",,retail,445120,African Caribbean Food Market,,,,37.8009569,-122.2761018,,,n_3933170764,shop=convenience
"Pleasanton, CA",,retail,445120,Alameda grocery,,,,37.7701292,-122.2495343,,,n_3933385528,shop=convenience
"Pleasanton, CA",,retail,445110,FoodMaxx,,,,37.7370516,-122.1635413,,,n_3934277166,"shop=supermarket, brand=FoodMaxx"
"Pleasanton, CA",,retail,445120,La Nopalera Produce Market,,,,37.748556,-122.1739592,,,n_3934277180,shop=convenience
"Pleasanton, CA",,retail,452210,Ross,"10700 MacArthur Boulevard, Oakland, CA, 94605-5206",+1 510-632-1503,,37.7427342,-122.1509862,,,n_3934277188,"shop=department_store, brand=Ross"
"Pleasanton, CA",,retail,445310,Cille's Market & Liquor Store,,,,37.7498242,-122.1742836,,,n_3934277258,shop=alcohol
"Pleasanton, CA",,retail,446120,Pretty Nails Salon,"37525 Niles Boulevard, Fremont, 94536",,,37.5767867,-121.9789618,,,n_3940042787,shop=beauty
"Pleasanton, CA",,retail,446120,Water Nails,,,,37.5447854,-122.285244,,,n_3952985466,shop=beauty
"Pleasanton, CA",,retail,445310,,,,,37.3536943,-122.013772,,,n_3958778943,shop=alcohol
"Pleasanton, CA",,retail,445120,Hien's Market,,,,37.8038661,-122.2672048,,,n_3967298487,shop=convenience
"Pleasanton, CA",,retail,446120,Nailphoria,,,,37.8055592,-122.2666765,,,n_3967298496,shop=beauty
"Pleasanton, CA",,retail,445120,Broadway Market,,,,37.8050547,-122.2704946,,,n_3969659723,shop=convenience
"Pleasanton, CA",,retail,446120,Beauty Nail,339 17th Street,,,37.8054925,-122.2671067,,,n_3969664016,shop=beauty
"Pleasanton, CA",,retail,445120,Euromix Delicatessen,,,,37.8292508,-122.2488947,,,n_3981309957,shop=convenience
"Pleasanton, CA",,retail,446120,Grace Beauty Supply,,,,37.8070839,-122.2696899,,,n_3981344387,shop=beauty
"Pleasanton, CA",,retail,445230,Long Pat Market,,,,37.7993503,-122.2726017,,,n_3988389202,shop=greengrocer
"Pleasanton, CA",,retail,445230,New Sang Chong Market,,,,37.7993248,-122.2719152,,,n_3988389207,shop=greengrocer
"Pleasanton, CA",,retail,445230,Wah Hang Market(2),,,,37.7993841,-122.2720708,,,n_3988389212,shop=greengrocer
"Pleasanton, CA",,retail,445230,D & K Market,,,,37.7996427,-122.2719876,,,n_3988389224,shop=greengrocer
"Pleasanton, CA",,retail,445230,King of Grocery,,,,37.7994838,-122.2723201,,,n_3988389229,shop=greengrocer
"Pleasanton, CA",,retail,445120,Park Grocery & Liquors,,,,37.8002277,-122.2720143,,,n_3988389230,shop=convenience
"Pleasanton, CA",,retail,445230,Yet Sun Market,,,,37.7995178,-122.2723897,,,n_3988389232,shop=greengrocer
"Pleasanton, CA",,retail,445120,Great Wall Co,,,,37.7989322,-122.2714157,,,n_3990935833,shop=convenience
"Pleasanton, CA",,retail,446191,Layonna Vegetarian Health Food Market,,,,37.7999622,-122.273593,,,n_3990935834,shop=health_food
"Pleasanton, CA",,retail,446120,Ce Ce Beauty Spa,,,,37.7995258,-122.2738672,,,n_3990935838,shop=beauty
"Pleasanton, CA",,retail,445230,Asian and American Fruits Market,725 Webster Street,,,37.7990137,-122.2717196,,,n_3990935840,shop=greengrocer
"Pleasanton, CA",,retail,445230,Good Luck Market,717 Webster Street,,,37.7989144,-122.2717793,,,n_3990935844,shop=greengrocer
"Pleasanton, CA",,retail,452319,T & T Co,,,,37.7999433,-122.273537,,,n_3990935845,shop=general
"Pleasanton, CA",,retail,446120,Fashion Line,,,,37.7995353,-122.273902,,,n_3990935848,shop=beauty
"Pleasanton, CA",,retail,446191,Wellness,,,,37.7982902,-122.271491,,,n_3990946904,shop=health_food
"Pleasanton, CA",,retail,445110,New Dic's Supermarket,,,,37.8000479,-122.271586,,,n_3992953178,shop=supermarket
"Pleasanton, CA",,retail,446191,Anrol International,,,,37.8001941,-122.2719267,,,n_3992956522,shop=health_food
