Location,Search Keyword,Segment,NAICS Code,Business Name,Address,Phone Number,Website,Latitude,Longitude,Rating,User Ratings,Place ID,Types
"Colton, CA",,retail,445110,Gerrard's Market,,,,34.0426024,-117.1840753,,,n_332436996,shop=supermarket
"Colton, CA",,retail,445110,Stater Bros.,"1155 Calimesa Boulevard, Calimesa, CA, 92320",+1 909-795-2224,https://www.staterbros.com/stores/71,33.995763,-117.0568568,,,n_457359176,"shop=supermarket, brand=Stater Bros."
"Colton, CA",,retail,445120,ampm,,,,33.9934397,-117.0576116,,,n_457367894,"shop=convenience, brand=ampm"
"Colton, CA",,retail,445120,Chevron,,,,33.9928393,-117.0565529,,,n_457370070,"shop=convenience, brand=Chevron"
"Colton, CA",,retail,445120,Circle K,,,,33.9936924,-117.0568424,,,n_457403249,"shop=convenience, brand=Circle K"
"Colton, CA",,retail,445110,Groceries for Less,,,,34.0048356,-117.0610138,,,n_457415708,shop=supermarket
"Colton, CA",,retail,445120,County Cork,,,,33.993913,-117.0578123,,,n_457719552,shop=convenience
"Colton, CA",,retail,445120,Calimesa Drive Thru Dairy,,,,33.9996171,-117.0599343,,,n_457748641,shop=convenience
"Colton, CA",,retail,445120,C & H Liquor,,,,34.0044841,-117.0620886,,,n_457748645,shop=convenience
"Colton, CA",,retail,446120,Natural Nails & Spa,"12223 Highland Ave, Etiwanda, CA, 91739",+1 909 463 7039,,34.1342399,-117.5385525,,,n_519579477,shop=beauty
"Colton, CA",,retail,445120,Arco,,,,34.2237944,-117.4034603,,,n_572572143,"shop=convenience, amenity=fuel, brand=Arco"
"Colton, CA",,retail,445120,Shell,,,,34.2241177,-117.4028321,,,n_572572147,"shop=convenience, amenity=fuel, brand=Shell"
"Colton, CA",,retail,445120,7-Eleven,,,,34.1916076,-117.360445,,,n_572572194,"shop=convenience, amenity=fuel, brand=7-Eleven"
"Colton, CA",,retail,445120,,,,,34.0463363,-117.2014069,,,n_574181744,shop=convenience
"Colton, CA",,retail,445110,Food 4 Less,,,,34.0651461,-117.224976,,,n_574838404,"shop=supermarket, brand=Food 4 Less"
"Colton, CA",,retail,445120,7-Eleven,"32487 Yucaipa Boulevard, Yucaipa, CA, 92399-1877",+1 909-797-6465,https://www.7-eleven.com/locations/ca/yucaipa/32487-yucaipa-blvd-17814,34.0335305,-117.0958508,,,n_583573357,"shop=convenience, brand=7-Eleven"
"Colton, CA",,retail,452210,Ross,"33720 Oak Glen Road, Yucaipa, CA, 92399",+1 909-797-0918,,34.0359857,-117.0685346,,,n_584865710,"shop=department_store, brand=Ross"
"Colton, CA",,retail,445120,Circle K,,,,34.1219656,-117.592998,,,n_588149661,"shop=convenience, amenity=fuel, brand=Circle K"
"Colton, CA",,retail,445110,Stater Bros.,"9750 19th Street, Rancho Cucamonga, CA, 91737",+1 909-989-4908,https://www.staterbros.com/stores/78,34.1341172,-117.5925666,,,n_588149667,"shop=supermarket, brand=Stater Bros."
"Colton, CA",,retail,452210,Burlington,"4777 Mills Circle, Ontario, CA, 91764-5200",+1 909-481-0421,https://stores.burlington.com/ca/ontario/274,34.0738835,-117.548736,,,n_588191790,"shop=department_store, brand=Burlington"
"Colton, CA",,retail,445120,Shell,,,,34.0765628,-117.550721,,,n_588191797,"shop=convenience, amenity=fuel, brand=Shell"
"Colton, CA",,retail,445120,Chevron,,,,34.0767726,-117.545882,,,n_588191815,"shop=convenience, amenity=fuel, brand=Chevron"
"Colton, CA",,retail,445292,See's Candies,"2690 Tuscany Rd, Corona, CA, 92881",,,33.8235952,-117.515283,,,n_596244759,"shop=confectionery, brand=See's Candies"
"Colton, CA",,retail,445120,Chevron,,,,34.0328191,-117.575212,,,n_747641212,"shop=convenience, amenity=fuel, brand=Chevron"
"Colton, CA",,retail,446120,Bath & Body Works,,,,33.8116642,-117.506828,,,n_820215535,"shop=cosmetics, brand=Bath & Body Works"
"Colton, CA",,retail,445120,Circle K,,,,33.8361245,-117.5222291,,,n_820215590,"shop=convenience, brand=Circle K"
"Colton, CA",,retail,445110,Trader Joe's,"2790 Cabot Drive, Corona, CA, 92883",+1 951-603-0299,https://locations.traderjoes.com/ca/corona/213/,33.8111592,-117.5062534,,,n_820215768,"shop=supermarket, brand=Trader Joe's"
"Colton, CA",,retail,445110,,,,,33.7646365,-117.4893216,,,n_821736565,shop=grocery
"Colton, CA",,retail,445110,El Tapatio Market,,,,33.9419162,-117.45522,,,n_928670437,shop=supermarket
"Colton, CA",,retail,445110,Cardenas,,,,33.9451026,-117.455547,,,n_928670572,"shop=supermarket, brand=Cardenas"
"Colton, CA",,retail,445110,Food 4 Less,,,,33.927576,-117.453369,,,n_928670577,"shop=supermarket, brand=Food 4 Less"
"Colton, CA",,retail,452210,Ross,"10255 Magnolia Avenue, Riverside, CA, 92503",+1 951-509-3541,,33.9133945,-117.4608972,,,n_928693054,"shop=department_store, brand=Ross"
"Colton, CA",,retail,445110,Walmart Supercenter,"5200 Van Buren Boulevard, Riverside, CA, 92503",+1 951-689-4595,https://www.walmart.com/store/2028-riverside-ca,33.9371231,-117.4553945,,,n_928693137,"shop=supermarket, brand=Walmart, operator=Walmart"
"Colton, CA",,retail,445110,Stater Bros.,"34460 Yucaipa Boulevard, Yucaipa, CA, 92399",+1 909-790-0060,https://www.staterbros.com/stores/23,34.0353277,-117.0526065,,,n_942830211,"shop=supermarket, brand=Stater Bros."
"Colton, CA",,retail,445110,Stater Bros.,"4680 La Sierra Avenue, Riverside, CA, 92505",+1 951-343-2580,https://www.staterbros.com/stores/22,33.9160206,-117.487558,,,n_943347768,"shop=supermarket, brand=Stater Bros."
"Colton, CA",,retail,445110,Stater Bros.,"3420 La Sierra Avenue, Riverside, CA, 92503",+1 951-343-2588,https://www.staterbros.com/stores/115,33.8971255,-117.4730212,,,n_943353228,"shop=supermarket, brand=Stater Bros."
"Colton, CA",,retail,445110,Ralphs,"3350 La Sierra Avenue, Riverside, CA, 92503",+1 951-637-1948,https://www.ralphs.com/stores/grocery/ca/riverside/la-sierra/703/00098,33.8954112,-117.4715996,,,n_943353907,"shop=supermarket, brand=Ralphs"
"Colton, CA",,retail,445110,Albertsons,"2975 Van Buren Boulevard, Riverside, CA, 92503",+1 951-689-2252,https://local.albertsons.com/ca/riverside/2975-van-buren-blvd.html,33.9098993,-117.436339,,,n_943356324,"shop=supermarket, brand=Albertsons"
"Colton, CA",,retail,452210,Big Lots,"4022 Madison Street, Riverside, CA, 92504",+1 951-352-7782,https://local.biglots.com/ca/riverside/4022-madison-st,33.9448316,-117.4128432,,,n_943363812,"shop=department_store, brand=Big Lots"
"Colton, CA",,retail,445110,Stater Bros.,"6160 Arlington Avenue, Riverside, CA, 92504",+1 951-343-2562,https://www.staterbros.com/stores/42,33.944865,-117.436334,,,n_943367513,"shop=supermarket, brand=Stater Bros."
"Colton, CA",,retail,452210,dd's Discounts,,,,33.9409375,-117.455168,,,n_943369589,"shop=department_store, brand=dd's Discounts"
"Colton, CA",,retail,445110,Food 4 Less,,,,33.9738463,-117.3469037,,,n_943378231,"shop=supermarket, brand=Food 4 Less"
"Colton, CA",,retail,445110,Rite Aid,,,,33.9601168,-117.3941411,,,n_943389742,shop=supermarket
"Colton, CA",,retail,445110,Ralphs,"6155 Magnolia Avenue, Riverside, CA, 92506",+1 951-274-9543,https://www.ralphs.com/stores/grocery/ca/riverside/magnolia-town-center/703/00144,33.9592269,-117.3943342,,,n_943390313,"shop=supermarket, brand=Ralphs"
"Colton, CA",,retail,445110,Stater Bros.,"315 East Alessandro Boulevard, Riverside, CA, 92508",+1 951-565-5426,https://www.staterbros.com/stores/201,33.9141018,-117.3281711,,,n_943398059,"shop=supermarket, brand=Stater Bros."
"Colton, CA",,retail,445110,Sprouts Farmers Market,"475 East Alessandro Boulevard, Riverside, CA, 92508",+1 951-565-5400,https://www.sprouts.com/store/ca/riverside/e-alessandro-blvd/,33.9139778,-117.3233769,,,n_943402481,"shop=supermarket, brand=Sprouts Farmers Market"
"Colton, CA",,retail,445110,Stater Bros.,"25900 Iris Avenue, Moreno Valley, CA, 92551",+1 951-924-1717,https://www.staterbros.com/stores/172,33.8917222,-117.209334,,,n_1043355273,"shop=supermarket, brand=Stater Bros."
"Colton, CA",,retail,445110,Albertsons,"260 West Foothill Parkway, Corona, CA, 92882",+1 951-340-1425,https://local.albertsons.com/ca/corona/260-w-foothill-pkwy.html,33.8435355,-117.574217,,,n_1055559709,"shop=supermarket, brand=Albertsons"
"Colton, CA",,retail,445120,Mobil,,,,34.0187781,-117.592549,,,n_1144975506,"shop=convenience, amenity=fuel, brand=Mobil"
"Colton, CA",,retail,445120,7-Eleven,,,,34.0477327,-117.576581,,,n_1145325468,"shop=convenience, amenity=fuel, brand=7-Eleven"
"Colton, CA",,retail,445120,Baci's Vera Villa Market,,,,33.9571874,-117.6326668,,,n_1148739281,shop=convenience
"Colton, CA",,retail,446120,Bath & Body Works,,,,34.1089201,-117.570698,,,n_1158422184,"shop=cosmetics, brand=Bath & Body Works"
"Colton, CA",,retail,453110,T. Austin Florist,,,,34.108863,-117.5708836,,,n_1158422891,shop=florist
"Colton, CA",,retail,445120,7-Eleven,"8118 Masi Drive, Rancho Cucamonga, CA, 91730-3902",+1 909-941-4400,https://www.7-eleven.com/locations/ca/rancho-cucamonga/8118-masi-dr-39209,34.105532,-117.5497614,,,n_1158471096,"shop=convenience, brand=7-Eleven"
"Colton, CA",,retail,445310,,,,,34.1067504,-117.5252332,,,n_1158745841,shop=alcohol
"Colton, CA",,retail,445110,Greenhills Market & Fast Food,,,,34.0291623,-117.6072896,,,n_1165054394,"shop=supermarket, amenity=fast_food"
"Colton, CA",,retail,445120,Vineyard Car Wash,,,,34.0288799,-117.6104103,,,n_1165054545,"shop=convenience, amenity=car_wash;car_detail;oil_change"
"Colton, CA",,retail,445120,Arco,"2456 Vineyard Ave, Ontario, CA, 91761",,,34.0294113,-117.611328,,,n_1165054664,"shop=convenience, brand=Arco"
"Colton, CA",,retail,452210,FAMSA,"2446 Vineyard Ave, Ontario, CA, 91761",,,34.0294588,-117.612437,,,n_1165054700,shop=department_store
"Colton, CA",,retail,452210,American Freight,,,,34.0294319,-117.607288,,,n_1165054768,"shop=department_store, brand=American Freight"
"Colton, CA",,retail,445120,Arrow & Grove Market & Liquor,,,,34.0996552,-117.6283052,,,n_1167574731,shop=convenience
"Colton, CA",,retail,445120,Chevron,,,,34.1361476,-117.1935993,,,n_1295131161,"shop=convenience, amenity=fuel, brand=Chevron"
"Colton, CA",,retail,445120,Chevron,,,,33.7819806,-117.2178868,,,n_1298157814,"shop=convenience, amenity=fuel, brand=Chevron"
"Colton, CA",,retail,445120,,,,,33.9175543,-117.2615582,,,n_1326188042,"shop=convenience, amenity=fuel, brand=Thrifty"
"Colton, CA",,retail,445120,Mobil,,,,33.9760301,-117.336732,,,n_1333487407,"shop=convenience, amenity=fuel, brand=Mobil"
"Colton, CA",,retail,445120,,,,,34.0384447,-117.3677504,,,n_1336514330,"shop=convenience, amenity=fuel;car_wash, brand=ARCO"
"Colton, CA",,retail,445120,,,,,34.0374987,-117.3674283,,,n_1336514558,"shop=convenience, amenity=fuel, brand=76"
"Colton, CA",,retail,445120,Mobil,,,,34.0666316,-117.324869,,,n_1339197354,"shop=convenience, amenity=fuel, brand=Mobil"
"Colton, CA",,retail,445310,,,,,34.0148058,-117.3402348,,,n_1343044220,shop=alcohol
"Colton, CA",,retail,445120,Shell,,,,33.9833054,-117.340305,,,n_1343105062,"shop=convenience, amenity=fuel, brand=Shell"
"Colton, CA",,retail,445120,Shell,,,,33.7869232,-117.215893,,,n_1350170307,"shop=convenience, amenity=fuel, brand=Shell"
"Colton, CA",,retail,452210,Target,"12795 Main Street, Hesperia, CA, 92345",+1 760-949-3062,https://www.target.com/sl/hesperia/2468,34.4244908,-117.383687,,,n_1353398300,"shop=department_store, brand=Target"
"Colton, CA",,retail,445120,Shell,,,,34.0334497,-117.32364,,,n_1357773801,"shop=convenience, brand=Shell"
"Colton, CA",,retail,445120,76,,,,33.8414945,-117.254599,,,n_1367636109,"shop=convenience, amenity=fuel;car_wash, brand=76"
"Colton, CA",,retail,445120,Chevron,,,,33.8453936,-117.2434381,,,n_1368118940,"shop=convenience, brand=Chevron"
"Colton, CA",,retail,445120,Elkhorn General Store,,,,34.0857985,-116.9101271,,,n_1370499198,shop=convenience
"Colton, CA",,retail,446120,Five Star Nails & Spa,"12721 Main Street, Hesperia, CA, 92344",,,34.4263269,-117.3854644,,,n_1377259222,shop=beauty
"Colton, CA",,retail,445120,Easter Market,,,,33.9177232,-117.1564348,,,n_1377433725,"shop=convenience, amenity=fuel"
"Colton, CA",,retail,445110,Stater Bros.,"14466 Main Street, Hesperia, CA, 92345",+1 760-244-2299,https://www.staterbros.com/stores/122,34.428241,-117.348279,,,n_1380549829,"shop=supermarket, brand=Stater Bros."
"Colton, CA",,retail,445120,Rock View Drive-Thru Convenience Store,,,,34.0532353,-117.1742029,,,n_1385337830,shop=convenience
"Colton, CA",,retail,445120,,,,,34.0541108,-117.1750974,,,n_1385337832,shop=convenience
"Colton, CA",,retail,445110,Albertsons,"450 East Cypress Avenue, Redlands, CA, 92373",+1 909-792-1114,https://local.albertsons.com/ca/redlands/450-e-cypress-ave.html,34.0484855,-117.1713725,,,n_1392829737,"shop=supermarket, brand=Albertsons"
"Colton, CA",,retail,446110,Rite Aid,,,,34.0473232,-117.1701736,,,n_1392829753,"shop=chemist, brand=Rite Aid"
"Colton, CA",,retail,445120,7-Eleven,"16970 Van Buren Boulevard, Riverside, CA, 92504",,,33.8825792,-117.3664149,,,n_1407504588,"shop=convenience, amenity=fuel, brand=7-Eleven"
"Colton, CA",,retail,445120,Rosa's Market - Deli,,,,34.1428984,-117.4012769,,,n_1475531211,shop=convenience
"Colton, CA",,retail,445120,Speedway,,,https://www.speedway.com/locations/CA/Riverside/4930-VAN-BUREN-BLVD,33.9346436,-117.454535,,,n_1488265978,"shop=convenience, brand=Speedway"
"Colton, CA",,retail,445120,7-Eleven,"8201 Arlington Avenue, Riverside, CA, 92503-0430",+1 951-977-9567,https://www.7-eleven.com/locations/ca/riverside/8201-arlington-ave-a-b-27437,33.9466601,-117.460717,,,n_1489068975,"shop=convenience, brand=7-Eleven"
"Colton, CA",,retail,445120,7-Eleven,,,https://www.7-eleven.com/locations/ca/riverside/7410-wells-ave-13984,33.9339907,-117.4548578,,,n_1489068994,"shop=convenience, brand=7-Eleven"
"Colton, CA",,retail,445120,7-Eleven,"9580 Magnolia Avenue, Riverside, CA, 92503-3608",+1 951-689-4472,https://www.7-eleven.com/locations/ca/riverside/9580-magnolia-ave-15515,33.919212,-117.4477629,,,n_1489069004,"shop=convenience, brand=7-Eleven"
"Colton, CA",,retail,445120,7-Eleven,"5102 La Sierra Avenue, Riverside, CA, 92505-2527",+1 951-687-4404,https://www.7-eleven.com/locations/ca/riverside/5102-la-sierra-ave-13968,33.9233058,-117.491661,,,n_1489216626,"shop=convenience, brand=7-Eleven"
"Colton, CA",,retail,445120,The Quarter Market,,,,34.0953863,-117.7197339,,,n_1634477787,shop=convenience
"Colton, CA",,retail,452210,Sears,,,,33.9377955,-117.2697392,,,n_1658487411,"shop=department_store, brand=Sears"
"Colton, CA",,retail,452210,JCPenney,,,,33.9380358,-117.2722497,,,n_1658487903,"shop=department_store, brand=JCPenney"
"Colton, CA",,retail,452210,Macy's,,,https://www.macys.com/stores/ca/morenovalley/moreno-valley-mall_540.html,33.9389615,-117.2734621,,,n_1658488021,"shop=department_store, brand=Macy's"
"Colton, CA",,retail,445120,Sav-A-Minit,,,,33.9882887,-117.3723487,,,n_2416628450,shop=convenience
"Colton, CA",,retail,445110,Trader Joe's,"552 Orange Street, Redlands, CA, 92374",+1 909-798-3888,https://locations.traderjoes.com/ca/redlands/99/,34.0604619,-117.1812162,,,n_2556102710,"shop=supermarket, brand=Trader Joe's"
"Colton, CA",,retail,445120,ampm,,,,34.063382,-117.22577,,,n_2561991030,"shop=convenience, brand=ampm"
"Colton, CA",,retail,445120,FoodMart,,,,34.0654319,-117.22662,,,n_2561991039,shop=convenience
"Colton, CA",,retail,446120,Spa Nail Fashion,,,,34.0650672,-117.225806,,,n_2561991059,shop=beauty
"Colton, CA",,retail,445110,Jensen's,,,,34.2473097,-117.2087379,,,n_2580087339,shop=supermarket
"Colton, CA",,retail,446120,Our Place,,,,34.0600057,-117.1799936,,,n_2602885430,shop=beauty
"Colton, CA",,retail,445110,Ralphs,"3075 South Archibald Avenue Building C, Ontario, CA, 91761",+1 909-947-1884,https://www.ralphs.com/stores/grocery/ca/ontario/archibald-ranch-town-center/703/00752,34.0178788,-117.59212,,,n_2643164829,"shop=supermarket, brand=Ralphs"
"Colton, CA",,retail,445120,EZ Mart,,,,34.0057233,-117.4253749,,,n_2698887828,shop=convenience
"Colton, CA",,retail,445120,7-Eleven Store No. 23818,"24156 Lake Drive, Crestline, 92325",(909) 338-5224,https://www.7-eleven.com/,34.243914,-117.2765884,,,n_2789455453,shop=convenience
"Colton, CA",,retail,445310,B & L Liquors,"23851 Lake Drive, Crestline, 92325",(909) 338-2511,,34.2429712,-117.2829248,,,n_2789484255,shop=alcohol
"Colton, CA",,retail,445120,Fawnskin Market,"39187 North Shore Drive, Fawnskin, 92333",,,34.2691878,-116.9469479,,,n_2847597677,shop=convenience
"Colton, CA",,retail,446110,CVS Pharmacy,"1101 Hidden Valley Parkway, Norco, CA, 92860",,https://www.cvs.com/store-locator/norco-ca-pharmacies/1101-hidden-valley-parkway-norco-ca-92860/storeid=9718,33.8988936,-117.5439322,,,n_2984081692,"shop=chemist, brand=CVS Pharmacy"
"Colton, CA",,retail,445110,Stater Bros.,"2790 Hamner Avenue, Norco, CA, 92860",+1 951-734-1838,https://www.staterbros.com/stores/44,33.922669,-117.5602937,,,n_2984090085,"shop=supermarket, brand=Stater Bros."
"Colton, CA",,retail,445110,Loma Linda Market Juice Bar,,,,34.0508525,-117.2595942,,,n_3052318786,shop=supermarket
"Colton, CA",,retail,445120,ampm,"15451 Fairfield Ranch Road, Chino Hills, 91709",,,33.9720282,-117.689388,,,n_3052536070,"shop=convenience, brand=ampm"
"Colton, CA",,retail,445110,99 Ranch Market,,,,34.0096175,-117.7406913,,,n_3052695500,"shop=supermarket, brand=99 Ranch Market"
"Colton, CA",,retail,445110,Albertsons,"3255 Grand Avenue, Chino Hills, CA, 91709",+1 909-590-3660,https://local.albertsons.com/ca/chino-hills/3255-grand-ave.html,34.0010634,-117.734328,,,n_3052709216,"shop=supermarket, brand=Albertsons"
"Colton, CA",,retail,445110,Sprouts Farmers Market,"3630 Grand Avenue, Chino Hills, CA, 91709",+1 909-548-0440,https://www.sprouts.com/store/ca/chino-hills/grand-ave/,34.0030531,-117.727472,,,n_3052718411,"shop=supermarket, brand=Sprouts Farmers Market"
"Colton, CA",,retail,446110,Rite Aid,"15331 Baseline Avenue, Fontana, CA, 92336",(909) 574-2831,https://www.riteaid.com/locations/ca/fontana/15331-baseline-avenue.html,34.1208161,-117.4703,,,n_3360124567,"shop=chemist, brand=Rite Aid"
"Colton, CA",,retail,446110,CVS Pharmacy,,,https://www.cvs.com/store-locator/redlands-ca-pharmacies/1795-e-lugonia-ave-redlands-ca-92374/storeid=10310,34.0705902,-117.139346,,,n_3425692364,"shop=chemist, brand=CVS Pharmacy"
"Colton, CA",,retail,445110,Stater Bros.,"1775 East Lugonia Avenue, Redlands, CA, 92374",+1 909-794-0105,https://www.staterbros.com/stores/191,34.0715538,-117.1401034,,,n_3425722427,"shop=supermarket, brand=Stater Bros."
"Colton, CA",,retail,445110,Walmart Neighborhood Market,,,,34.1343361,-117.241934,,,n_3458864932,"shop=supermarket, brand=Walmart"
"Colton, CA",,retail,445120,ampm,,,,34.0557782,-117.1754367,,,n_3458890991,"shop=convenience, brand=ampm"
"Colton, CA",,retail,452210,Walmart,"2050 West Redlands Boulevard, Redlands, CA, 92373",+1 909-798-9114,https://www.walmart.com/store/1693-redlands-ca,34.0650396,-117.222756,,,n_3490004433,"shop=department_store, brand=Walmart, operator=Walmart"
"Colton, CA",,retail,445110,Stater Bros.,"2243 Eagle Glen Parkway, Corona, CA, 92883",+1 951-372-2692,https://www.staterbros.com/stores/170,33.8229165,-117.5229986,,,n_3499335010,"shop=supermarket, brand=Stater Bros."
"Colton, CA",,retail,445120,Jensen's,"31987 Hilltop Blvd, Running Springs, CA, 92382",909-867-2228,,34.2042129,-117.105387,,,n_3683209505,shop=convenience
"Colton, CA",,retail,452319,99 Cents Only Stores,,,https://locations.99only.com/ca/riverside/discount-store-285.html,33.9747685,-117.4776779,,,n_3688664122,"shop=variety_store, brand=99 Cents Only Stores"
"Colton, CA",,retail,445120,G Food Mart,,,,33.9758807,-117.477415,,,n_3688664126,shop=convenience
"Colton, CA",,retail,446120,Sam I am Beauty Supply & Salon,"17914 Foothill Boulevard, Fontana, CA, 92335",,,34.1068911,-117.413614,,,n_3714105710,"shop=beauty, operator=Samuel Konadu"
"Colton, CA",,retail,445120,7-Eleven,"3740 Iowa Avenue, Riverside, CA, 92507",+1 951-680-9678,https://www.7-eleven.com/locations/ca/riverside/3740-iowa-ave-34218,33.9773522,-117.339499,,,n_3723880213,"shop=convenience, brand=7-Eleven"
"Colton, CA",,retail,445120,,,,,34.0341687,-117.5749339,,,n_3776221787,shop=convenience
"Colton, CA",,retail,445120,7-Eleven,"33561 Yucaipa Boulevard, Yucaipa, CA, 92399",+1 909-797-5837,https://www.7-eleven.com/locations/ca/yucaipa/33561-yucaipa-blvd-35977,34.0335493,-117.0719716,,,n_3946673058,"shop=convenience, brand=7-Eleven"
"Colton, CA",,retail,446120,Divaa Beauty & Threading Studio,"9622 Base Line Road, Rancho cucamonga, CA, 91730",,,34.1223831,-117.595243,,,n_3972510645,shop=beauty
"Colton, CA",,retail,445110,Clark's Nutrition and Natural Foods Markets,"11235 Mountain View Avenue, Loma Linda, CA, 92354",,www.clarksnutrition.com/,34.0500768,-117.2422101,,,n_4055232258,shop=supermarket
"Colton, CA",,retail,452210,JCPenney,,,,34.0709368,-117.21162,,,n_4103891848,"shop=department_store, brand=JCPenney"
"Colton, CA",,retail,445110,Greenspot Market,,,,34.0712263,-117.0993453,,,n_4182185490,shop=supermarket
"Colton, CA",,retail,453110,The Stem,,,,34.0475374,-117.2082191,,,n_4209010394,shop=florist
"Colton, CA",,retail,445120,Cigar Pipe,"1566 Barton Road, Redlands, CA, 92373",,,34.0487316,-117.2081926,,,n_4209045490,shop=convenience
"Colton, CA",,retail,446120,8158 Human Hair Company,"4320 Mills Circle, Ontario, CA, 91764",+1 909 9803838,http://8158humanhaircompany.com,34.0731354,-117.5523684,,,n_4324696868,shop=beauty
"Colton, CA",,retail,445120,Shannon's Health Foods,"Moreno Valley, CA, 92553",,,33.9376659,-117.249312,,,n_4419238018,shop=convenience
"Colton, CA",,retail,445292,Sinfully Sweet Apple Company,"181 North 2nd Avenue, Upland, CA, 91786",+1-909-596-9327,https://sinfullysweetgourmettreats.com/,34.0957397,-117.6486726,,,n_4530064278,shop=confectionery
"Colton, CA",,retail,446120,Choice Beauty Supply,"25590 Barton Road, Loma Linda, 92354",909-796-8722,http://BeautySupplyinLoma LindaCA92354.htm,34.0494241,-117.245855,,,n_4574601600,shop=beauty
"Colton, CA",,retail,446120,Mes Ami Nail and Beauty Spa,,,,33.9764112,-117.5740874,,,n_4748438127,shop=beauty
"Colton, CA",,retail,445110,Smart & Final Extra!,,,,33.9766395,-117.5743409,,,n_4748438128,"shop=supermarket, brand=Smart & Final"
"Colton, CA",,retail,445120,,,,,34.0639428,-117.6115145,,,n_4752689991,shop=convenience
"Colton, CA",,retail,445120,Circle K,,,,34.0631422,-117.611308,,,n_4752689994,"shop=convenience, brand=Circle K"
"Colton, CA",,retail,452319,Dollar Tree,,,https://www.dollartree.com/locations/ca/ontario/4506/,34.0208376,-117.6498807,,,n_4759048130,"shop=variety_store, brand=Dollar Tree"
"Colton, CA",,retail,445110,Albertsons,"7070 Archibald Avenue, Corona, CA, 92880",+1 951-279-0333,https://local.albertsons.com/ca/corona/7070-archibald-ave.html,33.9594979,-117.591573,,,n_4760494769,"shop=supermarket, brand=Albertsons"
"Colton, CA",,retail,446120,Revol Nail & Salon,,,,33.959611,-117.5909321,,,n_4762210992,shop=beauty
"Colton, CA",,retail,453991,Master Smokes,,,,33.9593706,-117.5924954,,,n_4762211002,shop=tobacco
"Colton, CA",,retail,446120,Henry's Nails,,,,33.8833838,-117.3638283,,,n_4805051943,shop=beauty
"Colton, CA",,retail,452210,Ross,"12791 Main Street, Hesperia, CA, 92344",+1 760-948-0170,https://www.rossstores.com/,34.4237325,-117.384286,,,n_4949969721,"shop=department_store, brand=Ross"
"Colton, CA",,retail,452210,Marshalls,,,,34.4231646,-117.3846189,,,n_4949969722,"shop=department_store, brand=Marshalls"
"Colton, CA",,retail,445310,MacGuerder's Liquor,,,,33.9086223,-117.5811284,,,n_5232912157,shop=alcohol
"Colton, CA",,retail,445230,Sanchez Market,,,,34.0049273,-117.4247988,,,n_5255595512,shop=greengrocer
"Colton, CA",,retail,445110,Walmart Neighborhood Market,"25755 Barton Road, Loma Linda, CA, 92354",+1 909-283-7239,https://www.walmart.com/store/2998-loma-linda-ca,34.047122,-117.242268,,,n_5315598951,"shop=supermarket, brand=Walmart, operator=Walmart"
"Colton, CA",,retail,445110,Walmart Neighborhood Market,"1560 West Sixth Street, Corona, CA, 92882",+1 951-393-6405,https://www.walmart.com/store/2487-corona-ca,33.87734,-117.596143,,,n_5315599506,"shop=supermarket, brand=Walmart, operator=Walmart"
"Colton, CA",,retail,445110,Stater Bros.,"3633 Highland Avenue, Highland, CA, 92346",+1 909-864-0122,https://www.staterbros.com/stores/58,34.1343034,-117.2077413,,,n_5355805499,"shop=supermarket, brand=Stater Bros."
"Colton, CA",,retail,445110,Food 4 Less,"26529 Highland Avenue, Highland, 92346",,,34.1343346,-117.225236,,,n_5355835998,"shop=supermarket, brand=Food 4 Less"
"Colton, CA",,retail,452210,Big Lots,"26545 Highland Avenue, Highland, 92346",,,34.1344273,-117.224498,,,n_5355844208,"shop=department_store, brand=Big Lots"
"Colton, CA",,retail,446120,,,,,33.9067795,-117.6057519,,,n_5574879121,shop=beauty
"Colton, CA",,retail,445299,Cheese Cave,,,,34.0970839,-117.7180842,,,n_5703393544,shop=cheese
"Colton, CA",,retail,452319,Dollar Tree,"26150 Iris Avenue, Moreno Valley, CA, 92551",,https://www.dollartree.com/locations/ca/moreno-valley/5061/,33.8927168,-117.2062408,,,n_5721460452,"shop=variety_store, brand=Dollar Tree"
"Colton, CA",,retail,446120,Total Nails & Spa,"707 W 2nd Street, San Bernardino, CA, 92401",(909) 888-0348,,34.1024488,-117.299217,,,n_5835005198,shop=beauty
"Colton, CA",,retail,452210,TJ Maxx,,,,34.0787653,-117.5507536,,,n_5854939297,"shop=department_store, brand=TJ Maxx"
"Colton, CA",,retail,446120,Amazing Lash Studio,,,,34.0603965,-117.188678,,,n_5864328954,"shop=beauty, brand=Amazing Lash Studio"
"Colton, CA",,retail,445120,7-Eleven,"1365 Citrus Avenue, Redlands, CA, 92374-4012",+1 909-792-9350,https://www.7-eleven.com/locations/ca/redlands/1365-citrus-ave-13958,34.0559949,-117.1571508,,,n_5877018171,"shop=convenience, brand=7-Eleven"
"Colton, CA",,retail,445310,Ramos Market,"4122 Philadelphia Street, Chino, CA, 91710",,,34.0338981,-117.715045,,,n_5909332236,shop=alcohol
"Colton, CA",,retail,445310,Royal Liquor,"4086 Philadelphia Street, Chino, CA, 91710",,,34.0336613,-117.71599,,,n_5909332237,shop=alcohol
"Colton, CA",,retail,453110,Eveyln's Flower Shop,"4122 Philadelphia Street, Chino, CA, 91710",,,34.0338981,-117.714901,,,n_5909332238,shop=florist
"Colton, CA",,retail,446120,SalonCentric,,,,33.9445898,-117.4165984,,,n_6057611684,shop=cosmetics
"Colton, CA",,retail,445110,Stater Bros.,"11 East Colton Avenue, Redlands, CA, 92374",+1 909-792-3900,https://www.staterbros.com/stores/18,34.0637658,-117.1818978,,,n_6125240164,"shop=supermarket, brand=Stater Bros."
"Colton, CA",,retail,446120,Cellinies Nail & SPA,,,,33.9165323,-117.2712709,,,n_6311987057,shop=beauty
"Colton, CA",,retail,453110,Flower Box,,,,33.9127414,-117.2695897,,,n_6335583923,shop=florist
"Colton, CA",,retail,445110,Smart & Final Extra!,,,,33.9444788,-117.415976,,,n_6351752234,"shop=supermarket, brand=Smart & Final"
"Colton, CA",,retail,446120,L V Nails,,,,33.9450491,-117.4151941,,,n_6351890973,shop=beauty
"Colton, CA",,retail,445110,Alta Vista,,,,33.9445874,-117.4150902,,,n_6381060424,shop=supermarket
"Colton, CA",,retail,445310,Madison Market Liquor,,,,33.9453835,-117.414389,,,n_6383242926,shop=alcohol
"Colton, CA",,retail,445110,Naturalia,,,,34.3862722,-117.383329,,,n_6422126581,"shop=supermarket, brand=Naturalia"
"Colton, CA",,retail,445292,See's Candies,,,,34.1334563,-117.3945428,,,n_6520281463,"shop=confectionery, brand=See's Candies"
"Colton, CA",,retail,445310,,,,,34.0718134,-117.5930298,,,n_6522079700,shop=alcohol
"Colton, CA",,retail,445110,Trader Joe's,"6225 Riverside Avenue, Riverside, CA, 92506",+1 951-781-2378,https://locations.traderjoes.com/ca/riverside/15/,33.9559471,-117.388437,,,n_6527437345,"shop=supermarket, brand=Trader Joe's"
"Colton, CA",,retail,445120,ampm,,,,33.8981702,-117.471167,,,n_6527644984,"shop=convenience, brand=ampm"
"Colton, CA",,retail,445120,ampm,,,,33.9259403,-117.451731,,,n_6527673995,"shop=convenience, brand=ampm"
"Colton, CA",,retail,453991,,,,,34.1079474,-117.5349945,,,n_6533290741,shop=tobacco
"Colton, CA",,retail,446120,,,,,34.1079556,-117.5349013,,,n_6533290742,shop=beauty
"Colton, CA",,retail,445292,See's Candies,,,,34.1114826,-117.5355257,,,n_6533290752,"shop=confectionery, brand=See's Candies"
"Colton, CA",,retail,445120,ampm,,,,34.0780377,-117.6202617,,,n_6533312289,"shop=convenience, brand=ampm"
"Colton, CA",,retail,453991,Smoke shop,,,,33.9445914,-117.416541,,,n_6572004413,shop=tobacco
"Colton, CA",,retail,445120,Allsup's,,,,34.0007394,-117.364674,,,n_6632754635,"shop=convenience, brand=Allsup's"
"Colton, CA",,retail,445110,Ralphs,"7369 Milliken Avenue, Rancho Cucamonga, CA, 91730",+1 909-944-4827,https://www.ralphs.com/stores/details/703/00013,34.1199104,-117.5570447,,,n_6641488598,"shop=supermarket, brand=Ralphs"
"Colton, CA",,retail,445120,Campbell's Market,,,,33.9355089,-117.4866723,,,n_6642367383,shop=convenience
"Colton, CA",,retail,452319,Dollar Tree,,,https://www.dollartree.com/locations/ca/riverside/6583/,33.939538,-117.4551268,,,n_6642384729,"shop=variety_store, brand=Dollar Tree"
"Colton, CA",,retail,445120,Lucky 1,,,,33.9365292,-117.4795617,,,n_6642391291,shop=convenience
"Colton, CA",,retail,445310,La Sierra Liquor,,,,33.9190648,-117.486495,,,n_6642394394,shop=alcohol
"Colton, CA",,retail,445120,ampm,,,,33.9196677,-117.488524,,,n_6642395398,"shop=convenience, brand=ampm"
"Colton, CA",,retail,445310,Village Liquor,,,,33.9464692,-117.4811924,,,n_6642403304,shop=alcohol
"Colton, CA",,retail,446120,Bath & Body Works,,,,34.0006684,-117.729736,,,n_6852940903,"shop=cosmetics, brand=Bath & Body Works"
"Colton, CA",,retail,445120,Shell,,,,33.9157116,-117.323977,,,n_6894591824,"shop=convenience, brand=Shell"
"Colton, CA",,retail,446120,Mes Amies Nail & Spa,,,,34.0034769,-117.6532338,,,n_6901027321,shop=beauty
"Colton, CA",,retail,445120,Mobil Mart,,,,34.0315401,-117.6502532,,,n_6901149905,"shop=convenience, brand=Mobil Mart"
"Colton, CA",,retail,445310,Wine Barrel Liquor Store,,,,34.0335826,-117.6502783,,,n_6901149945,shop=alcohol
"Colton, CA",,retail,446120,Fun Nails,,,,34.0335305,-117.6520109,,,n_6901149949,shop=beauty
"Colton, CA",,retail,446120,Soft Touch Beauty Salon,,,,34.0335305,-117.6518845,,,n_6901149951,shop=beauty
"Colton, CA",,retail,446120,Patty's Beauty Salon,,,,34.0334544,-117.6525468,,,n_6901149955,shop=beauty
"Colton, CA",,retail,446110,CVS Pharmacy,,,,34.0331912,-117.6524279,,,n_6901149959,"shop=chemist, brand=CVS Pharmacy"
"Colton, CA",,retail,445120,7-Eleven,"2443 South Grove Avenue, Ontario, CA, 91761-6225",+1 909-947-6040,https://www.7-eleven.com/locations/ca/ontario/2443-s-grove-ave-22225,34.0287287,-117.6279782,,,n_6901252477,"shop=convenience, brand=7-Eleven"
"Colton, CA",,retail,446120,Ulta Beauty,"3502 Tyler Street, Riverside, CA, 92503",+1 951-689-0235,https://www.ulta.com/stores/riverside-ca-1153,33.9067466,-117.4576881,,,n_6920795979,"shop=beauty, brand=Ulta Beauty"
"Colton, CA",,retail,452210,Ross,"5501 Philadelphia Street, Chino, CA, 91710",+1 909-364-1722,,34.0329405,-117.6841225,,,n_6940047937,"shop=department_store, brand=Ross"
"Colton, CA",,retail,445120,Chevron,,,,34.0332216,-117.6899295,,,n_6940297079,"shop=convenience, brand=Chevron"
"Colton, CA",,retail,445110,Smart & Final,,,,34.0324801,-117.6908832,,,n_6940301252,"shop=supermarket, brand=Smart & Final"
"Colton, CA",,retail,453991,,,,,34.0320052,-117.6906778,,,n_6940301256,shop=tobacco
"Colton, CA",,retail,445120,,,,,34.0288913,-117.6890056,,,n_6940301387,"shop=convenience, operator=Arco"
"Colton, CA",,retail,445110,Superior Groceries,,,,34.028292,-117.6878864,,,n_6940301404,shop=supermarket
"Colton, CA",,retail,445120,Shell,,,,34.0259869,-117.68982,,,n_6940301732,"shop=convenience, brand=Shell"
"Colton, CA",,retail,446120,ilo Collective,,,,34.0943729,-117.7212389,,,n_7020769173,shop=beauty
"Colton, CA",,retail,445120,90 Store,,,,33.915379,-117.4574293,,,n_7021856792,shop=convenience
"Colton, CA",,retail,452319,Dollar Tree,,,https://www.dollartree.com/locations/ca/montclair/5693/,34.0642411,-117.7075008,,,n_7064863021,"shop=variety_store, brand=Dollar Tree"
"Colton, CA",,retail,446120,Joy Nails & Spa,"7379 Milliken Avenue, Rancho Cucamonga, CA, 91730",+1-909-945-3595,https://joy-nails-spa.business.site/,34.1196676,-117.5575789,,,n_7159357434,shop=beauty
"Colton, CA",,retail,446110,Rite Aid,"7339 Milliken Avenue, Rancho Cucamonga, CA, 91730",+1-909-944-3543,https://www.riteaid.com/locations/ca/rancho-cucamonga/7339-milliken-ave.html,34.1204184,-117.5563129,,,n_7159357440,"shop=chemist, brand=Rite Aid"
"Colton, CA",,retail,453991,Rancho Cucamonga Smoke Shop,"7349 Milliken Avenue, Rancho Cucamonga, CA, 91730",+1-909-466-6445,,34.1203129,-117.5565744,,,n_7159357442,shop=tobacco
"Colton, CA",,retail,446120,,"10590 Base Line Road, Rancho Cucamonga, CA, 91701",+1-909-945-1679,,34.121886,-117.5740525,,,n_7159440853,"shop=beauty, operator=Sue's Nails"
"Colton, CA",,retail,446120,Red Persimmon Nails & Spa,"7211 Haven Avenue, Rancho Cucamonga, CA, 91701",+1-909-466-7675,,34.1234347,-117.5739265,,,n_7159440862,shop=beauty
"Colton, CA",,retail,445120,7-Eleven,"7900 Haven Avenue, Rancho Cucamonga, CA, 91730",+1-909-948-1400,https://www.7-eleven.com/locations/ca/rancho-cucamonga/7900-haven-ave-39590,34.110262,-117.5764955,,,n_7168500065,"shop=convenience, brand=7-Eleven"
"Colton, CA",,retail,446120,Bella Vous,"7890 Haven Avenue, Rancho Cucamonga, CA, 91730",+1-909-941-9885,https://www.bellavouspa.com/rancho-cucamonga,34.1103597,-117.5771876,,,n_7168500069,shop=beauty
"Colton, CA",,retail,446120,Sakura Foot Spa,"7890 Haven Avenue, Rancho Cucamonga, CA, 91730",,,34.1109271,-117.5768348,,,n_7170868967,shop=beauty
"Colton, CA",,retail,445120,Circle K,"10550 Town Center Drive, Rancho Cucamonga, CA, 91730",,https://www.circlek.com/store-locator/US/rancho-cucamonga/10550-town-center-dr/2709480,34.1109604,-117.5754093,,,n_7170868988,"shop=convenience, brand=Circle K"
"Colton, CA",,retail,446110,CVS Pharmacy,"7911 Haven Avenue, Rancho Cucamonga, CA, 91730",+1-909-581-1966,https://www.cvs.com/store-locator/cvs-pharmacy-address/7911+Haven+Avenue-Rancho+Cucamonga-CA-91730/storeid=9724,34.1100032,-117.575192,,,n_7170868990,"shop=chemist, brand=CVS Pharmacy"
"Colton, CA",,retail,453110,1-800-Flowers - Conroy's,"7957 Haven Avenue, Rancho Cucamonga, CA, 91730",+1-909-980-6614,https://www.conroyflowersranchocucamonga.com/,34.1093614,-117.5752175,,,n_7170869005,shop=florist
"Colton, CA",,retail,445110,Mother's Nutritional Center,,,,34.1197828,-117.3140732,,,n_7341735632,shop=supermarket
"Colton, CA",,retail,445110,El Super,,,,34.1227,-117.3215781,,,n_7341735650,shop=supermarket
"Colton, CA",,retail,446110,CVS Pharmacy,,,https://www.cvs.com/store-locator/san-bernardino-ca-pharmacies/1564-w-base-line-st-san-bernardino-ca-92411/storeid=9664,34.1226853,-117.3208757,,,n_7341735651,"shop=chemist, brand=CVS Pharmacy"
"Colton, CA",,retail,446120,Rosy Nails,,,,34.1226186,-117.3222119,,,n_7341735655,shop=beauty
"Colton, CA",,retail,446120,Stylish Eyebrows,,,,34.121656,-117.3212901,,,n_7341735663,shop=beauty
"Colton, CA",,retail,445110,Jimmy's Food Store,,,,34.1217115,-117.3235343,,,n_7341735665,shop=supermarket
"Colton, CA",,retail,445110,Aldi,"27641 San Bernardino Avenue, Redlands, CA, 92374-5045",+1 833-479-7040,https://stores.aldi.us/ca/redlands/27641-san-bernardino-ave,34.0759387,-117.2025701,,,n_7391083062,"shop=supermarket, brand=Aldi"
"Colton, CA",,retail,452319,Dollar Tree,"1366 Industrial Park Avenue, Redlands, CA, 92374-2897",+1 909-801-3010,https://www.dollartree.com/locations/ca/redlands/1773/,34.0646463,-117.2025318,,,n_7391083969,"shop=variety_store, brand=Dollar Tree"
"Colton, CA",,retail,445292,Village Candy Kitchen,"233 East State Street, Redlands, CA, 92373",,https://www.facebook.com/villagecandykitchen/,34.0565591,-117.179463,,,n_7403606993,shop=confectionery
"Colton, CA",,retail,445110,Stater Bros.,"2430 River Road, Norco, CA, 92860",+1 951-893-9251,https://www.staterbros.com/stores/199,33.9150104,-117.590543,,,n_7447551558,"shop=supermarket, brand=Stater Bros., operator=Stater Bros"
"Colton, CA",,retail,452319,Family Dollar,,,,33.9242141,-117.4409487,,,n_7624412970,"shop=variety_store, brand=Family Dollar"
"Colton, CA",,retail,445310,Pasha Liquor,,,,33.914029,-117.4566899,,,n_7624438102,shop=alcohol
"Colton, CA",,retail,445110,Jensen's Minute Shoppe,,,,34.2543017,-117.1731436,,,n_7737339887,shop=supermarket
"Colton, CA",,retail,445110,Stater Bros.,"28100 California 189, Lake Arrowhead, CA, 92352",+1 909-337-5854,https://www.staterbros.com/stores/92,34.2505706,-117.190455,,,n_7737522586,"shop=supermarket, brand=Stater Bros."
"Colton, CA",,retail,445120,7-Eleven,"2563 South Euclid Avenue, Ontario, CA, 91762-6620",+1 909-983-8184,https://www.7-eleven.com/locations/ca/ontario/2563-s-euclid-ave-21402,34.0267693,-117.6498279,,,n_7778260792,"shop=convenience, brand=7-Eleven"
"Colton, CA",,retail,453991,Tobacco Crush,,,,33.9132106,-117.4629607,,,n_7785630729,shop=tobacco
"Colton, CA",,retail,445310,Pic n Go Market,,,,33.9230167,-117.4424796,,,n_7788538610,shop=alcohol
"Colton, CA",,retail,445310,Palm Liquor,,,,33.9227942,-117.4417527,,,n_7788538611,shop=alcohol
"Colton, CA",,retail,453991,Smt Smoke Shop,,,,33.9151258,-117.456765,,,n_7788693507,shop=tobacco
"Colton, CA",,retail,453991,Tobacco Zone,,,,33.9152416,-117.4656569,,,n_7788729903,shop=tobacco
"Colton, CA",,retail,445310,Sami's 7 Market,,,,33.9466756,-117.4625491,,,n_7795477588,shop=alcohol
"Colton, CA",,retail,445310,Stop & Shop,,,,33.9394289,-117.4681677,,,n_7795477591,shop=alcohol
"Colton, CA",,retail,453110,Flower & Gift,,,,33.9462943,-117.4566553,,,n_7795491880,shop=florist
"Colton, CA",,retail,445110,La Esperanza Ranch Market,"1208 West 5th Street, San Bernardino, CA, 92411",,,34.1087446,-117.3119375,,,n_7819449759,shop=supermarket
"Colton, CA",,retail,445120,King's Market,,,,33.9060491,-117.4542665,,,n_7926475509,shop=convenience
"Colton, CA",,retail,446120,Passion Hair,,,,33.8650911,-117.546958,,,n_7941258644,shop=beauty
"Colton, CA",,retail,445120,Shell,,,,34.003048,-117.732416,,,n_7967926696,"shop=convenience, brand=Shell"
"Colton, CA",,retail,446120,Q Nail & Spa,,,www.Q-NailsSpa.com,34.0028421,-117.7306836,,,n_7972530288,shop=beauty
"Colton, CA",,retail,445120,ExtraMile,,,,34.0028577,-117.728383,,,n_7975264822,"shop=convenience, brand=ExtraMile"
"Colton, CA",,retail,445292,See's Candies,,,,34.0028514,-117.7277298,,,n_7975264829,"shop=confectionery, brand=See's Candies"
"Colton, CA",,retail,446120,Planet Beauty,,,,34.0006651,-117.7293505,,,n_7977629040,shop=cosmetics
"Colton, CA",,retail,446120,European Wax Center,,909-590-4848,https://locations.waxcenter.com/ca/chinohills/chino-hills-0271.html,34.0006718,-117.7296438,,,n_7977629041,"shop=beauty, brand=European Wax Center"
"Colton, CA",,retail,446120,Nirvana Threading Salon,,909-364-1200,,34.0010046,-117.7290712,,,n_7977629045,shop=beauty
"Colton, CA",,retail,446120,Tryst Med Aesthetics & Laser Center,,909-465-9280,,34.0004731,-117.7291792,,,n_7977629049,shop=beauty
"Colton, CA",,retail,452319,99 Cents Only Stores,,,https://locations.99only.com/ca/riverside/discount-store-431.html,33.9020788,-117.4770856,,,n_7983448756,"shop=variety_store, brand=99 Cents Only Stores"
"Colton, CA",,retail,445120,7-Eleven,,,https://www.7-eleven.com/locations/ca/hesperia/14519-main-st-ste-a-27678,34.4264423,-117.345993,,,n_8157221942,"shop=convenience, brand=7-Eleven"
"Colton, CA",,retail,445120,ampm,,,,34.0488091,-117.2254723,,,n_8223722221,"shop=convenience, brand=ampm"
"Colton, CA",,retail,446120,Golden Nails,,,,34.105834,-117.6722455,,,n_8252652758,shop=beauty
"Colton, CA",,retail,446120,Bella Beauty Supply,,,,34.1057242,-117.6722451,,,n_8252652762,shop=beauty
"Colton, CA",,retail,445110,Cardenas,,,,34.0395808,-117.652523,,,n_8263122221,"shop=supermarket, brand=Cardenas"
"Colton, CA",,retail,445310,la caridad market,,,,34.0487656,-117.7157572,,,n_8281202566,shop=alcohol
"Colton, CA",,retail,445110,WinCo Foods,,,,33.9340344,-117.2749736,,,n_8429404362,"shop=supermarket, brand=WinCo Foods"
"Colton, CA",,retail,446120,Beauty Creation by Sylvia,,,,33.9151361,-117.4807656,,,n_8497674024,shop=beauty
"Colton, CA",,retail,446120,Lovely Nails & Spa,,,,34.1065979,-117.6555478,,,n_8508191695,shop=beauty
"Colton, CA",,retail,446120,Aayna Threading,,,,34.1081198,-117.6533316,,,n_8508191713,shop=beauty
"Colton, CA",,retail,446120,Theory Nail Lounge,,,,34.108109,-117.6539045,,,n_8508199422,shop=beauty
"Colton, CA",,retail,446120,Couture Salon Studios,,,,34.1081129,-117.6541851,,,n_8508199423,shop=beauty
"Colton, CA",,retail,446120,Fabulous Nails & Spa,,909-360-8333,,34.1074946,-117.6501872,,,n_8508245321,shop=beauty
"Colton, CA",,retail,445120,7-Eleven,"17710 Foothill Boulevard, Fontana, CA, 92335",+1 909-823-3321,https://www.7-eleven.com/locations/ca/fontana/17710-foothill-blvd-18975,34.1071758,-117.418062,,,n_8540531746,"shop=convenience, brand=7-Eleven"
"Colton, CA",,retail,446120,Red Persimmon Nails & Spa,,,,34.1335566,-117.6383476,,,n_8576368849,shop=beauty
"Colton, CA",,retail,445120,Speedway,"6970 Van Buren Boulevard, Riverside, CA, 92509",,https://www.speedway.com/locations/CA/Riverside/6970-Van-Buren-Blvd,33.9580813,-117.4620102,,,n_8639265344,"shop=convenience, brand=Speedway"
"Colton, CA",,retail,453991,Glass Roots Smoke Shop,,,,33.9136336,-117.4596962,,,n_8660639121,shop=tobacco
"Colton, CA",,retail,453991,Smoke and Vape,,,,33.9232133,-117.4424442,,,n_8660639128,shop=tobacco
"Colton, CA",,retail,445110,Aldi,"13360 Main Street, Hesperia, CA, 92345-9137",+1 714-888-4323,https://stores.aldi.us/ca/hesperia/13360-main-st,34.4278039,-117.371932,,,n_8665021116,"shop=supermarket, brand=Aldi"
"Colton, CA",,retail,445110,ALDI,"11070 Foothill Boulevard, Rancho Cucamonga, CA, 91730-3821",+1 909-372-0072,https://stores.aldi.us/ca/rancho-cucamonga/11070-foothill-blvd,34.1079371,-117.5638668,,,n_8665273305,"shop=supermarket, brand=ALDI"
"Colton, CA",,retail,445110,Aldi,"705 North Main Street, Corona, CA, 92880",+1 951-327-5907,https://stores.aldi.us/ca/corona/705-n-main-st,33.8902294,-117.5632998,,,n_8665304988,"shop=supermarket, brand=Aldi"
"Colton, CA",,retail,445120,Circle K,,,,34.1062,-117.453247,,,n_8678959036,"shop=convenience, brand=Circle K"
"Colton, CA",,retail,445120,7-Eleven,"16701 Arrow Boulevard, Fontana, CA, 92335",+1 909-428-7913,https://www.7-eleven.com/locations/ca/fontana/16701-arrow-blvd-36032,34.0988658,-117.4396699,,,n_8682332357,"shop=convenience, brand=7-Eleven"
"Colton, CA",,retail,445120,7-Eleven,"1698 West 6th Street, Corona, CA, 92882",+1 951-735-1763,https://www.7-eleven.com/locations/ca/corona/1698-w-6th-st-26604,33.8783786,-117.5982854,,,n_8787927816,"shop=convenience, brand=7-Eleven"
"Colton, CA",,retail,446120,Cal Nails,"16960 Foothill Boulevard, Fontana, CA, 92335",,,34.1079529,-117.4340298,,,n_8796763199,shop=beauty
"Colton, CA",,retail,446120,Kim Beauty Supply,"16960 Foothill Boulevard, Fontana, CA, 92335",,,34.1079416,-117.4338989,,,n_8796763200,shop=beauty
"Colton, CA",,retail,445110,Mother's Nutritional Center,,,,34.076822,-117.4350432,,,n_8882819034,"shop=supermarket, operator=Mother's Nutritional Center"
"Colton, CA",,retail,445310,,,,,34.1296107,-117.4319593,,,n_8971495001,shop=alcohol
"Colton, CA",,retail,445210,,,,,34.1290815,-117.4323753,,,n_8971495003,shop=butcher
"Colton, CA",,retail,445120,ExtraMile,"11285 Sierra Avenue, Fontana, CA, 92337",,,34.0486918,-117.434878,,,n_8989022303,"shop=convenience, brand=ExtraMile"
"Colton, CA",,retail,446120,ohlala nails,,,,34.0640255,-117.4323709,,,n_8989311917,shop=beauty
"Colton, CA",,retail,446120,Deluxe Nails,"12859 Foothill Boulevard, Rancho Cucamonga, CA, 91739",,,34.1050618,-117.5251086,,,n_8989613043,shop=beauty
"Colton, CA",,retail,453991,Tobacco & Water,"8256 Sierra Avenue, Fontana, CA, 92335",,,34.1038644,-117.4367813,,,n_8995148182,shop=tobacco
"Colton, CA",,retail,446120,Hello Nail & Spa,"8248 Sierra Avenue, Fontana, CA, 92335",,,34.103994,-117.436778,,,n_8995148185,shop=beauty
"Colton, CA",,retail,445120,ExtraMile,,,,34.1060489,-117.3971602,,,n_9016094016,"shop=convenience, brand=ExtraMile"
"Colton, CA",,retail,452319,99 Cents Only Stores,,,https://locations.99only.com/ca/rialto/discount-store-123.html,34.1056181,-117.3972434,,,n_9016113317,"shop=variety_store, brand=99 Cents Only Stores"
"Colton, CA",,retail,445310,,,,,34.109241,-117.4355236,,,n_9016208782,shop=alcohol
"Colton, CA",,retail,452319,Family Dollar,,,,34.0912294,-117.4346667,,,n_9016281495,"shop=variety_store, brand=Family Dollar"
"Colton, CA",,retail,446120,La Tapatia Health & Beauty,"8188 Sierra Avenue, Fontana, CA, 92335",,,34.1051941,-117.4363509,,,n_9055163981,shop=beauty
"Colton, CA",,retail,446120,Modern Nails,"1008 Cherry Valley Boulevard, Calimesa, CA, 92320",,,33.9667699,-117.0361957,,,n_9089150977,shop=beauty
"Colton, CA",,retail,452210,Macy's,"1293 East 19th Street, Upland, CA, 91784",,,34.1329339,-117.6334175,,,n_9108580935,"shop=department_store, brand=Macy's"
"Colton, CA",,retail,446120,Facelogic,,,,34.133061,-117.6314393,,,n_9108580940,shop=beauty
"Colton, CA",,retail,452319,Five Below,,+1 909-608-9221,https://locations.fivebelow.com/ca/upland/1263-e-19th-street,34.1325614,-117.6337133,,,n_9108580946,"shop=variety_store, brand=Five Below"
"Colton, CA",,retail,446120,European Wax Center,,,https://locations.waxcenter.com/ca/upland/upland-claremont-0990.html,34.1219759,-117.692752,,,n_9146898581,"shop=beauty, brand=European Wax Center"
"Colton, CA",,retail,446120,Organic Nail Spa,,,,34.12293,-117.693195,,,n_9146898589,shop=beauty
"Colton, CA",,retail,453991,Smokin' Hot,,,,34.1066112,-117.6394446,,,n_9153462065,shop=tobacco
"Colton, CA",,retail,445120,Circle K,,,,34.107496,-117.6420352,,,n_9153475513,"shop=convenience, brand=Circle K"
"Colton, CA",,retail,446120,Pro Best Nails,,,,34.1075017,-117.6422319,,,n_9153475514,shop=beauty
"Colton, CA",,retail,446120,Bee Polished Nails & Spa,,,,34.1075018,-117.6430805,,,n_9153486120,shop=cosmetics
"Colton, CA",,retail,453991,Smoker's Boutique,,,,34.1074968,-117.6435851,,,n_9153486127,shop=tobacco
"Colton, CA",,retail,453991,Smoke & Vape Max,,,,34.1076128,-117.6289026,,,n_9153499729,shop=tobacco
"Colton, CA",,retail,452319,Dollar Tree,,,https://www.dollartree.com/locations/ca/upland/5754/,34.1081547,-117.6315706,,,n_9153499743,"shop=variety_store, brand=Dollar Tree"
"Colton, CA",,retail,453991,Up In Smoke,,,,34.1058889,-117.6291985,,,n_9153537199,shop=tobacco
"Colton, CA",,retail,445110,GK Market & Liquor,,,,34.1058507,-117.6287774,,,n_9153537203,shop=supermarket
"Colton, CA",,retail,453991,Lava Hookah Lounge,,,,34.107904,-117.6653844,,,n_9166216502,shop=tobacco
"Colton, CA",,retail,446120,Mane Salon,,,,34.1079045,-117.665182,,,n_9166216505,shop=beauty
"Colton, CA",,retail,446120,Body Centre Spa,,,,34.1079063,-117.6650528,,,n_9166216507,shop=beauty
"Colton, CA",,retail,453991,Smoke & Dreams,,,,34.1078191,-117.6645958,,,n_9166216514,shop=tobacco
"Colton, CA",,retail,446120,Smart Set,,,,34.1079785,-117.6644451,,,n_9166228417,shop=beauty
"Colton, CA",,retail,446120,Ni Spa,,,,34.1079779,-117.664236,,,n_9166228420,shop=beauty
"Colton, CA",,retail,446120,Val African Hair Braiding,,,,34.1079776,-117.6640966,,,n_9166228422,shop=beauty
"Colton, CA",,retail,446120,Village Salon,,,,34.1079761,-117.66378,,,n_9166228425,shop=beauty
"Colton, CA",,retail,445230,India Bazaar,,,,34.1076602,-117.6635403,,,n_9166228431,shop=greengrocer
"Colton, CA",,retail,453991,E-Cig City,,,,34.1085248,-117.6712832,,,n_9166250265,shop=tobacco
"Colton, CA",,retail,446120,Hannah's Nails & Spa,,,,34.1085239,-117.6713396,,,n_9166250266,shop=beauty
"Colton, CA",,retail,445230,H Foodmart,,,,34.1079762,-117.6658104,,,n_9166250316,shop=greengrocer
"Colton, CA",,retail,446120,Tammy Nails,,,,34.1018501,-117.6697772,,,n_9166414211,shop=beauty
"Colton, CA",,retail,446120,,,,,34.1017991,-117.6697758,,,n_9166414212,shop=beauty
"Colton, CA",,retail,445120,Shop & Go Market,,,,34.1016469,-117.6697778,,,n_9166414215,shop=convenience
"Colton, CA",,retail,446120,,,,,34.1004893,-117.6697081,,,n_9166423724,shop=beauty
"Colton, CA",,retail,445120,A2Z,,,,34.1004354,-117.6697089,,,n_9166423725,shop=convenience
"Colton, CA",,retail,446120,The Curling Iron,,,,34.1003042,-117.6695981,,,n_9166423727,shop=beauty
"Colton, CA",,retail,453991,,,,,34.1003017,-117.669414,,,n_9166423728,shop=tobacco
"Colton, CA",,retail,453991,,"1630 West Foothill Boulevard, Upland, CA, 91786",,,34.1061239,-117.6817764,,,n_9166423878,shop=tobacco
"Colton, CA",,retail,446120,Venus Nail Lounge,"1630 West Foothill Boulevard, Upland, CA, 91786",,,34.1061234,-117.6818454,,,n_9166423879,shop=beauty
"Colton, CA",,retail,446120,New Image Salon,"1630 West Foothill Boulevard, Upland, CA, 91786",,,34.106123,-117.6819145,,,n_9166423880,shop=beauty
"Colton, CA",,retail,446120,Spoil Me Nail Spa,,,,34.1076865,-117.682552,,,n_9166423906,shop=beauty
"Colton, CA",,retail,445120,76,,,,34.1075606,-117.6814595,,,n_9166423916,"shop=convenience, brand=76"
"Colton, CA",,retail,445120,Speedway,"111 North Lincoln Avenue, Corona, CA, 92882",,https://www.speedway.com/locations/CA/Corona/111-Lincoln-Ave,33.8839699,-117.5815905,,,n_9178187559,"shop=convenience, brand=Speedway"
"Colton, CA",,retail,445120,Speedway,"3950 Tyler Street, Riverside, CA, 92503",,https://www.speedway.com/locations/CA/Riverside/3950-Tyler-St,33.9148429,-117.4643759,,,n_9178200808,"shop=convenience, brand=Speedway"
"Colton, CA",,retail,445120,Speedway,"3570 Central Avenue, Riverside, CA, 92506",,https://www.speedway.com/locations/CA/Riverside/3570-CENTRAL-AVE,33.9532117,-117.390349,,,n_9178312663,"shop=convenience, brand=Speedway"
"Colton, CA",,retail,445120,Speedway,"13539 Baseline Avenue, Fontana, CA, 92336",,https://www.speedway.com/locations/CA/Fontana/13539-Baseline-Ave,34.1207104,-117.5111292,,,n_9178417830,"shop=convenience, brand=Speedway"
"Colton, CA",,retail,445120,Speedway,"9280 Haven Avenue, Rancho Cucamonga, CA, 91730",,https://www.speedway.com/locations/CA/Rancho-Cucamonga/9280-Haven-Ave,34.0850723,-117.5762194,,,n_9178424755,"shop=convenience, brand=Speedway"
"Colton, CA",,retail,445310,Bourbon Street Liquor,,,,34.1234873,-117.6719051,,,n_9191852483,shop=alcohol
"Colton, CA",,retail,446120,,,,,34.1233058,-117.6718988,,,n_9191852485,shop=beauty
"Colton, CA",,retail,446120,,,,,34.121817,-117.670854,,,n_9191852490,shop=beauty
"Colton, CA",,retail,452319,Dollar Tree,,,https://www.dollartree.com/locations/ca/claremont/6189/,34.0898382,-117.7180583,,,n_9208059510,"shop=variety_store, brand=Dollar Tree"
"Colton, CA",,retail,445120,Stevies Snack Shop,"1170 West 3rd Street, San Bernardino, CA, 92410",,,34.1042465,-117.3099064,,,n_9269297056,shop=convenience
"Colton, CA",,retail,445120,,,,,34.028759,-117.1186907,,,n_9341603464,shop=convenience
"Colton, CA",,retail,445120,ampm,,,,34.0283366,-117.1197815,,,n_9341603466,"shop=convenience, brand=ampm"
"Colton, CA",,retail,445120,Chevron,,,,33.9044784,-117.4939707,,,n_9347651883,"shop=convenience, brand=Chevron"
"Colton, CA",,retail,445120,7-Eleven,"11110 Magnolia Avenue, Riverside, CA, 92505",+1 951-354-2063,https://www.7-eleven.com/locations/ca/riverside/11110-magnolia-ave-36818,33.9028939,-117.4763574,,,n_9347673211,"shop=convenience, brand=7-Eleven"
"Colton, CA",,retail,445110,Smart & Final,,,,33.8502416,-117.550839,,,n_9362485300,"shop=supermarket, brand=Smart & Final"
"Colton, CA",,retail,452319,Dollar Tree,,,https://www.dollartree.com/locations/ca/ontario/4734/,34.0683935,-117.5530779,,,n_9411611215,"shop=variety_store, brand=Dollar Tree"
"Colton, CA",,retail,452210,Kohl's,"1051 North Milliken Avenue, Ontario, CA, 91764",+1 909-484-7805,https://www.kohls.com/stores/ca/ontario-601.shtml,34.075909,-117.5598567,,,n_9411654723,"shop=department_store, brand=Kohl's"
"Colton, CA",,retail,445110,Albertsons,"15970 Los Serranos Country Club Drive, Chino Hills, CA, 91709",+1 909-606-8184,https://local.albertsons.com/ca/chino-hills/15970-los-serranos-country-club-dr.html,33.9614979,-117.6955185,,,n_9460868082,"shop=supermarket, brand=Albertsons"
"Colton, CA",,retail,452319,Daiso Japan,,,,34.0099191,-117.7404301,,,n_9460868098,"shop=variety_store, brand=Daiso"
"Colton, CA",,retail,445110,La Surtidora Cash & Carry,"17763 Valley Boulevard, Bloomington, CA, 92316",1-909-877-1527,,34.069887,-117.417,,,n_9559498241,shop=supermarket
"Colton, CA",,retail,446120,Face Appeal Beauty,,,,34.0854868,-117.6686168,,,n_9622610839,shop=beauty
"Colton, CA",,retail,446120,Stacy's Lashes Nails & Spa,,,,34.0854815,-117.6692504,,,n_9622610843,shop=beauty
"Colton, CA",,retail,453991,Upscale Vapes,,,,34.0865154,-117.6691709,,,n_9622610853,shop=tobacco
"Colton, CA",,retail,452319,Dollar Tree,,,,34.0895135,-117.738694,,,n_9668817783,"shop=variety_store, brand=Dollar Tree"
"Colton, CA",,retail,445110,,,,,34.0555938,-117.7058685,,,n_9704416134,shop=supermarket
"Colton, CA",,retail,446120,Bath & Body Works,,,https://www.bathandbodyworks.com/?cm_mmc=local_BBW00107,33.9391363,-117.2709182,,,n_9747925348,"shop=cosmetics, brand=Bath & Body Works"
"Colton, CA",,retail,452210,Marshalls,,,,33.9556911,-117.3920431,,,n_9780261199,"shop=department_store, brand=Marshalls"
"Colton, CA",,retail,445110,Billy's Egg,"13094 East End Avenue, 91710",,,34.0153783,-117.7244639,,,n_9847038917,shop=supermarket
"Colton, CA",,retail,445120,Shell,,,,34.1063633,-117.4179159,,,n_9865465678,"shop=convenience, brand=Shell"
"Colton, CA",,retail,446120,Allure Nails & Spa,,,,34.0774044,-117.3709463,,,n_9892963019,shop=beauty
"Colton, CA",,retail,452210,Ross,"1610 South Riverside Avenue, Rialto, CA, 92376-7739",+1 909-562-0122,,34.072052,-117.3718733,,,n_9892963089,"shop=department_store, brand=Ross"
"Colton, CA",,retail,452210,dd's Discounts,,,,34.0717039,-117.3716071,,,n_9892963090,"shop=department_store, brand=dd's Discounts"
"Colton, CA",,retail,446120,Kelly Nails & Spa,,,,34.0724372,-117.369519,,,n_9892963185,shop=beauty
"Colton, CA",,retail,446120,KD Nail Supply,,,,34.0724359,-117.369596,,,n_9892963186,shop=beauty
"Colton, CA",,retail,452319,Two Brothers Smoke Shop,,,,34.0724372,-117.369653,,,n_9892963187,shop=general
"Colton, CA",,retail,445110,Trader Joe's,"475 West Foothill Boulevard, Claremont, CA, 91711",+1 909-625-8784,https://locations.traderjoes.com/ca/claremont/214/,34.1073555,-117.7219566,,,n_9902961324,"shop=supermarket, brand=Trader Joe's"
"Colton, CA",,retail,446120,,,,,34.1078628,-117.7348897,,,n_9904993079,shop=beauty
"Colton, CA",,retail,446120,,,,,34.1078614,-117.7346491,,,n_9904993082,shop=beauty
"Colton, CA",,retail,445110,Stater Bros.,"1055 West Foothill Boulevard, Claremont, CA, 91711",+1 909-624-0619,https://www.staterbros.com/stores/49,34.1079945,-117.7355023,,,n_9904993083,"shop=supermarket, brand=Stater Bros."
"Colton, CA",,retail,445310,,,,,34.1078651,-117.7350611,,,n_9904993085,shop=alcohol
"Colton, CA",,retail,446120,ST Nail Lounge,"327 East Foothill Boulevard, Pomona, CA",+1-909-645-1688,,34.1080093,-117.742819,,,n_9915401897,shop=beauty
"Colton, CA",,retail,452319,Dollar Tree,,,https://www.dollartree.com/locations/ca/pomona/5392/,34.1077338,-117.7438684,,,n_9915401903,"shop=variety_store, brand=Dollar Tree"
"Colton, CA",,retail,445120,Shell,,,,33.8886884,-117.2259127,,,n_9936239208,"shop=convenience, brand=Shell"
"Colton, CA",,retail,445120,,,,,33.8451483,-117.2255372,,,n_9938406839,shop=convenience
"Colton, CA",,retail,445120,,,,,33.844044,-117.2256355,,,n_9938406841,shop=convenience
"Colton, CA",,retail,445120,7-Eleven,,,,33.9175368,-117.2857046,,,n_9938478856,shop=convenience
"Colton, CA",,retail,445120,,,,,33.9176243,-117.2847242,,,n_9938478857,shop=convenience
"Colton, CA",,retail,445120,Circle K,,,,33.902324,-117.2430131,,,n_9950534770,"shop=convenience, brand=Circle K"
"Colton, CA",,retail,446110,Rite Aid,,,,33.9223494,-116.947668,,,n_9998720517,"shop=chemist, brand=Rite Aid"
"Colton, CA",,retail,452210,Ross,"7200 Arlington Avenue, Riverside, CA, 92503-1510",+1 951-327-1821,,33.9442706,-117.4517902,,,n_10038300652,"shop=department_store, brand=Ross"
"Colton, CA",,retail,445110,Stater Bros.,"7200 Arlington Avenue, Riverside, CA, 92503",+1 951-279-4480,https://www.staterbros.com/stores/207,33.9447205,-117.4517715,,,n_10038300663,"shop=supermarket, brand=Stater Bros."
"Colton, CA",,retail,446120,Nails and Spa,,,,34.0836263,-117.2972957,,,n_10055733713,shop=beauty
"Colton, CA",,retail,445292,See's Candies,,,,34.0848513,-117.2970137,,,n_10055751127,"shop=confectionery, brand=See's Candies"
"Colton, CA",,retail,445292,Sue's Candy,,,,34.0849053,-117.297424,,,n_10055751134,shop=confectionery
"Colton, CA",,retail,445120,Stop n Shop Liquor Market,,,,33.9169035,-117.4731301,,,n_10067829153,shop=convenience
"Colton, CA",,retail,445120,7-Eleven,,,https://www.7-eleven.com/locations/ca/colton/202-n-mt-vernon-avenue-33604,34.0657138,-117.3130202,,,n_10155998963,"shop=convenience, brand=7-Eleven"
"Colton, CA",,retail,445120,7-Eleven,,,,34.1687751,-117.3163472,,,n_10159050756,"shop=convenience, brand=7-Eleven"
"Colton, CA",,retail,445120,Express Market,,,,34.1756596,-117.2895192,,,n_10159050786,shop=convenience
"Colton, CA",,retail,453110,The Flower Alley,,,,33.9229707,-117.4422718,,,n_10170519454,shop=florist
"Colton, CA",,retail,446110,The Medicine Shoppe,,,,33.923349,-117.4407188,,,n_10170524176,shop=chemist
"Colton, CA",,retail,445120,,,,,34.029865,-117.1152364,,,n_10202225164,shop=convenience
"Colton, CA",,retail,445110,Grocery Outlet,,,https://www.groceryoutlet.com/,34.0331598,-117.3150875,,,n_10213116017,shop=grocery
"Colton, CA",,retail,452319,Dollar Tree,,,https://www.dollartree.com/locations/ca/riverside/5354/,33.9165996,-117.4877542,,,n_10226832539,"shop=variety_store, brand=Dollar Tree"
"Colton, CA",,retail,445310,Foothill Liquor,,,,34.1065152,-117.3771027,,,n_10235032126,shop=alcohol
"Colton, CA",,retail,453110,The Flower Spot,"134 South Willow Avenue, Rialto, CA",+1 909-990-0073,,34.0992327,-117.3750799,,,n_10235754321,shop=florist
"Colton, CA",,retail,445120,7-Eleven,"285 West Foothill Boulevard, Rialto, CA, 92376-5029",+1 909-877-1439,https://www.7-eleven.com/locations/ca/rialto/285-w.-foothill-blvd-20222,34.106317,-117.374422,,,n_10235754325,"shop=convenience, brand=7-Eleven"
"Colton, CA",,retail,445120,Andy's Mart,,,,34.1061976,-117.3794917,,,n_10236014074,shop=convenience
"Colton, CA",,retail,445120,7-Eleven,,,,33.9079259,-117.4368968,,,n_10285309347,"shop=convenience, brand=7-Eleven"
"Colton, CA",,retail,453991,Pomona Smoke & Vape,,,,34.0894202,-117.738522,,,n_10312305607,shop=tobacco
"Colton, CA",,retail,452319,Fontana Crystal Shop,"8558 Sierra Avenue, Fontana, CA, 92335",,,34.0982012,-117.4359433,,,n_10603509491,shop=general
"Colton, CA",,retail,452319,Jess Tax Service,"8566 Sierra Avenue, Fontana, CA, 92335",,,34.0980987,-117.4359391,,,n_10603509494,shop=general
"Colton, CA",,retail,446120,The Perfume Shop,,,,34.0850957,-117.2976349,,,n_10617375630,shop=perfumery
"Colton, CA",,retail,446120,Nail Tyme,,,,33.8890374,-117.5212134,,,n_10691485906,shop=beauty
"Colton, CA",,retail,445292,Yogurtland,,,,33.8889456,-117.5211416,,,n_10691486105,"shop=confectionery, amenity=ice_cream, brand=Yogurtland"
"Colton, CA",,retail,445120,ampm,,,,33.9954488,-117.3645969,,,n_10692452247,"shop=convenience, brand=ampm"
"Colton, CA",,retail,446120,Lux threading,"288 South Mountain Avenue, Upland, CA",,,34.0905709,-117.669848,,,n_10703113211,shop=beauty
"Colton, CA",,retail,446120,Beautiful Nails,,,,33.9165119,-117.272097,,,n_10737342832,shop=beauty
"Colton, CA",,retail,446120,Eyebrow Threading,,,,33.9163868,-117.2716585,,,n_10737342835,shop=beauty
"Colton, CA",,retail,446120,One Touch Beauty,,,,33.8432845,-117.5335912,,,n_10762219965,shop=beauty
"Colton, CA",,retail,446120,Lush Salon,,,,33.8433452,-117.5324675,,,n_10762299356,shop=beauty
"Colton, CA",,retail,446120,,,,,33.8436309,-117.5328455,,,n_10762306799,shop=beauty
"Colton, CA",,retail,453991,Tobacco Island,,,,33.8432984,-117.5324055,,,n_10762316060,shop=tobacco
"Colton, CA",,retail,446120,Lashes 102,,,,33.8441454,-117.5338722,,,n_10763047033,shop=beauty
"Colton, CA",,retail,445120,7-Eleven,,,,33.7434887,-117.191819,,,n_10811775456,"shop=convenience, brand=7-Eleven"
"Colton, CA",,retail,445230,Stop N Shop Market,"846 East 6th Street, Beaumont, CA, 92223",+19518452723,,33.9297782,-116.97046,,,n_10841362399,shop=greengrocer
"Colton, CA",,retail,453991,Tobacco Zone,"10036 Sierra Avenue, Fontana, CA, 92335",,,34.07145,-117.4365631,,,n_10913665268,shop=tobacco
"Colton, CA",,retail,446120,American Nails and Spa,"10036 Sierra Avenue, Fontana, CA, 92335",,,34.0715418,-117.4365753,,,n_10913665269,shop=beauty
"Colton, CA",,retail,452319,El Norteno Family Store,"10024 Sierra Avenue, Fontana, CA, 92335",,,34.0716877,-117.4365788,,,n_10913665270,shop=general
"Colton, CA",,retail,452319,Water Store,"9810 Sierra Avenue, Fontana, CA, 92335",,,34.0756289,-117.436463,,,n_10913744617,shop=general
"Colton, CA",,retail,453991,Smoke Shop,"9810 Sierra Avenue, Fontana, CA, 92335",,,34.0756373,-117.43641,,,n_10913744618,shop=tobacco
"Colton, CA",,retail,446120,Natural Nails,"9810 Sierra Avenue, Fontana, CA, 92335",,,34.075639,-117.436353,,,n_10913744619,shop=beauty
"Colton, CA",,retail,446120,Bath & Body Works,,,,34.0854077,-117.2971773,,,n_10950130679,"shop=cosmetics, brand=Bath & Body Works"
"Colton, CA",,retail,445120,,,,,33.7416783,-117.1906355,,,n_11018710293,shop=convenience
"Colton, CA",,retail,445120,,,,,33.7424451,-117.1852033,,,n_11018710296,shop=convenience
"Colton, CA",,retail,445110,Stater Bros.,"3460 Ontario Ranch Road, Ontario, CA, 91761",+1 909-627-1472,https://www.staterbros.com/stores/204,33.9993043,-117.5769882,,,n_11074361155,"shop=supermarket, brand=Stater Bros."
"Colton, CA",,retail,446120,Summer Nails & Spa,935 West Foothill Boulevard,+1 909-644-0424,,34.105918,-117.3884732,,,n_11091789798,shop=beauty
"Colton, CA",,retail,445110,Clarks Nutrition and Natural Foods Market,4225 Market Street,+1 951-686-4757,https://clarksnutrition.com,33.9784791,-117.3786644,,,n_11091811097,shop=supermarket
"Colton, CA",,retail,445292,BAKED Dessert Bar,"13855 City Center Drive, Chino Hills, CA, 91709",,,34.0018045,-117.7299151,,,n_11117749922,shop=confectionery
"Colton, CA",,retail,446120,Golden Nails,"11683 Cherry Avenue, Fontana, CA, 92337",,,34.0413685,-117.4839211,,,n_11223535085,shop=beauty
"Colton, CA",,retail,445310,La Bodega Wine & Spirit,3512 Central Avenue,+1 951-683-3307,,33.9532433,-117.3886485,,,n_11230257280,shop=alcohol
"Colton, CA",,retail,446120,Ho & Ho Nails,,,,33.845018,-117.5384158,,,n_11263028085,shop=beauty
"Colton, CA",,retail,446120,Area One,,,,33.8445811,-117.5390616,,,n_11263062908,shop=beauty
"Colton, CA",,retail,446120,Blue Jay Nails & Spa,,,,34.2456744,-117.210261,,,n_11272941350,shop=beauty
"Colton, CA",,retail,446191,Health Habitat,,,,34.2464696,-117.2101885,,,n_11272945473,shop=health_food
"Colton, CA",,retail,445120,ampm,,,,34.106038,-117.4190347,,,n_11273337970,"shop=convenience, brand=ampm"
"Colton, CA",,retail,445120,Pilot,,,,34.0553599,-117.3955327,,,n_11291592067,"shop=convenience, brand=Pilot"
"Colton, CA",,retail,446120,Red Persimmon Nails,"11251 Sierra Avenue, Fontana, CA, 92337",,,34.0491048,-117.4338357,,,n_11292454525,shop=beauty
"Colton, CA",,retail,453991,Tobacco Leaf,"11251 Sierra Avenue, Fontana, CA, 92337",,,34.0491621,-117.4338215,,,n_11292454526,shop=tobacco
"Colton, CA",,retail,452319,Family Dollar,"11647 Cherry Avenue, Fontana, CA, 92337",,,34.0419023,-117.4852561,,,n_11292539870,"shop=variety_store, brand=Family Dollar"
"Colton, CA",,retail,445110,Grocery Outlet,,,,33.9738208,-117.3493965,,,n_11294801496,"shop=supermarket, brand=Grocery Outlet"
"Colton, CA",,retail,453991,,,,,34.1068696,-117.4764529,,,n_11328972636,shop=tobacco
"Colton, CA",,retail,445110,Kassel And Kassel Law Offices,"1200 California Street, Redlands, CA, 92374",909-792-6455,https://www.kasselandkassel.com/,34.0689036,-117.2254738,,,n_11338737191,shop=supermarket
"Colton, CA",,retail,445120,Beyond Food Mart,,,,33.8081289,-117.5051405,,,n_11340720836,shop=convenience
"Colton, CA",,retail,453991,Adams MKT Smoke Shop,,,,33.9388479,-117.3973285,,,n_11344897700,shop=tobacco
"Colton, CA",,retail,446120,Organic Nail Bar 2,,,,33.9956693,-117.5578936,,,n_11357345812,shop=beauty
"Colton, CA",,retail,445120,ARCO,"2646 East Alessandro Boulevard, Riverside, CA, 92508",+1-951-653-5340,https://arco-riverside.com,33.9176035,-117.2849585,,,n_11372779160,shop=convenience
"Colton, CA",,retail,445110,Super King,,,,34.0800957,-117.7214336,,,n_11395044569,shop=supermarket
"Colton, CA",,retail,446120,Shang Nail,,,,34.1072542,-117.733152,,,n_11492296208,shop=beauty
"Colton, CA",,retail,446120,,,,,34.1076146,-117.7306699,,,n_11492296216,shop=beauty
"Colton, CA",,retail,446120,Be Rosie Salon,,,,34.1076173,-117.7305797,,,n_11492296217,shop=beauty
"Colton, CA",,retail,453110,Kince Wedding Decor,"913 West Foothill Boulevard, Rialto, CA, 92376",,,34.1059278,-117.3887773,,,n_11501567303,shop=florist
"Colton, CA",,retail,446120,Herbal Nails,,,,33.8330132,-117.531157,,,n_11507873542,shop=beauty
"Colton, CA",,retail,446120,Naked Beauty Lounge,,,,33.8331571,-117.5312251,,,n_11507873544,shop=beauty
"Colton, CA",,retail,452210,Ross,"330 North McKinley Street, Corona, CA, 92879",+1 951-278-2788,,33.8870386,-117.5198354,,,n_11559062103,"shop=department_store, brand=Ross"
"Colton, CA",,retail,446120,LaserAway,"350 North McKinley Street, Corona, CA, 92879",,,33.8871725,-117.5211859,,,n_11559062104,"shop=beauty, brand=LaserAway"
"Colton, CA",,retail,452319,Dollar Tree,,,https://www.dollartree.com/locations/ca/riverside/7451/,33.8834083,-117.364573,,,n_11624932957,"shop=variety_store, brand=Dollar Tree"
"Colton, CA",,retail,453991,,,,,33.8477075,-117.543849,,,n_11636595664,shop=tobacco
"Colton, CA",,retail,445120,ExtraMile,,,,33.8483076,-117.544247,,,n_11636595665,"shop=convenience, brand=ExtraMile"
"Colton, CA",,retail,453991,Y & M Smoke Shop,"1055 North Mount Vernon Avenue, Colton, CA, 92324",+1 909 4221800,https://www.yandmsmokeshop.com/,34.0755322,-117.3142207,,,n_11733815620,"shop=tobacco, operator=Yaser Ghreir"
"Colton, CA",,retail,445110,Stater Bros.,"8373 Pine Avenue, Chino, CA, 91708",+1 909-627-6697,https://www.staterbros.com/stores/209,33.9570878,-117.6218065,,,n_11741836620,"shop=supermarket, brand=Stater Bros., operator=Stater Bros."
"Colton, CA",,retail,445120,Wine & Liquor Market,,,,34.0825449,-117.7184962,,,n_11806060203,shop=convenience
"Colton, CA",,retail,445292,Chocolate Bash,,,,34.0942668,-117.7195253,,,n_11806510816,shop=chocolate
"Colton, CA",,retail,446120,Claremont Nails,,1-909-447-5576,,34.089496,-117.7183619,,,n_11806510821,shop=beauty
"Colton, CA",,retail,453991,Smokeology,,,,34.0896072,-117.7182213,,,n_11806510824,shop=tobacco
"Colton, CA",,retail,446120,Lashes Lounge,,,,34.089637,-117.7181834,,,n_11806510825,shop=beauty
"Colton, CA",,retail,446120,Jazziana's Beauty Salon,,,,34.0882606,-117.697493,,,n_11808524211,shop=beauty
"Colton, CA",,retail,446120,10Der Touch,,,,34.088219,-117.6978127,,,n_11808524213,shop=beauty
"Colton, CA",,retail,446120,Rheeya's Organic Beauty,,,,34.0882446,-117.6972843,,,n_11808524216,shop=beauty
"Colton, CA",,retail,445120,Mountain View Market & Liquor,,,,34.0883546,-117.6978221,,,n_11808524219,shop=convenience
"Colton, CA",,retail,445110,Stater Bros.,"1288 Border Avenue, Corona, CA, 92882",+1 951-734-2470,https://www.staterbros.com/stores/62,33.8693734,-117.5942512,,,n_11809317181,"shop=supermarket, brand=Stater Bros."
"Colton, CA",,retail,445110,ALDI,"80 Citrus Avenue, Perris, CA, 92571",+1 833-479-7074,https://stores.aldi.us/ca/perris/80-citrus-ave,33.8086196,-117.2279697,,,n_11809317191,"shop=supermarket, brand=ALDI"
"Colton, CA",,retail,445110,Stater Bros. Markets,"47 West Nuevo Road, Perris, CA, 92571",+1 951-657-1823,https://www.staterbros.com/stores/113,33.79977,-117.2271154,,,n_11809317192,"shop=supermarket, brand=Stater Bros."
"Colton, CA",,retail,445110,Sprouts Farmers Market,"6753 Carnelian Street, Rancho Cucamonga, CA, 91701",+1 909-296-3094,https://www.sprouts.com/store/ca/rancho-cucamonga/alta-loma/,34.131587,-117.614893,,,n_11809317205,"shop=supermarket, brand=Sprouts Farmer Market"
"Colton, CA",,retail,445110,Albertsons,"11358 Kenyon Way, Rancho Cucamonga, CA, 91701",+1 909-941-7166,https://local.albertsons.com/ca/rancho-cucamonga/11358-kenyon-way.html,34.1354126,-117.5574085,,,n_11809317207,"shop=supermarket, brand=Albertsons"
"Colton, CA",,retail,445110,Stater Bros.,"1939 East 4th Street, Ontario, CA, 91764",+1 909-989-7615,https://www.staterbros.com/stores/85,34.0784901,-117.6097259,,,n_11809317208,"shop=supermarket, brand=Stater Bros."
"Colton, CA",,retail,445110,Stater Bros. Markets,"646 West Holt Boulevard, Ontario, CA, 91762",+1 909-988-7343,https://www.staterbros.com/stores/108,34.0642574,-117.6597075,,,n_11809317210,"shop=supermarket, brand=Stater Bros."
"Colton, CA",,retail,445110,Stater Bros. Markets,"4721 Riverside Drive, Chino, CA, 91710",+1 909-627-3015,https://www.staterbros.com/stores/52,34.0183544,-117.7018292,,,n_11809317211,"shop=supermarket, brand=Stater Bros."
"Colton, CA",,retail,445110,Stater Bros. Markets,"11070 Limonite Avenue, Jurupa Valley, CA, 91752",+1 951-734-4330,https://www.staterbros.com/stores/88,33.974855,-117.524859,,,n_11809317213,"shop=supermarket, brand=Stater Bros."
"Colton, CA",,retail,445110,Stater Bros.,"550 Hidden Valley Parkway, Corona, CA, 92879",+1 951-372-1100,https://www.staterbros.com/stores/171,33.8982862,-117.5554079,,,n_11809317215,"shop=supermarket, brand=Stater Bros."
"Colton, CA",,retail,445110,Ralphs Fresh Fare,"5225 Canyon Crest Drive, Riverside, CA, 92507",+1 951-784-3123,https://www.ralphs.com/stores/grocery/ca/riverside/canyon-crest-town-center/703/00609,33.9559109,-117.3321018,,,n_11809317216,"shop=supermarket, brand=Ralphs"
"Colton, CA",,retail,445110,Sprouts Farmers Market,"24101 Hemlock Avenue, Moreno Valley, CA, 92557",+1 951-567-7549,https://www.sprouts.com/store/ca/moreno-valley/447-moreno-valley/,33.941835,-117.242605,,,n_11809317221,"shop=supermarket, brand=Sprouts Farmers Market"
"Colton, CA",,retail,445110,Stater Bros. Markets,"11875 Pigeon Pass Road, Moreno Valley, CA, 92557",+1 951-924-2575,https://www.staterbros.com/stores/193,33.9482951,-117.2621968,,,n_11809317223,"shop=supermarket, brand=Stater Bros."
"Colton, CA",,retail,445110,Stater Bros. Markets,"444 East Baseline Street, San Bernardino, CA, 92410",+1 909-889-6270,https://www.staterbros.com/stores/2,34.1221927,-117.2758318,,,n_11809317224,"shop=supermarket, brand=Stater Bros."
"Colton, CA",,retail,445110,Stater Bros. Markets,"1522 East Highland Avenue, San Bernardino, CA, 92404",+1 909-882-3214,https://www.staterbros.com/stores/24,34.1368811,-117.2541087,,,n_11809317225,"shop=supermarket, brand=Stater Bros."
"Colton, CA",,retail,445110,Stater Bros. Markets 40th Street,"161 East 40th Street, San Bernardino, CA, 92404",+1 909-882-2678,https://www.staterbros.com/stores/36,34.163803,-117.2827669,,,n_11809317226,"shop=supermarket, brand=Stater Bros."
"Colton, CA",,retail,445110,Stater Bros. Markets,"977 Kendall Drive, San Bernardino, CA, 92407",+1 909-882-0461,https://www.staterbros.com/stores/107,34.1629971,-117.305638,,,n_11809317228,"shop=supermarket, brand=Stater Bros."
"Colton, CA",,retail,445110,Stater Bros. Markets,"571 East Foothill Boulevard, Rialto, CA, 92376",+1 909-874-5195,https://www.staterbros.com/stores/12,34.1053989,-117.3600706,,,n_11809317229,"shop=supermarket, brand=Stater Bros."
"Colton, CA",,retail,445110,Sprouts Farmers Market,"1524 South Riverside Avenue, Rialto, CA, 92376",+1 840-220-4266,https://www.sprouts.com/store/ca/rialto/riverside-ave/,34.0737183,-117.3722781,,,n_11809317231,"shop=supermarket, brand=Sprouts Farmer Market"
"Colton, CA",,retail,445310,BevMo!,,,,34.089973,-117.6684966,,,n_11810608579,"shop=alcohol, brand=BevMo!"
"Colton, CA",,retail,446120,Savy Nail Spa,,,,34.0889444,-117.6687568,,,n_11810608588,shop=beauty
"Colton, CA",,retail,446120,Super Lashes,,,,34.0935352,-117.6889366,,,n_11812753068,shop=beauty
"Colton, CA",,retail,446120,Idol Nails & Spa,,,,34.0931213,-117.6883581,,,n_11813013974,shop=beauty
"Colton, CA",,retail,446120,Montclair Nails,,,,34.0871136,-117.6881654,,,n_11813013988,shop=beauty
"Colton, CA",,retail,446120,La Bella Salon Suites,,,,34.0868343,-117.688356,,,n_11813013990,shop=beauty
"Colton, CA",,retail,446120,Supreme Suites,,,,34.0896609,-117.6868274,,,n_11813014008,shop=beauty
"Colton, CA",,retail,446120,Alyssa's Eyelash,,,,34.0896636,-117.6870142,,,n_11813014010,shop=beauty
"Colton, CA",,retail,446120,,,,,34.0900301,-117.6885194,,,n_11813014022,shop=beauty
"Colton, CA",,retail,446110,Rite Aid,,909-986-1509,,34.0774502,-117.6685953,,,n_11824015305,"shop=chemist, amenity=pharmacy, brand=Rite Aid"
"Colton, CA",,retail,446120,Sele Threading,,909-983-4100,,34.0771882,-117.6686022,,,n_11824015307,shop=beauty
"Colton, CA",,retail,452319,Dollar Tree,,,https://www.dollartree.com/locations/ca/ontario/6633/,34.0760167,-117.6686168,,,n_11824015312,"shop=variety_store, brand=Dollar Tree"
"Colton, CA",,retail,453991,Mountain Smoke Shop,,,,34.0757832,-117.6685926,,,n_11824015314,shop=tobacco
"Colton, CA",,retail,446120,Eva Lash,,,,34.0756321,-117.6685812,,,n_11824015316,shop=beauty
"Colton, CA",,retail,446120,Phenix Salon Suites,,,,34.0752415,-117.6686591,,,n_11824015322,shop=beauty
"Colton, CA",,retail,446120,Miracle Nail Lounge,,,,34.0751,-117.6689778,,,n_11824015325,shop=beauty
"Colton, CA",,retail,446120,2nd Avenue Salon,,,,34.0977577,-117.6486122,,,n_11827110566,shop=beauty
"Colton, CA",,retail,446120,Studio M,,,,34.0981884,-117.6482933,,,n_11827120172,shop=beauty
"Colton, CA",,retail,445292,Halgren's Chocolates,,,,34.1076328,-117.6289523,,,n_11829581125,shop=chocolate
"Colton, CA",,retail,446120,Angel's Nail Lounge,,,,34.1077259,-117.6289583,,,n_11829581127,shop=beauty
"Colton, CA",,retail,446120,Bassett Salon Studios,,,,34.1081525,-117.6314548,,,n_11829581130,shop=beauty
"Colton, CA",,retail,446120,Super Q Lashes,,,,34.1080959,-117.6319758,,,n_11829581132,shop=beauty
"Colton, CA",,retail,446120,3D Nails,,,,34.1080964,-117.6320596,,,n_11829581133,shop=beauty
"Colton, CA",,retail,445310,Party Time Liquor,,,,34.0686287,-117.6693867,,,n_11831948702,shop=alcohol
"Colton, CA",,retail,446120,C.D.C. Beauty Supply & Wigs,,,,34.0682829,-117.6693844,,,n_11831948707,shop=beauty
"Colton, CA",,retail,445310,Lou's Liquor,,,,34.0784066,-117.6899048,,,n_11840624252,shop=alcohol
"Colton, CA",,retail,446120,La Bella Salon,,,,34.0783436,-117.6901898,,,n_11840624256,shop=beauty
"Colton, CA",,retail,445310,El Gran Chaparral,,,,34.0779593,-117.6904798,,,n_11840624261,"shop=alcohol, amenity=marketplace"
"Colton, CA",,retail,446120,2Q Nail Spa,,,,34.0781363,-117.6904502,,,n_11840624262,shop=beauty
"Colton, CA",,retail,446120,TBS Suites,,,,34.0766346,-117.6906141,,,n_11840624265,shop=beauty
"Colton, CA",,retail,446120,Rose Spa,,,,34.0765927,-117.6906139,,,n_11840624267,shop=beauty
"Colton, CA",,retail,446120,Kitten's Place,,,,34.0755415,-117.6906255,,,n_11840677077,shop=beauty
"Colton, CA",,retail,445110,DG Market,,,,34.0748407,-117.6905579,,,n_11840677083,shop=supermarket
"Colton, CA",,retail,446120,The Nail Loft,,,,34.0821577,-117.6891851,,,n_11840696382,shop=beauty
"Colton, CA",,retail,446120,The One Lash,,,,34.0819681,-117.6891845,,,n_11840696385,shop=beauty
"Colton, CA",,retail,445210,La Carniceria,,,,34.0818418,-117.6891841,,,n_11840696387,shop=butcher
"Colton, CA",,retail,446120,Vas X Salon,,,,34.1053445,-117.6888877,,,n_11840749404,shop=beauty
"Colton, CA",,retail,446120,Luna Nails & Spa,,,,34.1051466,-117.6891776,,,n_11840749407,shop=beauty
"Colton, CA",,retail,445310,Sam's Market & Liquor,,,,34.1051499,-117.6894059,,,n_11840749410,shop=alcohol
"Colton, CA",,retail,446120,Lavish Oak,,909-460-0700,,34.0687505,-117.6513893,,,n_11843390714,shop=beauty
"Colton, CA",,retail,453110,Roger's Florist,,,,34.0674733,-117.6513796,,,n_11846161074,shop=florist
"Colton, CA",,retail,446110,Vida Drug Store,,909-983-0999,,34.0680168,-117.6514062,,,n_11846161077,shop=chemist
"Colton, CA",,retail,445120,Giant Variety Store,,,,34.0711618,-117.652769,,,n_11846161153,shop=convenience
"Colton, CA",,retail,453991,,,,,34.0712092,-117.6519209,,,n_11846161157,shop=tobacco
"Colton, CA",,retail,446120,Heavenly Nails & Spa,,,,34.0713556,-117.6515864,,,n_11846161162,shop=beauty
"Colton, CA",,retail,445310,Lucky Liquor,,,,34.0891545,-117.6723202,,,n_11849283498,shop=alcohol
"Colton, CA",,retail,453991,Heavy Clouds,,,,34.0891542,-117.6722496,,,n_11849283499,shop=tobacco
"Colton, CA",,retail,446120,Divinity Salon,,,,34.0891529,-117.6718962,,,n_11849283503,shop=beauty
"Colton, CA",,retail,446120,A Lash Studio,,,,34.0891523,-117.6717549,,,n_11849283505,shop=beauty
"Colton, CA",,retail,446120,US Nails & Spa,,,,34.089165,-117.6714792,,,n_11849283507,shop=beauty
"Colton, CA",,retail,446120,Optima Salon Suites,,,,34.0893701,-117.6715545,,,n_11849283511,shop=beauty
"Colton, CA",,retail,446120,Lady Nails Spa,"16075 Foothill Blvd, #I, Fontana, CA, 92335",+1 909-356-4140,https://ladynailsspa.com,34.1052818,-117.4545671,,,n_11860328595,shop=beauty
"Colton, CA",,retail,446120,,,,,34.1348401,-117.4350543,,,n_11968521247,shop=beauty
"Colton, CA",,retail,445120,,,,,34.1070715,-117.6130918,,,n_11977953771,shop=convenience
"Colton, CA",,retail,445292,Logan's Candies,"125 West B Street, Ontario, CA, 91762",+1 909-984-5410,https://loganscandies.com/,34.064501,-117.6521934,,,n_12007821399,shop=confectionery
"Colton, CA",,retail,445120,Circle K,"19470 Brown Street, 92570",,,33.8375779,-117.2955635,,,n_12037843269,shop=convenience
"Colton, CA",,retail,446120,Upland Nails,,,,34.0932267,-117.6693934,,,n_12048711569,shop=beauty
"Colton, CA",,retail,446120,I Lash Plus,,,,34.0933309,-117.6693276,,,n_12048711571,shop=beauty
"Colton, CA",,retail,453991,Vape & Glass Station,,,,34.0935756,-117.669196,,,n_12048711574,shop=tobacco
"Colton, CA",,retail,446120,Sarah's Avon,,,,34.0937886,-117.6691945,,,n_12048711578,"shop=cosmetics, brand=Avon"
"Colton, CA",,retail,445110,Grocery Outlet,"176 South Mountain Avenue, Upland, CA, 91786",+1 909-949-6155,,34.0929752,-117.6694657,,,n_12048711582,"shop=supermarket, brand=Grocery Outlet"
"Colton, CA",,retail,452319,Dollar Tree,"180 South Mountain Avenue, Upland, CA, 91786-6256",+1 909-660-6790,https://www.dollartree.com/locations/ca/upland/3440/,34.0927559,-117.6694551,,,n_12048711583,"shop=variety_store, brand=Dollar Tree"
"Colton, CA",,retail,446120,,,,,34.1382185,-117.4443962,,,n_12064492881,shop=beauty
"Colton, CA",,retail,446120,Sephora,,,,33.9070356,-117.4599771,,,n_12065657131,"shop=cosmetics, brand=Sephora"
"Colton, CA",,retail,445110,ALDI,"8089 Mission Boulevard, Jurupa Valley, CA, 92509",,https://stores.aldi.us/ca/jurupa-valley/8089-mission-blvd,34.0131495,-117.4606515,,,n_12070026201,"shop=supermarket, brand=ALDI"
"Colton, CA",,retail,452319,Five Below,"8137 Mission Boulevard, Jurupa Valley, CA, 92509",+1-951-441-2239,https://locations.fivebelow.com/ca/jurupa-valley/8137-mission-boulevard,34.0144908,-117.4606331,,,n_12070026203,"shop=variety_store, brand=Five Below"
"Colton, CA",,retail,445120,Circle K,,,https://www.circlek.com/store-locator/US/jurupa-valley/8190-mission-blvd/2705063,34.011345,-117.4619225,,,n_12070067460,"shop=convenience, brand=Circle K"
"Colton, CA",,retail,445110,Seafood City,"11098 Foothill Boulevard, Rancho Cucamonga, CA, 91730",,https://www.seafoodcity.com/store-locations/rancho-cucamonga/,34.1078331,-117.5626304,,,n_12082770030,"shop=supermarket, brand=Seafood City"
"Colton, CA",,retail,446120,Bonjour Nail Bar,"11096 Foothill Boulevard, Rancho Cucamonga, CA, 91730",,,34.1069109,-117.5617808,,,n_12082791605,shop=beauty
"Colton, CA",,retail,445120,,,,,34.4085273,-117.3984996,,,n_12101445817,shop=convenience
"Colton, CA",,retail,445120,,,,,34.0151859,-117.5255182,,,n_12101461461,shop=convenience
"Colton, CA",,retail,445120,711,,,,33.9084722,-117.582165,,,n_12104400353,shop=convenience
"Colton, CA",,retail,446120,2 Q Nails Bar,"2440 River Road, Norco, CA, 92860",,,33.9153967,-117.5907382,,,n_12104538690,shop=beauty
"Colton, CA",,retail,446191,Juice it Up!,"2420 River Road, Norco, CA, 92860",+1-909-972-0552,https://juiceitup.com/location/norco/,33.9147243,-117.5898806,,,n_12104615797,shop=health_food
"Colton, CA",,retail,446110,CVS Pharmacy,,,,33.8772734,-117.5894623,,,n_12107502685,"shop=chemist, brand=CVS Pharmacy"
"Colton, CA",,retail,446120,Sunshine Nail and Spa,,,,33.9266911,-117.5591375,,,n_12109267469,shop=beauty
"Colton, CA",,retail,445210,Brunk's Butchery,"3591 Suite E, Norco, CA 92860 Hamner Ave",+1 951-407-1016,https://brunksbutchery.dine.online/?utm_source=website,33.935785,-117.5568545,,,n_12111495383,shop=butcher
"Colton, CA",,retail,446120,Vivis Nail Spa,2025 River Road,1 951 278 088,,33.9093118,-117.5818755,,,n_12111615489,shop=beauty
"Colton, CA",,retail,446120,Citi Nails & Spa,,,,33.8439478,-117.5746546,,,n_12128544305,shop=beauty
"Colton, CA",,retail,446120,Bath & Body Works,"17030 Slover Avenue, Fontana, CA, 92337",,https://www.bathandbodyworks.com/store-locator,34.0652771,-117.4331421,,,n_12141106781,"shop=cosmetics, brand=Bath & Body Works"
"Colton, CA",,retail,452319,Five Below,"17084 Slover Avenue, Fontana, CA, 92337",+1 909-829-1186,https://locations.fivebelow.com/ca/fontana/17084-slover-avenue,34.0655139,-117.432075,,,n_12141113156,"shop=variety_store, brand=Five Below"
"Colton, CA",,retail,446120,,,,,34.0800545,-117.7209993,,,n_12150174273,shop=beauty
"Colton, CA",,retail,445120,Street Corner Urban Marketplace,,,https://www.streetcorner.com/store/metro-at-main/,33.8851448,-117.5653301,,,n_12187312270,shop=convenience
"Colton, CA",,retail,452210,Burlington,,,,33.9097407,-117.4612338,,,n_12228545200,"shop=department_store, brand=Burlington"
"Colton, CA",,retail,446120,Ulta Beauty,"15248 Summit Avenue, Fontana, CA, 92336",,https://www.ulta.com/stores/fontana-ca-1300#,34.1525078,-117.4747179,,,n_12230729399,"shop=cosmetics, brand=Ulta Beauty"
"Colton, CA",,retail,452319,Five Below,"15234 Summit Avenue, Fontana, CA, 92336",,https://locations.fivebelow.com/ca/fontana/15234-summit-ave,34.1525282,-117.474463,,,n_12230729400,"shop=variety_store, brand=Five Below"
"Colton, CA",,retail,446120,Royal Nail & Spa,"8110 Milliken Avenue, Rancho Cucamonga, CA, 91730",,,34.1053155,-117.5583159,,,n_12319298118,shop=beauty
"Colton, CA",,retail,446120,,"4320 Mills Circle, Ontario, CA, 91764",,,34.0734772,-117.5567648,,,n_12319305277,shop=beauty
"Colton, CA",,retail,446120,New Happy Day Spa,"4320 Mills Circle, Ontario, CA, 91764",,,34.0731293,-117.5567999,,,n_12319305281,shop=beauty
"Colton, CA",,retail,446120,,,,,34.1375342,-117.5742571,,,n_12319703174,shop=beauty
"Colton, CA",,retail,445110,Trader Joe's,"6401 Haven Avenue, Rancho Cucamonga, CA, 91737",+1 909-476-1410,https://locations.traderjoes.com/ca/rancho-cucamonga/217/,34.1378465,-117.5741225,,,n_12319703175,"shop=supermarket, brand=Trader Joe's"
"Colton, CA",,retail,452319,Daiso Japan,"6401 Haven Avenue, Rancho Cucamonga, CA, 91737",+1 909-204-4393,,34.1376862,-117.5741176,,,n_12319703176,"shop=variety_store, brand=Daiso"
"Colton, CA",,retail,445120,,,,,34.0922736,-117.5938597,,,n_12319769207,shop=convenience
"Colton, CA",,retail,452319,Miniso,"Montclair, CA, 91763",,,34.0870012,-117.6941665,,,n_12365985330,"shop=variety_store, brand=Miniso"
"Colton, CA",,retail,452319,Tokyo Japanese Lifestyle,"Montclair, CA, 91763",,,34.0869599,-117.692045,,,n_12365985352,shop=variety_store
"Colton, CA",,retail,445292,Rocky Mountain Chocolate Factory,"Montclair, CA, 91763",,,34.0866145,-117.6931906,,,n_12365985360,"shop=confectionery, brand=Rocky Mountain Chocolate Factory"
"Colton, CA",,retail,446120,Bath & Body Works,"Montclair, CA, 91763",,,34.0864904,-117.6941218,,,n_12365985366,"shop=cosmetics, brand=Bath & Body Works"
"Colton, CA",,retail,446120,Sephora,"Montclair, CA, 91763",,,34.0864947,-117.6942409,,,n_12365985367,"shop=cosmetics, brand=Sephora"
"Colton, CA",,retail,445292,Sugar Land,"Montclair, CA, 91763",,,34.0866426,-117.6944336,,,n_12366009802,shop=confectionery
"Colton, CA",,retail,446120,Perfume Gallery,"Montclair, CA, 91763",,,34.0866946,-117.693122,,,n_12366009811,shop=perfumery
"Colton, CA",,retail,446120,MOXLA,"Montclair, CA, 91763",,,34.0866461,-117.6925994,,,n_12366009816,shop=cosmetics
"Colton, CA",,retail,446120,Ideal Brows,"Montclair, CA, 91763",,,34.0870174,-117.6924511,,,n_12366009823,shop=beauty
"Colton, CA",,retail,445292,See's Candies,"5074 East Montclair Plaza Lane, Montclair, CA, 91763",+1 909-626-2715,https://chocolateshops.sees.com/ca/montclair/chocolate_shops_montclair_ca_1ca024.html,34.0869555,-117.69362,,,n_12366009837,"shop=confectionery, brand=See's Candies"
"Colton, CA",,retail,446120,MAC Cosmetics,"Montclair, CA, 91763",,,34.0869538,-117.6941147,,,n_12366009842,"shop=cosmetics, brand=MAC Cosmetics"
"Colton, CA",,retail,445120,Rocket,,,,34.0170639,-117.5052763,,,n_12383582799,"shop=convenience, brand=Rocket"
"Colton, CA",,retail,446120,Teaze Salon,,,,34.1083236,-117.7214591,,,n_12389356171,shop=beauty
"Colton, CA",,retail,446120,Vivacious Beauty Lounge,"9444 Magnolia Avenue, Riverside, CA, 92503",,,33.9207761,-117.4453238,,,n_12451973296,shop=beauty
"Colton, CA",,retail,452210,Burlington,"8113 Mission Boulevard, Jurupa Valley, CA, 92509",+1-951-608-2269,https://stores.burlington.com/ca/jurupa-valley/1479/,34.014392,-117.4597517,,,n_12471978411,"shop=department_store, brand=Burlington"
"Colton, CA",,retail,453110,Elegencias Floral Design,,,,34.061003,-117.7498705,,,n_12472227650,shop=florist
"Colton, CA",,retail,445120,Circle K,,,,33.9830588,-117.7126614,,,n_12518058183,"shop=convenience, brand=Circle K"
"Colton, CA",,retail,446191,NutriShop,,,,33.9834955,-117.7124226,,,n_12518060828,shop=health_food
"Colton, CA",,retail,446120,Nail Story,,,,33.9834319,-117.7123867,,,n_12518060829,shop=beauty
"Colton, CA",,retail,453991,Master Tobacco,,,,33.9834376,-117.7122063,,,n_12518060831,shop=tobacco
"Colton, CA",,retail,452319,Five Below,,,,33.909035,-117.4571352,,,n_12545049657,"shop=variety_store, brand=Five Below"
"Colton, CA",,retail,452319,Daiso Japan,,,,33.9106399,-117.4619363,,,n_12545056750,"shop=variety_store, brand=Daiso"
"Colton, CA",,retail,445110,Smart & Final,,,,33.941463,-117.280522,,,n_12554581703,shop=grocery
"Colton, CA",,retail,445120,La Favorita,,,,33.7812767,-117.2449266,,,n_12631289323,shop=convenience
"Colton, CA",,retail,446120,Nail Design,,,,33.7814058,-117.2449124,,,n_12632055525,shop=beauty
"Colton, CA",,retail,452319,Absolute Dollar Store,,,,33.9444368,-117.4554084,,,n_12669100455,shop=variety_store
"Colton, CA",,retail,445110,Aldi,"24856 Iris Avenue, Moreno Valley, CA, 92551",,,33.8876201,-117.2280536,,,n_12809975744,"shop=supermarket, brand=Aldi"
"Colton, CA",,retail,446120,Happy Nails and Spa,,,,33.9992383,-117.7206694,,,n_12815486181,shop=beauty
"Colton, CA",,retail,446120,Bath & Body Works,,,,34.0010395,-117.7196085,,,n_12815486187,"shop=cosmetics, brand=Bath & Body Works"
"Colton, CA",,retail,445120,7-Eleven,,,,34.0328767,-117.7066107,,,n_12815565564,"shop=convenience, brand=7-Eleven"
"Colton, CA",,retail,445110,Cardenas,"15555 Main Street, Hesperia, CA, 92345",+17609479615,,34.4231317,-117.3236458,,,n_12874231213,"shop=supermarket, brand=Cardenas"
"Colton, CA",,retail,445110,Metro Supermarket,"8160 Day Creek Boulevard, Rancho Cucamonga, CA, 91739",,,34.1053756,-117.5396168,,,n_12885893407,shop=supermarket
"Colton, CA",,retail,445120,7-Eleven,,,,33.8996555,-117.5590453,,,n_12917467792,"shop=convenience, brand=7-Eleven"
"Colton, CA",,retail,445120,Shell,,,,33.88898,-117.323781,,,n_12917485008,"shop=convenience, brand=Shell"
"Colton, CA",,retail,446120,,,,,34.122843,-117.1939832,,,n_12974351882,shop=beauty
"Colton, CA",,retail,453991,Catalyst Cannabis,"506 Inland Center Drive, 92408",+1-909-375-0480,https://catalyst-cannabis.com/dispensary-locations/san-bernardino-dispensary,34.091895,-117.2948458,,,n_12996670501,shop=tobacco
"Colton, CA",,retail,445110,Pioneer Cash & Carry,,,,33.9244037,-117.4411089,,,n_13012894630,shop=supermarket
"Colton, CA",,retail,446120,Sephora,,,,34.1122457,-117.5324923,,,n_13021084782,"shop=cosmetics, brand=Sephora"
"Colton, CA",,retail,446120,Bath & Body Works,,,,34.112254,-117.5317635,,,n_13021084784,"shop=cosmetics, brand=Bath & Body Works"
"Colton, CA",,retail,445292,IT'SUGAR,,,,34.1115911,-117.533045,,,n_13021091410,shop=confectionery
"Colton, CA",,retail,445120,7-Eleven,"15760 Ranchero Road, Hesperia, CA, 92345",+1 760-244-8004,https://www.7-eleven.com/locations/ca/hesperia/15760-ranchero-rd-39978,34.3838462,-117.3190402,,,n_13051328191,"shop=convenience, brand=7-Eleven"
"Colton, CA",,retail,446120,Envy Waxing,"11553 Foothill Blvd,  #9 Foothill Boulevard, Rancho Cucamonga, CA, 91730",19098355583,,34.1055712,-117.5532945,,,n_13056616490,"shop=beauty, operator=Nancy"
"Colton, CA",,retail,452319,Miniso,"9749 Base Line Road, 91730",,,34.120256,-117.5924692,,,n_13064787102,shop=variety_store
"Colton, CA",,retail,452319,Family Dollar,"15385 Main Street, Hesperia, CA, 92345",,,34.4257489,-117.3278923,,,n_13074909408,"shop=variety_store, brand=Family Dollar"
"Colton, CA",,retail,445120,ampm,"14920 Main Street, Hesperia, CA, 92345",+1 714-381-1586,https://www.ampm.com/,34.4276096,-117.3381567,,,n_13074909418,"shop=convenience, brand=ampm"
"Colton, CA",,retail,445120,ampm,,,,33.8958277,-117.4909665,,,w_31965641,"shop=convenience, brand=ampm, operator=ampm"
"Colton, CA",,retail,452210,Kohl's,"27540 West Lugonia Avenue, Redlands, CA, 92374",+1 909-307-2056,https://www.kohls.com/stores/ca/redlands-631.shtml,34.073261,-117.2028192,,,w_34316413,"shop=department_store, brand=Kohl's"
"Colton, CA",,retail,445110,Stater Bros.,"1536 Barton Road, Redlands, CA, 92373",+1 909-798-0072,https://www.staterbros.com/stores/112,34.0482709,-117.2071275,,,w_34321604,"shop=supermarket, brand=Stater Bros."
"Colton, CA",,retail,445110,Ralphs,"12201 Highland Avenue, Etiwanda, CA, 91739",+1 909-646-9356,https://www.ralphs.com/stores/grocery/ca/rancho-cucamonga/day-creek-village/703/00700,34.135028,-117.5393458,,,w_41939516,"shop=supermarket, brand=Ralphs"
"Colton, CA",,retail,445310,,,,,34.1063497,-117.5938985,,,w_46137182,shop=alcohol
"Colton, CA",,retail,452210,Target,"4200 4th Street, Ontario, CA, 91764",+1 909-579-3040,https://www.target.com/sl/ontario/2245,34.075243,-117.5614203,,,w_46141598,"shop=department_store, brand=Target"
"Colton, CA",,retail,452210,Target,"27420 West Lugonia Avenue, Redlands, CA, 92374-2041",+1 909-307-1602,https://www.target.com/sl/redlands/1869,34.0723837,-117.2075272,,,w_46933038,"shop=department_store, brand=Target"
"Colton, CA",,retail,445110,Ralphs,"7243 Haven Avenue, Rancho Cucamonga, CA, 91701",+1 909-944-4838,https://www.ralphs.com/stores/details/703/00717,34.1225927,-117.5733121,,,w_62145704,"shop=supermarket, brand=Ralphs"
"Colton, CA",,retail,445120,ampm,,,,33.7745834,-117.4874196,,,w_79157366,"shop=convenience, brand=ampm"
"Colton, CA",,retail,452210,Target,"3520 Tyler Street, Riverside, CA, 92503-4103",+1 951-351-8271,https://www.target.com/sl/riverside/212,33.9062554,-117.4598538,,,w_79785977,"shop=department_store, brand=Target"
"Colton, CA",,retail,445110,Northgate Market,,,,33.9123283,-117.4639772,,,w_79785981,shop=supermarket
"Colton, CA",,retail,445120,Arco,,,,33.8794322,-117.6008197,,,w_97078788,"shop=convenience, amenity=fuel, brand=Arco"
"Colton, CA",,retail,452210,Ross,"10744 Foothill Boulevard, Rancho Cucamonga, CA, 91730",+1 909-466-9811,,34.1090131,-117.5703542,,,w_100225664,"shop=department_store, brand=Ross"
"Colton, CA",,retail,452210,Target,"10576 Foothill Boulevard, Rancho Cucamonga, CA, 91730",+1 909-948-9952,https://www.target.com/sl/rancho-cucamonga/301,34.1087783,-117.5742792,,,w_100225706,"shop=department_store, brand=Target"
"Colton, CA",,retail,452210,Burlington,"1520 Industrial Park Avenue, Redlands, CA, 92374",+1 909-748-6803,https://stores.burlington.com/ca/redlands/777,34.0656399,-117.2060596,,,w_102238078,"shop=department_store, brand=Burlington"
"Colton, CA",,retail,446110,CVS Pharmacy,,,,34.0633064,-117.2039715,,,w_102238092,"shop=chemist, brand=CVS Pharmacy"
"Colton, CA",,retail,452210,Target,"27100 Eucalyptus Avenue, Moreno Valley, CA, 92555",+1 951-571-8014,https://www.target.com/sl/moreno-valley-east/2309,33.9380129,-117.1896229,,,w_105081867,"shop=department_store, brand=Target, operator=Target"
"Colton, CA",,retail,445230,Fresh Oranges,,,,34.0453634,-117.1591102,,,w_111562510,shop=greengrocer
"Colton, CA",,retail,445230,Gless Ranch,"19985 Van Buren Boulevard, Riverside, 92508",,,33.8884814,-117.3169941,,,w_118135165,shop=greengrocer
"Colton, CA",,retail,445110,Maxi Foods Market,,,,33.9830605,-117.3788607,,,w_118725902,shop=supermarket
"Colton, CA",,retail,445120,7-Eleven,"12750 Main Street, Hesperia, CA, 92344",+1 800-255-0711,https://www.7-eleven.com/locations/ca/hesperia/12750-main-st-43099,34.4272698,-117.38451,,,w_121951884,"shop=convenience, brand=7-Eleven"
"Colton, CA",,retail,445120,America's Fuel Depot,"12720 Main Street, Hesperia, CA, 92344",,,34.4270011,-117.3857105,,,w_121951891,shop=convenience
"Colton, CA",,retail,445110,Albertsons,"8938 Trautwein Road, Riverside, CA, 92508",+1 951-656-6603,https://local.albertsons.com/ca/riverside/8938-trautwein-rd.html,33.8902499,-117.3228481,,,w_124563432,"shop=supermarket, brand=Albertsons"
"Colton, CA",,retail,452210,Kohl's,"19260 Van Buren Boulevard, Riverside, CA, 92508",+1 951-780-0785,https://www.kohls.com/stores/ca/riverside-603.shtml,33.8891057,-117.3273083,,,w_124676178,"shop=department_store, brand=Kohl's"
"Colton, CA",,retail,446110,Walgreens,,,https://www.walgreens.com/locator/walgreens-8917+trautwein+rd-riverside-ca-92508/id=7786,33.8889062,-117.3249526,,,w_124676184,"shop=chemist, brand=Walgreens"
"Colton, CA",,retail,445120,Shell,"13100 Main Street, Hesperia, CA, 92345",+1 760-947-6411,https://find.shell.com/us/fuel/10006319-13100-main-st/en_US,34.4273333,-117.3770426,,,w_124953404,"shop=convenience, brand=Shell"
"Colton, CA",,retail,446110,Walgreens,"17383 Main Street, Hesperia, CA, 92345",,https://www.walgreens.com/locator/walgreens-17383+main+st-hesperia-ca-92345/id=2223,34.4181882,-117.2838551,,,w_129035626,"shop=chemist, brand=Walgreens"
"Colton, CA",,retail,446110,Rite Aid,"17441 Main Street, Hesperia, CA, 92345",,https://www.riteaid.com/locations/ca/hesperia/17441-main-street.html,34.4179047,-117.282657,,,w_129035629,"shop=chemist, brand=Rite Aid"
"Colton, CA",,retail,445110,Smart & Final,"4200 Chino Hills Parkway, 91709",,https://local.vons.com/ca/chino-hills-2597.html,33.9839642,-117.7123912,,,w_130006155,"shop=supermarket, brand=Smart & Final"
"Colton, CA",,retail,445110,Vons,"550 East Baseline Road, Claremont, CA, 91711",+1 909-621-4644,https://local.vons.com/ca/claremont/550-e-baseline-rd.html,34.1207392,-117.7059732,,,w_130006477,"shop=supermarket, brand=Vons"
"Colton, CA",,retail,445110,Vons,"11800 De Palma Road, Temescal Valley, CA, 92883",+1 951-603-0809,https://local.vons.com/ca/temescal-valley/11800-de-palma-rd.html,33.7474233,-117.4531732,,,w_130007118,"shop=supermarket, brand=Vons"
"Colton, CA",,retail,445110,Vons,"369 Magnolia Avenue, Corona, CA, 92879",+1 951-549-1900,https://local.vons.com/ca/corona/369-magnolia-ave.html,33.8545593,-117.5656652,,,w_130007384,"shop=supermarket, brand=Vons"
"Colton, CA",,retail,445110,Vons,"535 North Mckinley Street, Corona, CA, 92879",+1 951-278-8012,https://local.vons.com/ca/corona/535-n-mckinley-st.html,33.8914363,-117.5201353,,,w_130007813,"shop=supermarket, brand=Vons"
"Colton, CA",,retail,445110,Vons,"7390 Cherry Avenue, Fontana, CA, 92336",+1 909-429-3928,https://local.vons.com/ca/fontana/7390-cherry-ave.html,34.1198545,-117.4904199,,,w_131505634,"shop=supermarket, brand=Vons"
"Colton, CA",,retail,445110,Vons,"17390 Main Street, 92345",,https://local.vons.com/ca/hesperia-2371.html,34.4204375,-117.2832937,,,w_131541451,"shop=supermarket, brand=Vons"
"Colton, CA",,retail,445110,Vons,"6170 Hamner Avenue, Mira Loma, CA, 91752",+1 951-360-1901,https://local.vons.com/ca/mira-loma/6170-hamner-ave.html,33.9765238,-117.5577043,,,w_132684732,"shop=supermarket, brand=Vons"
"Colton, CA",,retail,452210,Marshalls,,,,34.0692493,-117.2106873,,,w_132725191,"shop=department_store, brand=Marshalls"
"Colton, CA",,retail,445120,Chevron,,,,34.0631398,-117.2080336,,,w_132768604,"shop=convenience, brand=Chevron"
"Colton, CA",,retail,452319,99 Cents Only Stores,,,,34.0636712,-117.2121363,,,w_132768616,"shop=variety_store, brand=99 Cents Only Stores"
"Colton, CA",,retail,445110,Vons,"8778 19TH Street, Rancho Cucamonga, CA, 91701",+1 909-989-1000,https://local.vons.com/ca/rancho-cucamonga/8778-19th-st.html,34.1335491,-117.6145193,,,w_132908425,"shop=supermarket, brand=Vons"
"Colton, CA",,retail,445110,Vons,"6351 Haven Avenue, Alta Loma, CA, 91737",+1 909-980-4277,https://local.vons.com/ca/rancho-cucamonga/6351-haven-ave.html,34.1386544,-117.574085,,,w_132908589,"shop=supermarket, brand=Vons"
"Colton, CA",,retail,445110,Vons,"522 Orange Street, Redlands, CA, 92374",+1 909-793-0447,https://local.vons.com/ca/redlands/522-n-orange-st.html,34.0599949,-117.1809899,,,w_132910359,"shop=supermarket, brand=Vons"
"Colton, CA",,retail,445110,Vons,"3520 Riverside Plaza Drive, Riverside, CA, 92506",+1 951-342-7924,https://local.vons.com/ca/riverside/3520-riverside-plaza.html,33.954656,-117.3895196,,,w_132978568,"shop=supermarket, brand=Vons"
"Colton, CA",,retail,445110,Cardenas,"3840 La Sierra Ave, 92505",,,33.9041017,-117.478606,,,w_132979433,"shop=supermarket, brand=Cardenas"
"Colton, CA",,retail,445110,Vons,"82 West Foothill Boulevard, Upland, CA, 91786",+1 909-981-7709,https://local.vons.com/ca/upland/81-w-foothill-blvd.html,34.1083324,-117.652838,,,w_133778344,"shop=supermarket, brand=Vons"
"Colton, CA",,retail,452210,Target,"15272 Summit Avenue, Fontana, CA, 92336",+1 909-463-9872,https://www.target.com/sl/fontana-north/1958,34.1526106,-117.4724869,,,w_133828007,"shop=department_store, brand=Target"
"Colton, CA",,retail,445110,Ralphs,"16225 Sierra Lakes Parkway, Fontana, CA, 92336",+1 909-357-2525,https://www.ralphs.com/stores/grocery/ca/fontana/sierra-lakes-village/703/00113,34.1376872,-117.450548,,,w_133828036,"shop=supermarket, brand=Ralphs"
"Colton, CA",,retail,445120,7-Eleven,,,https://www.7-eleven.com/locations/ca/fontana/16975-sierra-lakes-ave-34470,34.1391632,-117.4344909,,,w_133828074,"shop=convenience, brand=7-Eleven"
"Colton, CA",,retail,445110,Vons,"33644 Yucaipa Boulevard, Yucaipa, CA, 92399",+1 909-797-7052,https://local.vons.com/ca/yucaipa/33644-yucaipa-blvd.html,34.0353939,-117.070136,,,w_133957909,"shop=supermarket, brand=Vons"
"Colton, CA",,retail,452319,Dollar Tree,,,,33.9169775,-117.4551744,,,w_138392363,"shop=variety_store, brand=Dollar Tree"
"Colton, CA",,retail,452319,Dollar Tree,,,https://www.dollartree.com/locations/ca/riverside/2977/,33.9086219,-117.45962,,,w_138676221,"shop=variety_store, brand=Dollar Tree"
"Colton, CA",,retail,445120,Rocket,,,,33.9431385,-117.4546136,,,w_143012871,"shop=convenience, brand=Rocket"
"Colton, CA",,retail,445110,Ralphs,"12660 Limonite, Eastvale, CA, 92880",+1 951-734-1087,https://www.ralphs.com/stores/grocery/ca/eastvale/eastvale/703/00045,33.9740296,-117.5603587,,,w_160011271,"shop=supermarket, brand=Ralphs"
"Colton, CA",,retail,453991,Quality Tobacco Smoke Shop,,,,33.9192962,-117.4490125,,,w_186995684,shop=tobacco
"Colton, CA",,retail,445310,Riverside Liquor,,,,33.917569,-117.4507509,,,w_186995778,shop=alcohol
"Colton, CA",,retail,445120,On Z Run Market,,,,33.9212976,-117.4456282,,,w_186995849,shop=convenience
"Colton, CA",,retail,452210,Goody's,,,,33.9272718,-117.4513055,,,w_186996271,"shop=department_store, brand=Goody's"
"Colton, CA",,retail,445110,Stater Bros.,"9225 Magnolia Avenue, Riverside, CA, 92503",+1 951-343-2568,https://www.staterbros.com/stores/1,33.9239098,-117.4419333,,,w_187122964,"shop=supermarket, brand=Stater Bros."
"Colton, CA",,retail,445310,Cavalier Liquor,,,,33.9166502,-117.4656618,,,w_187561006,shop=alcohol
"Colton, CA",,retail,445110,Smart & Final,,,,33.9168778,-117.4649894,,,w_187561007,"shop=supermarket, brand=Smart & Final"
"Colton, CA",,retail,445110,Hank's Farmer Market,,,,33.9461488,-117.4795185,,,w_189114346,shop=supermarket
"Colton, CA",,retail,445120,Cachanilla Discount,,,,33.9471775,-117.469184,,,w_189114378,shop=convenience
