Location,Search Keyword,Segment,NAICS Code,Business Name,Address,Phone Number,Website,Latitude,Longitude,Rating,User Ratings,Place ID,Types
"Citrus, CA",,retail,452319,99 Cents Only Stores,,,https://locations.99only.com/ca/losangeles/discount-store-125.html,34.1153033,-118.1828915,,,n_86588346,"shop=variety_store, brand=99 Cents Only Stores"
"Citrus, CA",,retail,445110,99 Ranch Market,"140 West Valley Boulevard, 91776",6263078899,https://99ranch.com/,34.0776395,-118.100828,,,n_270042537,"shop=supermarket, brand=99 Ranch Market"
"Citrus, CA",,retail,445110,168 Market,1421 East Valley Boulevard,+1 (626) 282-5168,https://www.168markets.com/,34.080386,-118.1099551,,,n_339046430,shop=supermarket
"Citrus, CA",,retail,445110,168 Market,"933 East Las Tunas Drive, San Gabriel, CA, 91776",+1 (626) 285-5168,https://www.168markets.com/,34.1045388,-118.0873216,,,n_339047662,shop=supermarket
"Citrus, CA",,retail,445310,Library Liquor,"8145 Arroyo Drive, Rosemead, CA, 91770",,,34.0425682,-118.0924814,,,n_343192253,shop=alcohol
"Citrus, CA",,retail,445110,Sprouts Farmers Market,"1011 North San Fernando Boulevard, Burbank, CA, 91504",+1 818-566-4089,https://www.sprouts.com/store/ca/burbank/n-san-fernando-blvd/,34.1869185,-118.3187822,,,n_344727062,"shop=supermarket, brand=Sprouts Farmers Market, operator=Sprouts"
"Citrus, CA",,retail,445110,Mitsuwa Marketplace,515 West Las Tunas Drive,+1 (626) 457-2899,https://mitsuwa.com/sg/,34.1027317,-118.106821,,,n_347054514,"shop=supermarket, brand=Mitsuwa Marketplace"
"Citrus, CA",,retail,446110,Walgreens,,,,34.0981831,-118.3268991,,,n_349339593,"shop=chemist, brand=Walgreens"
"Citrus, CA",,retail,445120,7-Eleven,"17620 Bellflower Boulevard, Bellflower, CA, 90706",+1 562-925-1687,https://www.7-eleven.com/locations/ca/bellflower/17620-bellflower-blvd-33283,33.8722174,-118.1249447,,,n_361335403,"shop=convenience, brand=7-Eleven, operator=7-11"
"Citrus, CA",,retail,452210,Big Lots,,,,33.8527457,-118.1432361,,,n_361337618,"shop=department_store, brand=Big Lots, operator=Big Lots"
"Citrus, CA",,retail,452210,Target,"317 Colorado Street, Glendale, CA, 91204",+1 818-334-1400,https://www.target.com/sl/glendale/2307,34.1429497,-118.258652,,,n_373075520,"shop=department_store, brand=Target"
"Citrus, CA",,retail,445310,Ten Ren Tea 天仁茗茶,"154 West Valley Boulevard, CA, 91776",,,34.0794676,-118.1019955,,,n_392203901,shop=beverages
"Citrus, CA",,retail,452319,Claro's Italian Market,,,,34.0806137,-118.0862094,,,n_402945367,shop=general
"Citrus, CA",,retail,446110,CVS Pharmacy,"816 East Main Street, Alhambra, CA, 91801",+1 (626) 293-5750,https://www.cvs.com/store-locator/alhambra-ca-pharmacies/816-e-main-street-alhambra-ca-91801/storeid=3968,34.0988488,-118.1178678,,,n_408560416,"shop=chemist, brand=CVS Pharmacy"
"Citrus, CA",,retail,445120,Famima,,,,34.0487063,-118.2584697,,,n_470868191,shop=convenience
"Citrus, CA",,retail,445120,Famima,,,,34.0520632,-118.2509637,,,n_470881984,shop=convenience
"Citrus, CA",,retail,445110,Ralphs,"645 West 9th Street, Los Angeles, CA, 90015",+1 213-452-0840,https://www.ralphs.com/stores/grocery/ca/los-angeles/9th-flower/703/00022,34.0455899,-118.2608354,,,n_470894217,"shop=supermarket, brand=Ralphs"
"Citrus, CA",,retail,445110,Ralphs,"915 South Brookhurst Street, Anaheim, CA, 92804",+1 714-635-3670,https://www.ralphs.com/stores/grocery/ca/anaheim/brookhurst-sc/703/00296,33.819545,-117.9601612,,,n_471293427,"shop=supermarket, brand=Ralphs"
"Citrus, CA",,retail,445110,Stater Bros.,"610 South Brookhurst Street, Anaheim, CA, 92804",+1 714-774-3933,https://www.staterbros.com/stores/166,33.8242583,-117.9579726,,,n_471293428,"shop=supermarket, brand=Stater Bros."
"Citrus, CA",,retail,445120,7-Eleven,"10488 Valley View Street, Buena Park, CA, 90620-4450",+1 714-826-4912,https://www.7-eleven.com/locations/ca/buena-park/10488-valley-view-st-25600,33.8102175,-118.0278216,,,n_471299654,"shop=convenience, brand=7-Eleven"
"Citrus, CA",,retail,452210,Ross,"5635 Woodruff Avenue, Lakewood, CA, 90713",+1 562-866-9753,,33.8595091,-118.1182893,,,n_500594533,"shop=department_store, brand=Ross"
"Citrus, CA",,retail,452319,99 Cents Only Stores,"1617 North Hacienda Boulevard, La Puente, CA, 91744",+1-626-918-6699,https://locations.99only.com/ca/lapuente/discount-store-56.html,34.0495307,-117.9472794,,,n_509864872,"shop=variety_store, brand=99 Cents Only Stores"
"Citrus, CA",,retail,446120,Natural Nails & Spa,"12223 Highland Ave, Etiwanda, CA, 91739",+1 909 463 7039,,34.1342399,-117.5385525,,,n_519579477,shop=beauty
"Citrus, CA",,retail,445120,Arrow Liquor,,,,34.1015596,-117.7933772,,,n_537193217,shop=convenience
"Citrus, CA",,retail,445120,The Copper Lamp,,,,34.1514994,-118.0036145,,,n_539321032,shop=convenience
"Citrus, CA",,retail,445120,7-Eleven,"400 West Foothill, Monrovia, CA, 91016-2026",+1 626-358-5112,https://www.7-eleven.com/locations/ca/monrovia/400-w-foothill-20295,34.1508814,-118.0078632,,,n_539321036,"shop=convenience, brand=7-Eleven"
"Citrus, CA",,retail,445120,Arco,,,,33.9894323,-118.063985,,,n_556218782,"shop=convenience, amenity=fuel, brand=Arco"
"Citrus, CA",,retail,445120,7-Eleven,"2410 South Fullerton Road, Rowland Heights, CA, 91748-4414",+1 626-912-7506,https://www.7-eleven.com/locations/ca/rowland-heights/2410-s-fullerton-rd-20434,33.9760544,-117.9094003,,,n_560374099,"shop=convenience, brand=7-Eleven"
"Citrus, CA",,retail,445120,Chevron,,,,33.9766237,-117.909158,,,n_560374100,"shop=convenience, amenity=fuel;atm, brand=Chevron"
"Citrus, CA",,retail,445120,Mobil,,,,34.0366255,-118.038132,,,n_565329534,"shop=convenience, amenity=fuel, brand=Mobil"
"Citrus, CA",,retail,445120,Shell,,,,34.0782779,-118.123268,,,n_576992706,"shop=convenience, amenity=fuel, brand=Shell"
"Citrus, CA",,retail,445292,See's Candies,,,,34.0780501,-118.1137876,,,n_577032093,"shop=confectionery, brand=See's Candies"
"Citrus, CA",,retail,445110,Cali Mart,,,,34.0783087,-118.1131332,,,n_577032096,shop=supermarket
"Citrus, CA",,retail,445120,7-Eleven,"10008 Valley Boulevard, El Monte, CA, 91731-1702",+1 626-579-0659,https://www.7-eleven.com/locations/ca/el-monte/10008-valley-blvd-25625,34.0784233,-118.0526223,,,n_579354911,"shop=convenience, brand=7-Eleven"
"Citrus, CA",,retail,445120,76,"10243 Valley Boulevard, El Monte, CA, 91731",,,34.0770355,-118.0468226,,,n_579354925,"shop=convenience, amenity=fuel, brand=76"
"Citrus, CA",,retail,445120,76,,,https://www.76.com/station/U76-AMERICAN-ROYAL-PETROLEUM-INC-0000888990/,34.0514289,-118.000031,,,n_580751411,"shop=convenience, amenity=fuel, brand=76"
"Citrus, CA",,retail,445120,Shell,,,,34.0348258,-117.97527,,,n_580751561,"shop=convenience, amenity=fuel, brand=Shell"
"Citrus, CA",,retail,445120,,,,,34.0599944,-118.1727227,,,n_583031847,"shop=convenience, amenity=fuel, brand=Mobil"
"Citrus, CA",,retail,446110,CVS Pharmacy,"102 North San Gabriel Boulevard, San Gabriel, CA, 91775",+1 (626) 237-2054,https://www.cvs.com/store-locator/san-gabriel-ca-pharmacies/102-n-san-gabriel-blvd-san-gabriel-ca-91775/storeid=9160,34.1037572,-118.0903874,,,n_585201675,"shop=chemist, brand=CVS Pharmacy"
"Citrus, CA",,retail,445120,Circle K,,,,34.1219656,-117.592998,,,n_588149661,"shop=convenience, amenity=fuel, brand=Circle K"
"Citrus, CA",,retail,445110,Stater Bros.,"9750 19th Street, Rancho Cucamonga, CA, 91737",+1 909-989-4908,https://www.staterbros.com/stores/78,34.1341172,-117.5925666,,,n_588149667,"shop=supermarket, brand=Stater Bros."
"Citrus, CA",,retail,452210,Burlington,"4777 Mills Circle, Ontario, CA, 91764-5200",+1 909-481-0421,https://stores.burlington.com/ca/ontario/274,34.0738835,-117.548736,,,n_588191790,"shop=department_store, brand=Burlington"
"Citrus, CA",,retail,445120,Shell,,,,34.0765628,-117.550721,,,n_588191797,"shop=convenience, amenity=fuel, brand=Shell"
"Citrus, CA",,retail,445120,Chevron,,,,34.0767726,-117.545882,,,n_588191815,"shop=convenience, amenity=fuel, brand=Chevron"
"Citrus, CA",,retail,445120,76,,,,34.0316582,-118.153439,,,n_607813307,"shop=convenience, amenity=fuel, brand=76"
"Citrus, CA",,retail,445120,76,"3501 3rd St, Los Angeles, CA, 90004",,,34.0692525,-118.291986,,,n_608957448,"shop=convenience, amenity=fuel, brand=76"
"Citrus, CA",,retail,445120,7-Eleven,"265 South Kingsley Drive, Los Angeles, CA, 90004-4307",+1 213-387-8993,https://www.7-eleven.com/locations/ca/los-angeles/265-south-kingsley-dr-15964,34.0692294,-118.3033681,,,n_609065230,"shop=convenience, brand=7-Eleven"
"Citrus, CA",,retail,445120,,,,,34.0719018,-118.2213266,,,n_614037517,shop=convenience
"Citrus, CA",,retail,445120,76,,,https://www.76.com/station/U76-DBA-BROADWAY-OIL-176-0000904545/,34.0729235,-118.220036,,,n_614037522,"shop=convenience, amenity=fuel, brand=76"
"Citrus, CA",,retail,445120,Shell,,,,34.0735162,-118.207495,,,n_614042926,"shop=convenience, amenity=fuel, brand=Shell"
"Citrus, CA",,retail,445120,Shell,,,,34.0859145,-118.187944,,,n_614131294,"shop=convenience, amenity=fuel, brand=Shell"
"Citrus, CA",,retail,445110,Hankook Korean Market,,,,34.2295029,-118.2480204,,,n_617849838,shop=supermarket
"Citrus, CA",,retail,445120,,,,,34.2160448,-118.2395444,,,n_617854895,shop=convenience
"Citrus, CA",,retail,445110,Ralphs,"2675 Foothill Boulevard, La Crescenta, CA, 91214",+1 818-249-5448,https://www.ralphs.com/stores/grocery/ca/la-crescenta/crescenta-plaza/703/00001,34.2232947,-118.236819,,,n_617855272,"shop=supermarket, brand=Ralphs"
"Citrus, CA",,retail,445110,Lotte Market,,,,34.21619,-118.2239344,,,n_617872067,shop=supermarket
"Citrus, CA",,retail,445110,Ralphs,"160 Lake Avenue, Pasadena, CA, 91101",+1 626-793-0531,https://www.ralphs.com/stores/grocery/ca/pasadena/lake/703/00096,34.1489747,-118.1313255,,,n_618441755,"shop=supermarket, brand=Ralphs"
"Citrus, CA",,retail,445292,The Chocolate Box,,,,34.1159845,-118.1515151,,,n_624873852,shop=confectionery
"Citrus, CA",,retail,445120,Alameda Fuel,,,,33.888908,-118.2196673,,,n_630044934,"shop=convenience, amenity=fuel"
"Citrus, CA",,retail,452210,Ross,"3425 East Foothill Boulevard, Pasadena, CA, 91107",+1 626-351-5334,,34.1505768,-118.0803385,,,n_663913193,"shop=department_store, brand=Ross"
"Citrus, CA",,retail,445120,Valero,,,,33.8745344,-118.203172,,,n_701702656,"shop=convenience, amenity=fuel, brand=Valero"
"Citrus, CA",,retail,445120,Mobil,,,,34.0110129,-118.081246,,,n_728122630,"shop=convenience, amenity=fuel, brand=Mobil"
"Citrus, CA",,retail,452319,Dollar Tree,,,https://www.dollartree.com/locations/ca/monterey-park/3255/,34.0364137,-118.1307896,,,n_734166573,"shop=variety_store, brand=Dollar Tree"
"Citrus, CA",,retail,453110,,,,,34.037653,-118.1299743,,,n_734166603,shop=florist
"Citrus, CA",,retail,445110,Alta Dena Dairy,,,,34.0374542,-118.1300462,,,n_734167101,shop=grocery
"Citrus, CA",,retail,445310,Country Liquor,,,,34.0553818,-118.1254226,,,n_734684802,shop=alcohol
"Citrus, CA",,retail,446110,Garfield Professional Medical Building,"616 Garfield Ave, Monterey Park, CA, 91754",,,34.0691454,-118.122681,,,n_738178802,"shop=chemist, amenity=doctors"
"Citrus, CA",,retail,445120,Arco,,,,34.0520505,-118.063948,,,n_740421419,"shop=convenience, amenity=fuel, brand=Arco"
"Citrus, CA",,retail,445120,Shell,,,,34.0515189,-118.064693,,,n_740421459,"shop=convenience, amenity=fuel, brand=Shell"
"Citrus, CA",,retail,445110,Siêu Thi Thuân Phát El Monte Superstore,"2650 Rosemead Blvd, South El Monte, CA, 91733",,,34.059963,-118.063463,,,n_740421460,shop=supermarket
"Citrus, CA",,retail,445120,Mobil,,,,34.0629899,-118.065148,,,n_740421733,"shop=convenience, amenity=fuel, brand=Mobil"
"Citrus, CA",,retail,445120,7-Eleven,"6262 Rosemead Boulevard, Temple City, CA, 91780",+1 626-292-5834,https://www.7-eleven.com/locations/ca/temple-city/6262-rosemead-blvd-34630,34.113062,-118.0733063,,,n_741072304,"shop=convenience, brand=7-Eleven"
"Citrus, CA",,retail,445120,Chevron,,,,34.0328191,-117.575212,,,n_747641212,"shop=convenience, amenity=fuel, brand=Chevron"
"Citrus, CA",,retail,445120,Cecy's Market,,,,34.0951193,-118.300791,,,n_757182297,shop=convenience
"Citrus, CA",,retail,445120,La Providencia Market,"4532 Fountain Avenue, Los Angeles, CA, 90029",,,34.0955913,-118.2876342,,,n_757239551,shop=convenience
"Citrus, CA",,retail,445110,El C Lollo Meat Market,,,,34.0769216,-118.275498,,,n_757327034,shop=supermarket
"Citrus, CA",,retail,452319,Dollar Tree,,,https://www.dollartree.com/locations/ca/los-angeles/5490/,34.0865443,-118.186499,,,n_757759930,"shop=variety_store, brand=Dollar Tree"
"Citrus, CA",,retail,445110,Del Mar Foods,,,,34.0620933,-118.0986244,,,n_771567447,shop=supermarket
"Citrus, CA",,retail,445110,Arcadia Supermarket,,,,34.1272822,-118.0530946,,,n_774192247,shop=supermarket
"Citrus, CA",,retail,445110,Grocery Outlet,"520 Workman Mill Rd, La Puente, CA, 91746",,,34.0398355,-117.997761,,,n_780633184,"shop=supermarket, brand=Grocery Outlet"
"Citrus, CA",,retail,445110,T.S. Emporium,,,,34.0623032,-118.1236641,,,n_803017370,shop=supermarket
"Citrus, CA",,retail,445110,Hawaii Supermarket,"120 East Valley Boulevard, 91776",6263070062,https://hawaii-supermarket.com/,34.0792536,-118.0988599,,,n_805610612,shop=supermarket
"Citrus, CA",,retail,445110,,,,,34.0839006,-118.2137358,,,n_806649036,shop=grocery
"Citrus, CA",,retail,445120,76,,,https://www.76.com/station/U76-LA-PALMA-GAS-STATION-INC-0000804934/,33.855871,-117.83775,,,n_814446945,"shop=convenience, amenity=fuel, brand=76"
"Citrus, CA",,retail,445110,Super A Foods,,,,34.1012115,-118.0750065,,,n_846262878,shop=supermarket
"Citrus, CA",,retail,445110,Smart & Final,401 North Fair Oaks Avenue,,,34.1527364,-118.1509388,,,n_852777077,"shop=supermarket, brand=Smart & Final"
"Citrus, CA",,retail,452210,Burlington,,,,34.1257216,-118.055214,,,n_856085038,"shop=department_store, brand=Burlington"
"Citrus, CA",,retail,445120,7-Eleven,"1003 South Baldwin Avenue, Arcadia, CA, 91007-7235",+1 626-445-3777,https://www.7-eleven.com/locations/ca/arcadia/1003-s-baldwin-ave-17565,34.128606,-118.0550447,,,n_856085047,"shop=convenience, brand=7-Eleven"
"Citrus, CA",,retail,445120,American Gas - Mini Mart,,,,34.0988332,-118.0507293,,,n_857725076,"shop=convenience, amenity=fuel"
"Citrus, CA",,retail,445120,Baldwin Gas & Food Mart,,,,34.0904634,-118.0485115,,,n_857725109,"shop=convenience, amenity=fuel"
"Citrus, CA",,retail,445120,7-Eleven,"3243 Santa Anita Avenue, El Monte, CA, 91733-1372",+1 626-442-7410,https://www.7-eleven.com/locations/ca/el-monte/3243-santa-anita-ave-16020,34.0672914,-118.0427725,,,n_857781265,"shop=convenience, brand=7-Eleven"
"Citrus, CA",,retail,445120,,,,,34.0657294,-118.0428833,,,n_857781288,shop=convenience
"Citrus, CA",,retail,445120,Mobil,,,,34.0408761,-118.049496,,,n_858012926,"shop=convenience, amenity=fuel, brand=Mobil"
"Citrus, CA",,retail,445120,Chevron,,,,34.0166542,-118.078574,,,n_859558838,"shop=convenience, amenity=fuel, brand=Chevron"
"Citrus, CA",,retail,445120,76,,,https://www.76.com/station/U76-APRO-LLC-254867-0000901027/,34.0018481,-118.084216,,,n_859559022,"shop=convenience, amenity=fuel, brand=76"
"Citrus, CA",,retail,445110,Food 4 Less,,,,34.0018252,-118.0883925,,,n_859559131,"shop=supermarket, brand=Food 4 Less"
"Citrus, CA",,retail,452210,Marshalls,,,,33.9823687,-118.099241,,,n_862963225,"shop=department_store, brand=Marshalls"
"Citrus, CA",,retail,452319,Five Below,,+1 562-222-1715,https://locations.fivebelow.com/ca/pico-rivera/8850-washington-blvd,33.9827108,-118.099901,,,n_862963274,"shop=variety_store, brand=Five Below"
"Citrus, CA",,retail,445120,Arco,,,,33.9967604,-118.124236,,,n_864089059,"shop=convenience, amenity=fuel, brand=Arco"
"Citrus, CA",,retail,445120,7-Eleven,"2150 South Fremont Avenue, Alhambra, CA, 91803-4315",+1 626-282-8378,https://www.7-eleven.com/locations/ca/alhambra/2150-s-fremont-ave-18394,34.0680467,-118.1491595,,,n_878924549,"shop=convenience, brand=7-Eleven"
"Citrus, CA",,retail,445110,Albertsons,"2035 Hillhurst Avenue, Los Angeles, CA, 90027",+1 323-660-0687,https://local.albertsons.com/ca/los-angeles/2035-hillhurst-ave.html,34.1088413,-118.287919,,,n_902322532,"shop=supermarket, brand=Albertsons"
"Citrus, CA",,retail,445120,7-Eleven,"4650 Franklin Avenue, Los Angeles, CA, 90027-4202",+1 323-660-7028,https://www.7-eleven.com/locations/ca/los-angeles/4650-franklin-ave-25599,34.105215,-118.2913752,,,n_902322542,"shop=convenience, brand=7-Eleven"
"Citrus, CA",,retail,445110,Jon's Marketplace,,,,34.1001798,-118.2926464,,,n_902322555,shop=supermarket
"Citrus, CA",,retail,452210,JCPenney,,,,34.1440551,-118.259183,,,n_928701152,"shop=department_store, brand=JCPenney"
"Citrus, CA",,retail,446110,Walgreens,"1625 West Sunset Boulevard, Los Angeles, CA, 90026",,https://www.walgreens.com/locator/walgreens-1625+w+sunset+blvd-los+angeles-ca-90026/id=9136,34.0776127,-118.2575936,,,n_933350506,"shop=chemist, brand=Walgreens"
"Citrus, CA",,retail,445110,Ralphs,"3601 East Foothill Boulevard, Pasadena, CA, 91107",+1 626-351-8806,https://www.ralphs.com/stores/grocery/ca/pasadena/foothill-rosemead-plaza/703/00730,34.1512877,-118.07553,,,n_934134981,"shop=supermarket, brand=Ralphs"
"Citrus, CA",,retail,445120,7-Eleven,"601 South Fremont Avenue, Alhambra, CA, 91803-1318",+1 626-570-1224,https://www.7-eleven.com/locations/ca/alhambra/601-south-fremont-ave-17853,34.0875667,-118.1523846,,,n_936119248,"shop=convenience, brand=7-Eleven"
"Citrus, CA",,retail,445110,Trader Joe's,"610 South Arroyo Parkway, Pasadena, CA, 91105",+1 626-568-9254,https://locations.traderjoes.com/ca/pasadena/51/,34.1351342,-118.1469596,,,n_938900448,"shop=supermarket, brand=Trader Joe's"
"Citrus, CA",,retail,452210,Macy's,,,https://www.macys.com/stores/ca/arcadia/shops-at-santa-anita_482.html,34.1334304,-118.0517513,,,n_938901616,"shop=department_store, brand=Macy's"
"Citrus, CA",,retail,452210,JCPenney,,,,34.1363964,-118.0506784,,,n_938901618,"shop=department_store, brand=JCPenney"
"Citrus, CA",,retail,452210,Nordstrom,,,https://www.nordstrom.com/store-details/nordstrom-santa-anita,34.1353707,-118.0524219,,,n_938901619,"shop=department_store, brand=Nordstrom"
"Citrus, CA",,retail,452210,Target,"3121 East Colorado Boulevard, Pasadena, CA, 91107-3814",+1 626-584-2931,https://www.target.com/sl/pasadena-east/1332,34.1469237,-118.0856589,,,n_942076158,"shop=department_store, brand=Target"
"Citrus, CA",,retail,445110,Smart & Final,,,,34.1466662,-118.0832932,,,n_942076204,"shop=supermarket, brand=Smart & Final"
"Citrus, CA",,retail,445110,Buy Low Market,,,,34.0618345,-118.0524514,,,n_989105051,shop=supermarket
"Citrus, CA",,retail,445120,Adams' Pack Station,,,https://adamspackstation.com/,34.1948541,-118.0228268,,,n_989711453,"shop=convenience, operator=Maggie Moran"
"Citrus, CA",,retail,445110,GW Supermarket,"421 North Atlantic Boulevard, Monterey Park, CA, 91754",,,34.067228,-118.1348382,,,n_1011108775,shop=supermarket
"Citrus, CA",,retail,445110,Quang Hoa Super Market,350 Garvey Avenue,,,34.0623299,-118.1175646,,,n_1011125373,shop=supermarket
"Citrus, CA",,retail,445120,Grace Liquor,,,,33.9521609,-118.1873448,,,n_1013282858,shop=convenience
"Citrus, CA",,retail,445120,Toad's Liquor,,,,33.9491751,-118.1825792,,,n_1013283125,shop=convenience
"Citrus, CA",,retail,452319,99 Cents Only Stores,,,https://locations.99only.com/ca/losangeles/discount-store-63.html,34.0977284,-118.305009,,,n_1036344090,"shop=variety_store, brand=99 Cents Only Stores"
"Citrus, CA",,retail,445110,Lucy`s,,,,34.0986146,-118.311887,,,n_1036344326,shop=supermarket
"Citrus, CA",,retail,445120,Cigarettes4Less,,,,34.0985724,-118.3061042,,,n_1036344355,shop=convenience
"Citrus, CA",,retail,452319,Shims Bargain,,,,34.1146489,-118.2451856,,,n_1041279966,shop=variety_store
"Citrus, CA",,retail,445110,Vince's Market,"3250 Silver Lake Boulevard, Los Angeles, CA, 90039",(323) 664-4798,,34.1139738,-118.253779,,,n_1041279967,shop=supermarket
"Citrus, CA",,retail,445110,Smart & Final,,,,34.0879126,-118.309646,,,n_1098454659,"shop=supermarket, brand=Smart & Final"
"Citrus, CA",,retail,445110,,,,,33.9898366,-117.9346321,,,n_1106835565,shop=supermarket
"Citrus, CA",,retail,445120,Shell,,,,34.1212716,-117.907152,,,n_1109831813,"shop=convenience, amenity=fuel, brand=Shell"
"Citrus, CA",,retail,445120,7-Eleven,"281 East Pomona Boulevard, Monterey Park, CA, 91755-7237",+1 323-722-7752,https://www.7-eleven.com/locations/ca/monterey-park/281-east-pomona-blvd-17169,34.0339341,-118.1253892,,,n_1111079853,"shop=convenience, brand=7-Eleven"
"Citrus, CA",,retail,445110,Honeybaked,,,,34.1380702,-118.1011844,,,n_1113216783,shop=supermarket
"Citrus, CA",,retail,445120,Mobil,,,,34.0187781,-117.592549,,,n_1144975506,"shop=convenience, amenity=fuel, brand=Mobil"
"Citrus, CA",,retail,445110,Sprouts Farmers Market,"2245 Yosemite Drive, Los Angeles, CA, 90041",+1 323-423-1128,http://sprouts.com/store/ca/los-angeles/eagle-rock/,34.1356634,-118.216452,,,n_1145238379,"shop=supermarket, brand=Sprouts Farmers Market"
"Citrus, CA",,retail,445120,7-Eleven,,,,34.0477327,-117.576581,,,n_1145325468,"shop=convenience, amenity=fuel, brand=7-Eleven"
"Citrus, CA",,retail,445120,Baci's Vera Villa Market,,,,33.9571874,-117.6326668,,,n_1148739281,shop=convenience
"Citrus, CA",,retail,446120,Bath & Body Works,,,,34.1089201,-117.570698,,,n_1158422184,"shop=cosmetics, brand=Bath & Body Works"
"Citrus, CA",,retail,453110,T. Austin Florist,,,,34.108863,-117.5708836,,,n_1158422891,shop=florist
"Citrus, CA",,retail,445120,7-Eleven,"8118 Masi Drive, Rancho Cucamonga, CA, 91730-3902",+1 909-941-4400,https://www.7-eleven.com/locations/ca/rancho-cucamonga/8118-masi-dr-39209,34.105532,-117.5497614,,,n_1158471096,"shop=convenience, brand=7-Eleven"
"Citrus, CA",,retail,445310,,,,,34.1067504,-117.5252332,,,n_1158745841,shop=alcohol
"Citrus, CA",,retail,445110,Greenhills Market & Fast Food,,,,34.0291623,-117.6072896,,,n_1165054394,"shop=supermarket, amenity=fast_food"
"Citrus, CA",,retail,445120,Vineyard Car Wash,,,,34.0288799,-117.6104103,,,n_1165054545,"shop=convenience, amenity=car_wash;car_detail;oil_change"
"Citrus, CA",,retail,445120,Arco,"2456 Vineyard Ave, Ontario, CA, 91761",,,34.0294113,-117.611328,,,n_1165054664,"shop=convenience, brand=Arco"
"Citrus, CA",,retail,452210,FAMSA,"2446 Vineyard Ave, Ontario, CA, 91761",,,34.0294588,-117.612437,,,n_1165054700,shop=department_store
"Citrus, CA",,retail,452210,American Freight,,,,34.0294319,-117.607288,,,n_1165054768,"shop=department_store, brand=American Freight"
"Citrus, CA",,retail,445120,Arrow & Grove Market & Liquor,,,,34.0996552,-117.6283052,,,n_1167574731,shop=convenience
"Citrus, CA",,retail,445120,Cordons Market,,,,34.2133496,-118.2425138,,,n_1178385099,shop=convenience
"Citrus, CA",,retail,445110,,,,,34.2221326,-118.2491174,,,n_1178385353,shop=supermarket
"Citrus, CA",,retail,445110,Smart & Final,,,,34.2461924,-118.274765,,,n_1178385450,"shop=supermarket, brand=Smart & Final"
"Citrus, CA",,retail,452210,Sears,,,,34.1511208,-118.0708205,,,n_1210063375,"shop=department_store, brand=Sears"
"Citrus, CA",,retail,445310,Belly's West Liquor,,,,34.0776302,-118.1357283,,,n_1223355540,shop=alcohol
"Citrus, CA",,retail,445120,Chevron,,,,34.069386,-118.028137,,,n_1224094960,"shop=convenience, amenity=fuel;car_wash, brand=Chevron"
"Citrus, CA",,retail,445230,Fairfax Market,,,https://disneyland.disney.go.com/dining/disney-california-adventure/fairfax-fruit-market/,33.8077507,-117.9174254,,,n_1231986596,shop=greengrocer
"Citrus, CA",,retail,445230,Bayou Country Fruit Cart,,,https://disneyland.disney.go.com/dining/fruit/,33.8124015,-117.9219802,,,n_1231986700,shop=greengrocer
"Citrus, CA",,retail,445292,Candy Palace,215 Main Street,,https://disneyland.disney.go.com/shops/disneyland/candy-palace-kitchen/,33.8113269,-117.9191133,,,n_1231987200,shop=confectionery
"Citrus, CA",,retail,445292,Pooh Corner,,,https://disneyland.disney.go.com/shops/disneyland/pooh-corner/,33.8122578,-117.9232603,,,n_1231987202,shop=confectionery
"Citrus, CA",,retail,445310,Mint Julep Bar,15 Front Street,,https://disneyland.disney.go.com/dining/disneyland/mint-julep-bar/,33.8111728,-117.9216625,,,n_1231987358,shop=beverages
"Citrus, CA",,retail,445310,Lemonade Small World,,,,33.8137806,-117.9180498,,,n_1233368367,"shop=beverages, amenity=snack_stand"
"Citrus, CA",,retail,445120,,,,,33.8588072,-117.9596716,,,n_1233397047,shop=convenience
"Citrus, CA",,retail,445120,7-Eleven,"301 South Brookhurst Road, Fullerton, CA, 92833-3203",+1 714-447-3065,https://www.7-eleven.com/locations/ca/fullerton/301-s-brookhurst-rd-27746,33.8663531,-117.959846,,,n_1233397286,"shop=convenience, brand=7-Eleven"
"Citrus, CA",,retail,445120,,,,,33.8588406,-117.9589287,,,n_1233397300,shop=convenience
"Citrus, CA",,retail,445110,,,,,33.859883,-117.9573837,,,n_1233397827,shop=supermarket
"Citrus, CA",,retail,445120,7-Eleven,"295 West Central Avenue, Brea, CA, 92821",+1 714-529-7831,https://www.7-eleven.com/locations/ca/brea/295-west-central-24506,33.932507,-117.8989545,,,n_1234340501,"shop=convenience, brand=7-Eleven"
"Citrus, CA",,retail,445110,Ralphs,"305 West Imperial Highway, Brea, CA, 92821",+1 714-529-4505,https://www.ralphs.com/stores/grocery/ca/brea/brea-town-center/703/00192,33.9188241,-117.902639,,,n_1234340553,"shop=supermarket, brand=Ralphs"
"Citrus, CA",,retail,453991,Islands Cigar,101D West Central Avenue,,,33.9326984,-117.8942713,,,n_1234340751,shop=tobacco
"Citrus, CA",,retail,452319,99 Cents Only Stores,,,https://locations.99only.com/ca/brea/discount-store-221.html,33.9326139,-117.917016,,,n_1234350107,"shop=variety_store, brand=99 Cents Only Stores"
"Citrus, CA",,retail,453110,,,,,33.932467,-117.9015455,,,n_1234350262,shop=florist
"Citrus, CA",,retail,445120,ampm,,,,33.8184841,-117.880963,,,n_1234468325,"shop=convenience, brand=ampm"
"Citrus, CA",,retail,445292,Marceline's Confectionery,"1580 South Disneyland Drive, Anaheim, 92802",,https://disneyland.disney.go.com/shopping/marcelines-confectionery/,33.8087355,-117.9226781,,,n_1234801139,shop=confectionery
"Citrus, CA",,retail,446120,Sephora,"1570 South Disneyland Drive, Anaheim, CA, 92802",(714) 758-1700,https://www.sephora.com/happening/stores/anaheim-disneyland,33.8086141,-117.922394,,,n_1234801191,"shop=cosmetics, brand=Sephora"
"Citrus, CA",,retail,445310,Total Wine,"471 South Associated Road, Brea, CA, 92821",+1 714-672-0323,https://www.totalwine.com/store-info/1105,33.9120237,-117.8820434,,,n_1250732968,"shop=alcohol, brand=Total Wine"
"Citrus, CA",,retail,446120,Mlle. Antoinette’s Parfumerie,24 Orleans Street,,,33.8111524,-117.9214412,,,n_1256492317,shop=perfumery
"Citrus, CA",,retail,445120,7-Eleven,,,,34.1044397,-118.3296603,,,n_1274361043,"shop=convenience, brand=7-Eleven"
"Citrus, CA",,retail,445120,7-Eleven,"305 South San Gabriel Boulevard, San Gabriel, CA, 91776-1930",+1 626-545-2770,https://www.7-eleven.com/locations/ca/san-gabriel/305-s-san-gabriel-blvd-19202,34.0986889,-118.091241,,,n_1280332993,"shop=convenience, brand=7-Eleven"
"Citrus, CA",,retail,445120,Rocket,"1200 Harbor Blvd., Anaheim, CA, 92805",,,33.8175956,-117.9146396,,,n_1304346625,"shop=convenience, brand=Rocket"
"Citrus, CA",,retail,445110,Stater Bros.,"1040 East Bastanchury Road, Fullerton, CA, 92835",+1 714-257-0460,https://www.staterbros.com/stores/129,33.8983315,-117.9111323,,,n_1399431829,"shop=supermarket, brand=Stater Bros."
"Citrus, CA",,retail,445110,Grocery Outlet,"7260 N. Rosemead, 91775",,https://www.traderjoes.com/stores/index.asp,34.129108,-118.0725061,,,n_1419660412,"shop=supermarket, brand=Grocery Outlet"
"Citrus, CA",,retail,445292,Trolley Treats,2741 Buena Vista Street,,https://disneyland.disney.go.com/shops/disney-california-adventure/trolley-treats/,33.8080123,-117.9191349,,,n_1421476451,shop=confectionery
"Citrus, CA",,retail,452210,"Macy's Mens, Childern, & Furniture",,714-990-1400,https://www.macys.com/stores/ca/brea/brea-mall_524.html,33.9163225,-117.885144,,,n_1421587163,"shop=department_store, brand=Macy's"
"Citrus, CA",,retail,446120,Glen Ivy Day Spa,,,,33.9153475,-117.887365,,,n_1421587168,shop=beauty
"Citrus, CA",,retail,452210,Macy's Womens,,,,33.9148148,-117.885329,,,n_1421616628,"shop=department_store, brand=Macy's"
"Citrus, CA",,retail,452210,JCPenney,,714-671-2882,,33.9166759,-117.886911,,,n_1421616629,"shop=department_store, brand=JCPenney"
"Citrus, CA",,retail,452210,Nordstrom,,714-529-0123,https://www.nordstrom.com/store-details/nordstrom-brea-mall,33.9157764,-117.8882045,,,n_1421616637,"shop=department_store, brand=Nordstrom"
"Citrus, CA",,retail,445110,Numero Uno Market,,,,33.9598407,-118.2684904,,,n_1424377560,shop=supermarket
"Citrus, CA",,retail,445310,,,,,33.9302148,-117.8941029,,,n_1429718361,shop=alcohol
"Citrus, CA",,retail,445110,Mother's Market,,,,33.9125846,-117.8804903,,,n_1439087735,shop=supermarket
"Citrus, CA",,retail,445210,,,,,33.912589,-117.8807094,,,n_1439087736,shop=butcher
"Citrus, CA",,retail,445230,Mortimer's Market,Buena Vista Street,,https://disneyland.disney.go.com/dining/fruit/,33.8082886,-117.919092,,,n_1483210923,shop=greengrocer
"Citrus, CA",,retail,446120,LC's Beauty Salon,,,,34.073591,-118.172594,,,n_1488571342,shop=beauty
"Citrus, CA",,retail,445230,Tomorrowland Fruit Cart,,,https://disneyland.disney.go.com/dining/fruit/,33.8119787,-117.9171676,,,n_1488768779,shop=greengrocer
"Citrus, CA",,retail,445110,Sprouts Farmers Market,"735 East Birch Street, Brea, CA, 92821",+1 714-482-1000,https://www.sprouts.com/store/ca/brea/e-birch-st/,33.9189987,-117.889389,,,n_1527196023,"shop=supermarket, brand=Sprouts Farmers Market"
"Citrus, CA",,retail,445120,7-Eleven,"5827 Bellflower Boulevard, Lakewood, CA, 90713",+1 562-866-7159,https://www.7-eleven.com/locations/ca/lakewood/5827-bellflower-blvd-34913,33.8613943,-118.1254236,,,n_1579064035,"shop=convenience, brand=7-Eleven"
"Citrus, CA",,retail,445310,Mission Wines,"1114 Mission Street, 91030",,http://www.missionwines.com/,34.1159292,-118.1543211,,,n_1584184049,shop=alcohol
"Citrus, CA",,retail,446120,Pro Nails,"6112 Bellflower Boulevard, Lakewood, 90712",(562) 866-4943,www.lakewoodpronails.com,33.8660054,-118.124769,,,n_1586488976,shop=beauty
"Citrus, CA",,retail,445120,7 Day Mart,"6100 Bellflower Boulevard, Lakewood, 90712",(562) 867-6144,,33.8656912,-118.1247618,,,n_1586489008,shop=convenience
"Citrus, CA",,retail,445120,The Quarter Market,,,,34.0953863,-117.7197339,,,n_1634477787,shop=convenience
"Citrus, CA",,retail,445110,Albertson's,,,,34.1626916,-118.0690713,,,n_1666897138,shop=supermarket
"Citrus, CA",,retail,445310,Hacienda Beverage - Wine & Liquor Store,,,,33.9101716,-117.9034809,,,n_1722470076,shop=alcohol
"Citrus, CA",,retail,445110,Stater Bros.,"375 North Azusa Avenue, West Covina, CA, 91791",+1 626-915-4951,https://www.staterbros.com/stores/106,34.0771636,-117.9094934,,,n_1732625320,"shop=supermarket, brand=Stater Bros."
"Citrus, CA",,retail,452210,Kohl's,,,,34.1297738,-118.0742922,,,n_1743326182,"shop=department_store, brand=Kohl's"
"Citrus, CA",,retail,453110,Far East Florist,"401 San Gabriel Boulevard, 91776",,,34.0977763,-118.0911826,,,n_1768825339,shop=florist
"Citrus, CA",,retail,445120,,,,,34.1036485,-117.8074646,,,n_1772279897,shop=convenience
"Citrus, CA",,retail,445110,El Super,,,,34.1186297,-118.1962954,,,n_1783734628,shop=supermarket
"Citrus, CA",,retail,445120,7-Eleven,"265 West Olive Avenue, Burbank, CA, 91502-1825",+1 818-845-6011,https://www.7-eleven.com/locations/ca/burbank/265-west-olive-ave-19709,34.1741334,-118.3163101,,,n_1830100158,"shop=convenience, brand=7-Eleven"
"Citrus, CA",,retail,445120,ampm,,,,33.9103814,-117.8805438,,,n_1847715003,"shop=convenience, brand=ampm"
"Citrus, CA",,retail,445110,Trader Joe's,"1600 Vine Street, Los Angeles, CA, 90028",+1 323-856-0689,http://www.traderjoes.com/,34.1000166,-118.326466,,,n_1902175919,"shop=supermarket, brand=Trader Joe's, operator=Trader Joe's"
"Citrus, CA",,retail,445120,7-Eleven,"5905 South Street, Lakewood, CA, 90713",+1 562-461-7173,https://www.7-eleven.com/locations/ca/lakewood/5905-south-street-34473,33.858934,-118.116836,,,n_1950137470,"shop=convenience, brand=7-Eleven"
"Citrus, CA",,retail,445110,Stater Bros.,"1145 East Alosta Avenue, Azusa, CA, 91702",+1 626-335-2310,https://www.staterbros.com/stores/57,34.129528,-117.8827593,,,n_1952134910,"shop=supermarket, brand=Stater Bros."
"Citrus, CA",,retail,445292,Ara's Pastry Shop,"4945 Hollywood Boulevard, 90027",3236611116,https://legoutpastry.com/,34.1019433,-118.2974054,,,n_1956148188,shop=confectionery
"Citrus, CA",,retail,445110,Smart & Final Extra!,,,,34.1347425,-117.908062,,,n_1956746514,"shop=supermarket, brand=Smart & Final"
"Citrus, CA",,retail,445120,7-Eleven,"861 West Route 66, Glendora, CA, 91740-4136",+1 626-335-9514,https://www.7-eleven.com/locations/ca/glendora/861-w-route-66-13995,34.1294866,-117.8811447,,,n_1956746562,"shop=convenience, brand=7-Eleven"
"Citrus, CA",,retail,445110,Vons,"435 West Foothill Boulevard, Glendora, CA, 91741",+1 626-963-2913,https://local.vons.com/ca/glendora/435-w-foothill-blvd.html,34.1373253,-117.871569,,,n_1956776715,"shop=supermarket, brand=Vons"
"Citrus, CA",,retail,445110,Ralphs,"5429 Hollywood Boulevard, Los Angeles, CA, 90027",+1 323-957-6830,https://www.ralphs.com/stores/grocery/ca/los-angeles/hollywest/703/00206,34.102296,-118.3081363,,,n_1975817460,"shop=supermarket, brand=Ralphs"
"Citrus, CA",,retail,452210,Ross,"460 South Lake Avenue, Pasadena, CA, 91101",+1 626-844-0592,https://www.rossstores.com/locator.aspx?form=locator_search&addressline=pasadena,34.1379808,-118.1320437,,,n_2001906764,"shop=department_store, brand=Ross"
"Citrus, CA",,retail,453110,Jacob Maarse Florist,"655 East Green Street, Pasadena, 91101",+1 626-449-0246,https://www.facebook.com/pages/Jacob-Maarse-Florist/167874973264904,34.1446843,-118.1370552,,,n_2001906768,shop=florist
"Citrus, CA",,retail,445310,Stone Brewery Pasadena,,,,34.1417632,-118.1484188,,,n_2013850498,shop=alcohol
"Citrus, CA",,retail,445110,Galleria Market - Galleria Vermont,"440 South Vermont Avenue, Los Angeles, CA, 90020",+1-213-427-6266,,34.0655794,-118.290934,,,n_2026766420,shop=supermarket
"Citrus, CA",,retail,445310,Liquorland,,,,34.0989922,-117.8717164,,,n_2053855076,"shop=alcohol, brand=Liquorland"
"Citrus, CA",,retail,445310,,,,,34.0982351,-118.320224,,,n_2058536245,shop=alcohol
"Citrus, CA",,retail,445310,Buzz Wine Beer Shop,,,,34.0473884,-118.249404,,,n_2096809590,shop=alcohol
"Citrus, CA",,retail,452319,Dollar Tree,"5825 Bellflower Boulevard, Lakewood, CA, 90713",+1 562 925-6265,https://www.dollartree.com/locations/ca/lakewood/4273/,33.8612868,-118.1260321,,,n_2128318936,"shop=variety_store, brand=Dollar Tree"
"Citrus, CA",,retail,453991,Cigars by Chivas,,,https://www.cigarsbychivas.com/,34.1446384,-118.1520446,,,n_2160774776,shop=tobacco
"Citrus, CA",,retail,446120,Lush,,,https://www.lush.com/,34.1456341,-118.1499228,,,n_2160774781,"shop=cosmetics, brand=Lush"
"Citrus, CA",,retail,445292,Sweet Art Cafe,,714-289-4626,http://www.orangecandycompany.com/,33.7891178,-117.8536716,,,n_2162606529,shop=confectionery
"Citrus, CA",,retail,445110,H Mart,"3500 West 6th Street, Los Angeles, CA, 90020",+1 (213) 235-1917,https://www.hmart.com/store/la-city-center-ca-90020/bc8fe22d-3bbe-4e1a-860f-f3cecd85f1a0,34.0633764,-118.298541,,,n_2163515963,"shop=supermarket, brand=H Mart"
"Citrus, CA",,retail,445120,Trimana,,,,34.0480735,-118.251005,,,n_2163606665,shop=convenience
"Citrus, CA",,retail,453110,basic flowers,,213 995-3333,https://basicflowersla.com/,34.0512151,-118.2474791,,,n_2164323121,shop=florist
"Citrus, CA",,retail,445110,Super A,,,,34.1033676,-118.2360136,,,n_2178030689,shop=supermarket
"Citrus, CA",,retail,445110,Super King,,,,34.1096481,-118.2430678,,,n_2178031334,shop=supermarket
"Citrus, CA",,retail,445110,Trader Joe's,"604 West Huntington Drive, Monrovia, CA, 91016",+1 626-358-8884,https://locations.traderjoes.com/ca/monrovia/112/,34.1380129,-118.0121045,,,n_2184917998,"shop=supermarket, brand=Trader Joe's"
"Citrus, CA",,retail,445120,Yummy.com,"3607 Sunset Boulevard, 90026",+1 323-912-9188,https://www.yummy.com/,34.0903077,-118.2769065,,,n_2272911526,shop=convenience
"Citrus, CA",,retail,446120,Fancy Nails,,,,34.1090346,-118.2872808,,,n_2294898547,shop=beauty
"Citrus, CA",,retail,445120,7-Eleven,"455 East Foothill Boulevard, Azusa, CA, 91702-2518",+1 626-334-9729,https://www.7-eleven.com/locations/ca/azusa/455-e-foothill-blvd-17448,34.133957,-117.9026829,,,n_2295140340,"shop=convenience, brand=7-Eleven"
"Citrus, CA",,retail,445292,See's Candies,"Monrovia, 91016",,,34.151003,-118.0023719,,,n_2343758104,"shop=confectionery, brand=See's Candies"
"Citrus, CA",,retail,445110,Albertsons,"810 South State College Boulevard, Anaheim, CA, 92806",+1 714-533-4790,https://local.albertsons.com/ca/anaheim/810-s-state-college-blvd.html,33.8313152,-117.8886498,,,n_2373956215,"shop=supermarket, brand=Albertsons"
"Citrus, CA",,retail,446120,Central Nails,,,,33.7746861,-117.9175334,,,n_2374404709,shop=beauty
"Citrus, CA",,retail,446110,EZ Nutrition #2,,,,33.7810327,-117.9152696,,,n_2374404711,shop=chemist
"Citrus, CA",,retail,446120,Katie's Nails,,,,33.7808574,-117.915805,,,n_2374404719,shop=beauty
"Citrus, CA",,retail,452210,Ross,"13200 Harbor Boulevard, Garden Grove, CA, 92843",+1 714-636-1123,,33.7723887,-117.9190001,,,n_2374406813,"shop=department_store, brand=Ross"
"Citrus, CA",,retail,452210,Big Lots,"1670 West Katella Avenue, Anaheim, CA, 92802",+1 714-534-6696,https://local.biglots.com/ca/anaheim/1670-w-katella-ave,33.8019146,-117.939827,,,n_2386564633,"shop=department_store, brand=Big Lots"
"Citrus, CA",,retail,445110,Food 4 Less,,,,33.8020061,-117.9377578,,,n_2386564635,"shop=supermarket, brand=Food 4 Less"
"Citrus, CA",,retail,445292,Bittersweet Treats,,,http://www.bittersweettreats.com/,34.146182,-118.1148928,,,n_2421399144,shop=confectionery
"Citrus, CA",,retail,445110,Super A Foods,"5250 York Boulevard, Los Angeles, 90042",+1 323 551-6884,https://www.superafoods.com/,34.1198066,-118.2013052,,,n_2432921187,shop=supermarket
"Citrus, CA",,retail,445310,Ocean Liquor,,,,34.1042067,-118.138565,,,n_2489435656,shop=alcohol
"Citrus, CA",,retail,445110,Stater Bros.,"3325 East Chapman Avenue, Orange, CA, 92869",+1 714-997-7445,https://www.staterbros.com/stores/165,33.7889598,-117.8177251,,,n_2519063114,"shop=supermarket, brand=Stater Bros."
"Citrus, CA",,retail,452319,dollar store,,,,33.7889253,-117.8171592,,,n_2519063129,shop=variety_store
"Citrus, CA",,retail,453991,Tabacco Palace,,,,33.7886266,-117.8157027,,,n_2519063145,shop=tobacco
"Citrus, CA",,retail,452210,Big Lots,"6336 East Santa Ana Canyon Road, Anaheim, CA, 92807",+1 714-637-7230,https://local.biglots.com/ca/anaheim/6336-e-santa-ana-canyon-rd,33.8561379,-117.7710523,,,n_2522472859,"shop=department_store, brand=Big Lots"
"Citrus, CA",,retail,445110,Ralphs,"1200 Central Avenue, Glendale, CA, 91202",+1 818-246-1752,https://www.ralphs.com/stores/grocery/ca/glendale/central/703/00097,34.1644476,-118.256508,,,n_2532878475,"shop=supermarket, brand=Ralphs"
"Citrus, CA",,retail,446120,Wynn Nail Spa,"Vine Street, Los Angeles, 90028",1 323 871 8001,http://www.wynnnailspa.com,34.0985353,-118.326884,,,n_2570230112,shop=beauty
"Citrus, CA",,retail,445110,Ralphs,"2600 Vermont Avenue, Los Angeles, CA, 90007",+1 323-732-3863,https://www.ralphs.com/stores/grocery/ca/los-angeles/renaissance-plaza/703/00294,34.0317653,-118.290833,,,n_2578244375,"shop=supermarket, brand=Ralphs"
"Citrus, CA",,retail,446120,Marc Leigh Salon & Spa,"1040 East Katella Avenue, Orange, 92867",,,33.8088655,-117.840834,,,n_2607426043,shop=beauty
"Citrus, CA",,retail,445110,Ralphs,"3075 South Archibald Avenue Building C, Ontario, CA, 91761",+1 909-947-1884,https://www.ralphs.com/stores/grocery/ca/ontario/archibald-ranch-town-center/703/00752,34.0178788,-117.59212,,,n_2643164829,"shop=supermarket, brand=Ralphs"
"Citrus, CA",,retail,445120,Lee's Market,,,,34.0336786,-118.2808943,,,n_2643391588,shop=convenience
"Citrus, CA",,retail,446120,"Elite Hair, Nails & Spa",,,,33.8744695,-117.9037409,,,n_2668083563,shop=beauty
"Citrus, CA",,retail,446120,Noble's Pool & Spa,,,,33.8737202,-117.9038486,,,n_2668099725,shop=beauty
"Citrus, CA",,retail,445120,Fullerton Dairy Alta Dena Certified Dairy,,,,33.8722837,-117.9073382,,,n_2668105677,shop=convenience
"Citrus, CA",,retail,445110,Big Food Saver,,,,34.0632749,-118.1030018,,,n_2681629433,shop=supermarket
"Citrus, CA",,retail,445120,Food Mart,,,,34.054461,-118.3237385,,,n_2697735084,shop=convenience
"Citrus, CA",,retail,445120,Shell,,,,34.069351,-118.3087526,,,n_2697735085,"shop=convenience, brand=Shell"
"Citrus, CA",,retail,445110,HK Market,"124 North Western Avenue, Los Angeles, CA",,,34.074174,-118.308883,,,n_2697735086,shop=supermarket
"Citrus, CA",,retail,445120,7-Eleven,"473 North Western Avenue, Los Angeles, CA, 90004-2609",+1 323-462-4590,https://www.7-eleven.com/locations/ca/los-angeles/473-n-western-ave-19598,34.0801347,-118.309577,,,n_2697735244,"shop=convenience, brand=7-Eleven"
"Citrus, CA",,retail,445120,Mobil Mart,6301 Santa Monica Boulevard,,,34.0911711,-118.327061,,,n_2715023299,"shop=convenience, brand=Mobil Mart"
"Citrus, CA",,retail,445310,Oro Liquor Market,,,,34.0688114,-118.3100445,,,n_2715023300,shop=alcohol
"Citrus, CA",,retail,445120,Country Kwik Market & Deli,,,,34.0413792,-117.7980598,,,n_2738810245,shop=convenience
"Citrus, CA",,retail,445110,Trader Joe's,"12861 Towne Center Drive, Cerritos, CA, 90703",+1 562-402-5148,https://www.traderjoes.com/,33.8689672,-118.058037,,,n_2807667380,"shop=supermarket, brand=Trader Joe's"
"Citrus, CA",,retail,452210,Marshalls,"5895 Lincoln Avenue, Buena Park, 90620",714-828-4760,http://www.marshallsonline.com/,33.832804,-118.0300711,,,n_2807682445,"shop=department_store, brand=Marshalls"
"Citrus, CA",,retail,445110,Walmart Neighborhood Market,"5420 La Palma Avenue, La Palma, CA, 90623",+1 714-822-3152,https://www.walmart.com/store/3099-la-palma-ca,33.845619,-118.038726,,,n_2819134133,"shop=supermarket, brand=Walmart, operator=Walmart"
"Citrus, CA",,retail,452210,Target,"141 Lakewood Center Mall, Lakewood, CA, 90712-2419",+1 562-894-0019,https://www.target.com/sl/Lakewood-Center-Mall-Store/1409,33.8526164,-118.1401341,,,n_2819189476,"shop=department_store, brand=Target"
"Citrus, CA",,retail,452210,Kohl's,"2650 Carson Street, Lakewood, CA, 90712",+1 562-425-2127,https://www.kohls.com/stores/ca/lakewood-633.shtml,33.8310593,-118.1615117,,,n_2819355430,"shop=department_store, brand=Kohl's"
"Citrus, CA",,retail,445110,Whole Foods Market,"465 Foothill Boulevard, Pasadena, CA, 91105",+1 626-204-2266,https://www.wholefoodsmarket.com/stores/pasadena,34.1510164,-118.072249,,,n_2875583535,"shop=supermarket, brand=Whole Foods Market"
"Citrus, CA",,retail,445120,Valero,,,,33.8465453,-117.976468,,,n_2906670177,"shop=convenience, amenity=fuel, brand=Valero"
"Citrus, CA",,retail,445120,7-Eleven,"8725 Orangethorpe Avenue, Buena Park, CA, 90621-3715",+1 714-739-2627,https://www.7-eleven.com/locations/ca/buena-park/8725-orangethorpe-ave-17840,33.8593984,-117.9807962,,,n_2906670234,"shop=convenience, brand=7-Eleven"
"Citrus, CA",,retail,452210,JCPenney,,,,33.8483755,-118.140723,,,n_2933993515,"shop=department_store, brand=JCPenney"
"Citrus, CA",,retail,445292,See's Candies,,,,33.8511148,-118.1400357,,,n_2939400405,"shop=confectionery, brand=See's Candies"
"Citrus, CA",,retail,445292,Ghost Town Bakery & Soup Station,,,https://www.knotts.com/play/drinks-dining/ghost-town-bakery,33.8431156,-117.9994853,,,n_2950096030,shop=confectionery
"Citrus, CA",,retail,445120,General Merchandise Store,,,,33.8438112,-117.9998441,,,n_2950105459,shop=convenience
"Citrus, CA",,retail,445292,Ghost Town Candy Store,,,,33.8438635,-118.0005364,,,n_2950108047,shop=confectionery
"Citrus, CA",,retail,452210,Macy's,,,https://www.macys.com/stores/ca/lakewood/lakewood-center_513.html,33.8502167,-118.1410107,,,n_2952346625,"shop=department_store, brand=Macy's"
"Citrus, CA",,retail,446120,Sweet Paradise Nails,"4149 Norse Way, Long Beach, CA, 90808",,,33.8331848,-118.141878,,,n_2959379896,shop=beauty
"Citrus, CA",,retail,446120,Bombshell (salon),"4156 Norse Way, Long Beach, 90808",,,33.8336215,-118.1417974,,,n_2959404058,shop=beauty
"Citrus, CA",,retail,446120,Bonded by Roots (salon),,,,33.8335146,-118.1416289,,,n_2959404061,shop=beauty
"Citrus, CA",,retail,453110,Pretty lil Things,"4425 Village Road, Long Beach, CA, 90808",,,33.8338622,-118.141154,,,n_2959404074,shop=florist
"Citrus, CA",,retail,445110,Superior (market),,,,33.8556925,-118.1667143,,,n_2959500086,shop=supermarket
"Citrus, CA",,retail,445210,Druzhba Meat Market,,,,34.0974634,-118.3039857,,,n_2970164894,shop=butcher
"Citrus, CA",,retail,445120,small world Gifts & Sundries,,,https://disneyland.disney.go.com/shops/disneyland-hotel/small-world-gifts-sundries/,33.8090788,-117.9268839,,,n_2978426465,shop=convenience
"Citrus, CA",,retail,446120,Imperial Spa,,,,33.8928446,-117.9463132,,,n_2983915978,shop=beauty
"Citrus, CA",,retail,445110,Stater Bros.,"2790 Hamner Avenue, Norco, CA, 92860",+1 951-734-1838,https://www.staterbros.com/stores/44,33.922669,-117.5602937,,,n_2984090085,"shop=supermarket, brand=Stater Bros."
"Citrus, CA",,retail,445310,,,,,33.8709752,-117.9073157,,,n_2993281842,shop=alcohol
"Citrus, CA",,retail,446120,Swan Nails,,,,33.8465827,-118.116962,,,n_2995125794,shop=beauty
"Citrus, CA",,retail,446120,Sharrion James Salon,,,,33.8222928,-118.1069738,,,n_3001839827,shop=beauty
"Citrus, CA",,retail,445120,Jerky,,,,33.8223953,-118.1068209,,,n_3001839828,shop=convenience
"Citrus, CA",,retail,446120,Jagar Hair,"4416 Village Road, Long Beach, 90808",,,33.8335931,-118.1410779,,,n_3014498631,shop=beauty
"Citrus, CA",,retail,445120,7-Eleven,"10656 ROSECRANS, Norwalk, CA, 90650",+1 562-484-9806,https://www.7-eleven.com/locations/ca/norwalk/10656-rosecrans-34753,33.9016818,-118.1061835,,,n_3017409364,"shop=convenience, brand=7-Eleven"
"Citrus, CA",,retail,445120,ampm,"15451 Fairfield Ranch Road, Chino Hills, 91709",,,33.9720282,-117.689388,,,n_3052536070,"shop=convenience, brand=ampm"
"Citrus, CA",,retail,445110,99 Ranch Market,,,,34.0096175,-117.7406913,,,n_3052695500,"shop=supermarket, brand=99 Ranch Market"
"Citrus, CA",,retail,445110,Albertsons,"3255 Grand Avenue, Chino Hills, CA, 91709",+1 909-590-3660,https://local.albertsons.com/ca/chino-hills/3255-grand-ave.html,34.0010634,-117.734328,,,n_3052709216,"shop=supermarket, brand=Albertsons"
"Citrus, CA",,retail,445110,Sprouts Farmers Market,"3630 Grand Avenue, Chino Hills, CA, 91709",+1 909-548-0440,https://www.sprouts.com/store/ca/chino-hills/grand-ave/,34.0030531,-117.727472,,,n_3052718411,"shop=supermarket, brand=Sprouts Farmers Market"
"Citrus, CA",,retail,453110,Allen's Flowers,,+1-323-378-3335,https://www.allensflowermarket.com/,34.0959507,-118.283934,,,n_3059590325,shop=florist
"Citrus, CA",,retail,445110,Fresco Community Market,,,,34.1048359,-118.183443,,,n_3060455018,shop=supermarket
"Citrus, CA",,retail,453991,Light em Up Smoke Shop,,,,33.8732114,-118.114943,,,n_3069540156,shop=tobacco
"Citrus, CA",,retail,446120,StarLite Hair,,,,33.8732114,-118.1146267,,,n_3069540161,shop=beauty
"Citrus, CA",,retail,452319,Dollar Store,,,,33.8732649,-118.114535,,,n_3069540163,shop=variety_store
"Citrus, CA",,retail,446120,nails,,,,33.8600257,-118.143189,,,n_3069569355,shop=beauty
"Citrus, CA",,retail,446120,Nails,,,,33.8668001,-117.7511542,,,n_3088537022,shop=beauty
"Citrus, CA",,retail,452210,TJ Maxx,,,,33.8655784,-117.7491133,,,n_3088537031,"shop=department_store, brand=TJ Maxx"
"Citrus, CA",,retail,452210,Target,"8148 East Santa Ana Canyon Road, Anaheim, CA, 92808",+1 714-921-9091,https://www.target.com/sl/anaheim-hills/677,33.865535,-117.747066,,,n_3088537032,"shop=department_store, brand=Target"
"Citrus, CA",,retail,446120,Ulta Beauty,"8140 E Santa Ana Canyon Road, Anaheim, CA, 92808",,,33.8653427,-117.748191,,,n_3088537035,"shop=cosmetics, brand=Ulta Beauty"
"Citrus, CA",,retail,446120,Bath & Body Works,,,,33.8654415,-117.7487643,,,n_3088537037,"shop=cosmetics, brand=Bath & Body Works"
"Citrus, CA",,retail,446120,Harmony,,,,34.1000408,-118.2594363,,,n_3119815049,shop=beauty
"Citrus, CA",,retail,445120,7-Eleven,"2200 West Sunset Boulevard, Los Angeles, CA, 90026",+1 213-989-1528,https://www.7-eleven.com/locations/ca/los-angeles/2200-w-sunset-blvd-33028,34.0776853,-118.2664375,,,n_3119817446,"shop=convenience, brand=7-Eleven"
"Citrus, CA",,retail,445110,Smart & Final,,,,33.8347955,-118.117734,,,n_3129845035,"shop=supermarket, brand=Smart & Final"
"Citrus, CA",,retail,445110,Sprouts Farmers Market,"4253 Woodruff Avenue, Lakewood, CA, 90713",+1 562-739-2541,https://www.sprouts.com/store/ca/lakewood/woodruff-ave/,33.8356956,-118.117745,,,n_3129845038,"shop=supermarket, brand=Sprouts Farmers Market"
"Citrus, CA",,retail,453110,1-800-FLOWERS,,,,34.0777127,-118.1347047,,,n_3148364950,shop=florist
"Citrus, CA",,retail,446120,Harmony Nail & Threading Salon,"54 South Pasadena Avenue, Pasadena, CA",+1 626-578-1807,https://www.facebook.com/pages/Harmony-Nail-Threading-Salon/198481927007633,34.1448212,-118.1539881,,,n_3178465625,shop=beauty
"Citrus, CA",,retail,446120,LATHER,"17 East Colorado Boulevard, Pasadena, CA",,,34.1459211,-118.150011,,,n_3179468396,shop=beauty
"Citrus, CA",,retail,446120,Vinita's Beauty & Threading Studio,"253 East Colorado Boulevard, Pasadena, CA",626) 304-1107,https://www.threadingstudio.com/,34.1460155,-118.1451177,,,n_3180241470,shop=beauty
"Citrus, CA",,retail,445292,Yummy Cupcakes Pasadena,"247 East Colorado Boulevard, Pasadena, CA",6 2 6 . 3 9 6 . 4 9 3 3,https://www.yummycupcakes.com/pasadena/,34.1460171,-118.1452539,,,n_3180241471,shop=confectionery
"Citrus, CA",,retail,446120,Planet Beach,"708 East Colorado Boulevard, Pasadena, CA",626-478-0261,http://www.planetbeachpasadena.com/,34.1456606,-118.1357236,,,n_3180394113,shop=beauty
"Citrus, CA",,retail,446120,Pasadena Nails & Skin Care!,"646 East Colorado Boulevard, Pasadena, CA",(626) 440-9828,http://pasadenanailskincare.com/,34.1456871,-118.137103,,,n_3181482523,shop=beauty
"Citrus, CA",,retail,446120,Amadeus Spa,"799 East Green Street, Pasadena, CA",+1 626-578-3404,https://www.facebook.com/pages/Amadeus-Spa/109144515795655,34.1446997,-118.1340847,,,n_3183112388,shop=beauty
"Citrus, CA",,retail,446120,AcuSpa,,(626)-578-9119,https://www.acuspapasadena.com/,34.1397845,-118.1317345,,,n_3184199188,shop=beauty
"Citrus, CA",,retail,446120,Integrity Lash,,1 (626) 437-4000,https://www.integritylash.com/,34.1397292,-118.13171,,,n_3184199191,shop=beauty
"Citrus, CA",,retail,446120,South Lake Avenue Nail Design,,626-577-9783,https://www.southlakeavenue.org/business-directory-member/south-lake-avenue-nail-design/,34.1397914,-118.1320521,,,n_3184199241,shop=beauty
"Citrus, CA",,retail,446120,Merle Norman,,(626)449-4070,https://www.merlenormanstudio.com/,34.1392742,-118.132102,,,n_3184214967,"shop=cosmetics, brand=Merle Norman Cosmetics"
"Citrus, CA",,retail,453991,La Marca Cigars,"530 South Myrtle Avenue, Monrovia, CA",626) 775-4155,http://lamarcacigars.com/,34.1461584,-118.0007798,,,n_3186055056,shop=tobacco
"Citrus, CA",,retail,453110,Monrovia Floral,"119 East Olive Avenue, Monrovia, CA",(626)358-1889,https://www.monfloral.com/,34.1449782,-118.0001125,,,n_3193084517,shop=florist
"Citrus, CA",,retail,445292,Candy Parlour,,,https://www.knotts.com/california-marketplace/candy-parlour,33.842334,-117.9981699,,,n_3215624860,shop=confectionery
"Citrus, CA",,retail,452319,Dollar Tree,"9679 Chapman Avenue, Garden Grove, CA, 92841",+1 714-636-3640,https://www.dollartree.com/locations/ca/garden-grove/2053/,33.78983,-117.9641191,,,n_3276001461,"shop=variety_store, brand=Dollar Tree"
"Citrus, CA",,retail,452210,Ross,"8361 On the Mall, Buena Park, CA, 90620",+1 714-952-1007,https://rossstores.com/,33.8455496,-117.9887412,,,n_3276020021,"shop=department_store, brand=Ross"
"Citrus, CA",,retail,452210,Ross,"560 North Euclid Street, Anaheim, CA, 92801",+1 714-635-9380,,33.8391791,-117.9386309,,,n_3279443705,"shop=department_store, brand=Ross"
"Citrus, CA",,retail,453991,,,,,34.0548735,-118.2911255,,,n_3333393024,shop=tobacco
"Citrus, CA",,retail,446120,,,,,33.8109182,-118.1056448,,,n_3357311957,shop=beauty
"Citrus, CA",,retail,446120,2nd Street Beauty,,,,33.8112257,-118.1082599,,,n_3358875084,shop=beauty
"Citrus, CA",,retail,446110,Rite Aid,"15331 Baseline Avenue, Fontana, CA, 92336",(909) 574-2831,https://www.riteaid.com/locations/ca/fontana/15331-baseline-avenue.html,34.1208161,-117.4703,,,n_3360124567,"shop=chemist, brand=Rite Aid"
"Citrus, CA",,retail,445310,Titta Inn,"5533 Huntington Drive North, Los Angeles, CA, 90032",(323) 221-8828,,34.0943055,-118.1599515,,,n_3413802685,shop=wine
"Citrus, CA",,retail,445110,Champion Provisions Co 冠軍食品,"140 West Valley Blvd, 91776",626-571-8188,,34.0782644,-118.1021421,,,n_3445749908,shop=supermarket
"Citrus, CA",,retail,445110,Nijiya Market,17869 Colima Road,626-913-9991,http://www.nijiya.com/,33.99079,-117.9148389,,,n_3445816736,shop=supermarket
"Citrus, CA",,retail,445120,7-Eleven,"6915 Rosemead Boulevard, San Gabriel, CA, 91775-1412",+1 626-286-9697,https://www.7-eleven.com/locations/ca/san-gabriel/6915-rosemead-blvd-25481,34.1232911,-118.0733198,,,n_3476995243,"shop=convenience, brand=7-Eleven"
"Citrus, CA",,retail,445310,BevMo!,"3730 Foothill Boulevard, Padadena, 91107",,,34.1500048,-118.072291,,,n_3477523635,"shop=alcohol, brand=BevMo!"
"Citrus, CA",,retail,445110,Sprouts Farmers Market,"39 N. Rosemead Boulevard, Pasadena, CA, 91107",+1 626-696-1290,https://www.sprouts.com/store/ca/pasadena/n-rosemead-blvd/,34.1472457,-118.0740524,,,n_3477528943,"shop=supermarket, brand=Sprouts Farmers Market"
"Citrus, CA",,retail,445292,See's Candies,"3641 Foothill Boulevard, Pasadena, 91107",,,34.1506019,-118.07461,,,n_3477534974,"shop=confectionery, brand=See's Candies"
"Citrus, CA",,retail,445120,Fine wine * Craft Beer,"3689 E. Colorado Blvd., Pasadena, 91107",,,34.1466485,-118.0736313,,,n_3477546867,"shop=convenience, brand=7-Eleven"
"Citrus, CA",,retail,445120,7-Eleven,"227 South Rosemead Boulevard, Pasadena, CA, 91107-4900",+1 626-793-4744,https://www.7-eleven.com/locations/ca/pasadena/227-s-rosemead-blvd-20297,34.142473,-118.0739183,,,n_3477563423,"shop=convenience, brand=7-Eleven"
"Citrus, CA",,retail,445110,Trader Joe's,"856 West Arrow Highway, San Dimas, CA, 91773",+1 909-305-4757,https://locations.traderjoes.com/ca/san-dimas/28/,34.1036077,-117.821291,,,n_3489981986,"shop=supermarket, brand=Trader Joe's"
"Citrus, CA",,retail,445110,Ralphs,"9470 Las Tunas Drive, Temple City, CA, 91780",+1 626-286-0898,https://www.ralphs.com/stores/grocery/ca/temple-city/temple-city/703/00053,34.1053054,-118.0640557,,,n_3507799463,"shop=supermarket, brand=Ralphs"
"Citrus, CA",,retail,446120,,,,,33.8474731,-118.1246099,,,n_3523016583,shop=beauty
"Citrus, CA",,retail,445120,7-Eleven,"5870 East Del Amo Boulevard, Lakewood, CA, 90713-2344",+1 562-420-9868,https://www.7-eleven.com/locations/ca/lakewood/5870-e-del-amo-blvd-24207,33.8465782,-118.1167302,,,n_3523017345,"shop=convenience, brand=7-Eleven"
"Citrus, CA",,retail,446120,Nails,,,,33.8329839,-118.117073,,,n_3523051443,shop=beauty
"Citrus, CA",,retail,445310,,,,,34.1015706,-118.311353,,,n_3561748883,shop=alcohol
"Citrus, CA",,retail,445120,7-Eleven,,,,34.0273247,-118.257228,,,n_3577173162,"shop=convenience, brand=7-Eleven"
"Citrus, CA",,retail,446120,M.O Beauty,"1193 South Diamond Bar Boulevard, Diamond Bar, CA, 91765",626-469-7860,https://customeyelashextensionsdiamondbar.com/,34.0015959,-117.8113907,,,n_3624200689,shop=beauty
"Citrus, CA",,retail,445120,Circle K,,,,33.9948363,-117.758879,,,n_3624209230,"shop=convenience, brand=Circle K"
"Citrus, CA",,retail,446120,Diamond Foot Spa,,,,34.0025319,-117.8092233,,,n_3625542647,shop=beauty
"Citrus, CA",,retail,445310,Grizzly Peak Refreshments,,,,33.8078057,-117.9200195,,,n_3648076388,shop=beverages
"Citrus, CA",,retail,452319,99 Cents Only Stores,,,https://locations.99only.com/ca/brea/discount-store-253.html,33.9127444,-117.892729,,,n_3688768516,"shop=variety_store, brand=99 Cents Only Stores"
"Citrus, CA",,retail,445120,,,,,33.9033899,-118.1692843,,,n_3696439853,shop=convenience
"Citrus, CA",,retail,453110,Mystic Florist,,,,33.8186108,-117.9755351,,,n_3726837337,shop=florist
"Citrus, CA",,retail,446120,,,,,33.8186113,-117.9752288,,,n_3726837363,shop=beauty
"Citrus, CA",,retail,452319,Dollar King,,,,34.2333405,-118.254024,,,n_3726837638,shop=variety_store
"Citrus, CA",,retail,445110,Seoul Korean Market,Foothill Boulevard,,,34.2189597,-118.230913,,,n_3730695348,shop=supermarket
"Citrus, CA",,retail,445210,Angus Meat Market,,,,34.229165,-118.2470838,,,n_3731892592,shop=butcher
"Citrus, CA",,retail,445110,Liquors,,,,34.2051835,-118.2245819,,,n_3732293156,shop=supermarket
"Citrus, CA",,retail,446120,Paradise Tan,,,,34.2051123,-118.2265346,,,n_3732373474,shop=beauty
"Citrus, CA",,retail,446120,Buff & Tweeze,,,,34.237238,-118.2603367,,,n_3761097961,shop=beauty
"Citrus, CA",,retail,446120,Elle Bella Spa,,,,34.2263613,-118.2437976,,,n_3761575271,shop=beauty
"Citrus, CA",,retail,446110,Walgreens,,,https://www.walgreens.com/locator/walgreens-310+s+lake+ave-pasadena-ca-91101/id=11442,34.140451,-118.131678,,,n_3762118887,"shop=chemist, brand=Walgreens"
"Citrus, CA",,retail,452319,99Cent,,,,34.2459232,-118.2742884,,,n_3762837921,shop=variety_store
"Citrus, CA",,retail,445110,Walmart Neighborhood Market,"121 North Beach Boulevard, Anaheim, CA, 92801",+1 714-822-3179,https://www.walmart.com/store/3101-anaheim-ca,33.833236,-117.995057,,,n_3763124364,"shop=supermarket, brand=Walmart, operator=Walmart"
"Citrus, CA",,retail,445120,,,,,34.0341687,-117.5749339,,,n_3776221787,shop=convenience
"Citrus, CA",,retail,452319,Daiso Japan,,,,33.8031557,-118.009291,,,n_3777296983,"shop=variety_store, brand=Daiso"
"Citrus, CA",,retail,453110,Florist,,,,33.8033815,-118.0148968,,,n_3777296987,shop=florist
"Citrus, CA",,retail,445110,Superior Grocers,"151 South Hacienda Boulevard, City of Industry, CA, 91745",,,34.0220378,-117.9582938,,,n_3779274742,"shop=supermarket, brand=Superior Grocers"
"Citrus, CA",,retail,452210,Target,"2626 Colorado Boulevard, Los Angeles, CA, 90041-1070",+1 323-258-1355,https://www.target.com/sl/los-angeles-eagle-rock/1408,34.1415053,-118.224087,,,n_3785455269,"shop=department_store, brand=Target"
"Citrus, CA",,retail,445120,Food Mart,,,,34.0171552,-118.308744,,,n_3800035750,shop=convenience
"Citrus, CA",,retail,445310,,,,,34.0148115,-118.3087338,,,n_3800035756,shop=alcohol
"Citrus, CA",,retail,446120,Paseo Nails,,,,33.8036466,-118.0403935,,,n_3873759417,shop=beauty
"Citrus, CA",,retail,445120,Circle K,,,,33.8666324,-117.924039,,,n_3874205358,"shop=convenience, brand=Circle K"
"Citrus, CA",,retail,445110,Food 4 Less,,,,34.0419614,-118.3100256,,,n_3884274487,"shop=supermarket, brand=Food 4 Less"
"Citrus, CA",,retail,445310,,,,,34.0437744,-118.3050982,,,n_3884274790,shop=alcohol
"Citrus, CA",,retail,445120,Lucky 98,,,,34.0437013,-118.3043146,,,n_3884275116,shop=convenience
"Citrus, CA",,retail,446120,Phenix,,,,33.8798203,-117.9621683,,,n_3887241833,shop=beauty
"Citrus, CA",,retail,445120,Broadway Market,"900 South Broadway, Los Angeles, CA, 90015",,,34.0421045,-118.2560662,,,n_3905714571,shop=convenience
"Citrus, CA",,retail,445120,Chapman Market,"221 West 8th Street, Los Angeles, CA, 90014",+1 213 4894080,,34.0436122,-118.2541694,,,n_3905774489,shop=convenience
"Citrus, CA",,retail,445110,Whole Foods Market,"788 South Grand Avenue, Los Angeles, CA, 90017",+1 213-873-4745,https://www.wholefoodsmarket.com/stores/downtownlosangeles,34.0458779,-118.2576698,,,n_3967578956,"shop=supermarket, brand=Whole Foods Market"
"Citrus, CA",,retail,446120,Divaa Beauty & Threading Studio,"9622 Base Line Road, Rancho cucamonga, CA, 91730",,,34.1223831,-117.595243,,,n_3972510645,shop=beauty
"Citrus, CA",,retail,445310,Everson Royce Wine & Spirits,,626-765-9334,https://www.eversonroyce.com/,34.1485758,-118.1491208,,,n_4002281793,shop=alcohol
"Citrus, CA",,retail,446120,Jubilee Salon & Spa,138 North Lake Avenue,(626) 584-7065,http://www.jubileebeautyspas.com/,34.1484486,-118.1321621,,,n_4002281798,shop=beauty
"Citrus, CA",,retail,445292,Mignon Chocolate,"6 East Holly Street, Pasadena, CA, 91103",,https://mignonchocolate.com/,34.1475189,-118.150241,,,n_4002281801,shop=confectionery
"Citrus, CA",,retail,446120,Règne Salon & Beauty Boutique,"38 East Holly Street, Pasadena, CA, 91103",,,34.1475176,-118.149643,,,n_4002282001,shop=beauty
"Citrus, CA",,retail,446120,Castle Nails,,,,34.145786,-118.1262266,,,n_4003035380,shop=beauty
"Citrus, CA",,retail,446120,New Image Cuts,,,,34.1660108,-118.2877031,,,n_4006284843,shop=beauty
"Citrus, CA",,retail,445120,7-Eleven,"6350 San Fernando, Glendale, CA, 91201-2441",+1 818-649-1592,https://www.7-eleven.com/locations/ca/glendale/6350-san-fernando-29032,34.1661092,-118.2878383,,,n_4006285146,"shop=convenience, brand=7-Eleven"
"Citrus, CA",,retail,445120,ampm,"401 North Placentia Avenue, Fullerton, 92831",,,33.8744036,-117.8793031,,,n_4047288897,"shop=convenience, brand=ampm"
"Citrus, CA",,retail,445120,ampm,"780 Brea Canyon Road, City of Industry, CA, 91789",,,34.0034773,-117.8458858,,,n_4047316839,"shop=convenience, brand=ampm"
"Citrus, CA",,retail,445120,ampm,"1100 South Nogales Street, Rowland Heights, CA, 91748",,,33.9958827,-117.887862,,,n_4047327242,"shop=convenience, brand=ampm"
"Citrus, CA",,retail,445120,ampm,"17175 Colima Road, Hacienda Heights, CA, 91745",,,33.9913412,-117.93243,,,n_4047361707,"shop=convenience, brand=ampm"
"Citrus, CA",,retail,445120,ampm,"10121 Whittier Boulevard, Whittier, CA, 90606",,,33.9949609,-118.070694,,,n_4047379719,"shop=convenience, brand=ampm"
"Citrus, CA",,retail,445120,ampm,"8505 Pioneer Boulevard, Whittier, CA, 90606",,,33.9668372,-118.0829705,,,n_4047382433,"shop=convenience, brand=ampm"
"Citrus, CA",,retail,445230,CaliMex Family Market,"6604 N Figueroa Street, Los Angeles, CA, 90042",,,34.1223657,-118.1843985,,,n_4089002180,shop=greengrocer
"Citrus, CA",,retail,445120,7-Eleven,"2000 East La Palma Avenue, Anaheim, CA, 92805",+1 714-533-3783,https://www.7-eleven.com/locations/ca/anaheim/2000-east-la-palma-ave-35774,33.8469778,-117.888926,,,n_4091188311,"shop=convenience, brand=7-Eleven"
"Citrus, CA",,retail,445120,Santee Court Market,"716 South Los Angeles Street, Los Angeles, 90014",,,34.0423945,-118.2504777,,,n_4096326965,shop=convenience
"Citrus, CA",,retail,445310,Jason's Wine & Spirits,"110 East 9th Street, Los Angeles, 90079",,https://jasonsliquor.com/,34.0407449,-118.2549069,,,n_4096439885,shop=alcohol
"Citrus, CA",,retail,446120,Wax Candy,"756 South Main Street, Los Angeles, 90014",,,34.0427771,-118.2528969,,,n_4098463767,shop=beauty
"Citrus, CA",,retail,445310,Silversun Liquor,"2901 Sunset Boulevard, Los Angeles, CA, 90026",+1 323-666-2744,,34.0832745,-118.273249,,,n_4098494397,shop=alcohol
"Citrus, CA",,retail,446120,Universal Perfumes,"755 South Los Angeles Street, Los Angeles, 90014",,,34.0423055,-118.2520084,,,n_4101045062,shop=beauty
"Citrus, CA",,retail,446120,Perfume Center,"758 South Los Angeles Street, Los Angeles, 90014",,,34.042041,-118.2518689,,,n_4101051511,shop=beauty
"Citrus, CA",,retail,445310,Deli Liquor Store,East Artesia Boulevard,,,33.8744667,-118.1760043,,,n_4104570832,shop=alcohol
"Citrus, CA",,retail,445310,Liquor,Artesia Boulevard,,,33.8746228,-118.1343204,,,n_4104773493,shop=alcohol
"Citrus, CA",,retail,445120,7-Eleven,"9403 Artesia Boulevard, Bellflower, CA, 90706",+1 562-925-1450,https://www.7-eleven.com/locations/ca/bellflower/9403-artesia-37031,33.8752263,-118.13351,,,n_4104779436,"shop=convenience, brand=7-Eleven"
"Citrus, CA",,retail,445120,7-Eleven,"4550 Orange Avenue, Long Beach, CA, 90807-2310",+1 562-595-9113,https://www.7-eleven.com/locations/ca/long-beach/4550-orange-ave-21932,33.8413866,-118.176032,,,n_4104894911,"shop=convenience, brand=7-Eleven"
"Citrus, CA",,retail,453110,Tom & Jeri's Florist,Cherry Avenue,,,33.8536113,-118.1678631,,,n_4104913013,shop=florist
"Citrus, CA",,retail,445310,Eddie's Liquor,Cherry Avenue,,,33.8545881,-118.1682459,,,n_4104917230,shop=alcohol
"Citrus, CA",,retail,453991,Daysi's Smoke Shop,Cherry Avenue,,,33.8685669,-118.1687935,,,n_4105101055,shop=tobacco
"Citrus, CA",,retail,453110,Anny's Flowers,Cherry Avenue,,,33.8708803,-118.1688136,,,n_4105121945,shop=florist
"Citrus, CA",,retail,446120,Pao Hua Perfumes & Cosmetics,"East 4th Street, Los Angeles, CA",,,34.0470369,-118.2460826,,,n_4116685299,shop=cosmetics
"Citrus, CA",,retail,445110,Ai Hoa Supermarket,,,,34.0640481,-118.2387185,,,n_4121132644,shop=supermarket
"Citrus, CA",,retail,453991,Royals Cigarette,,,,34.0467585,-118.255161,,,n_4121132664,shop=tobacco
"Citrus, CA",,retail,445110,Mas Market,,,,34.1294568,-118.2595938,,,n_4129399334,shop=supermarket
"Citrus, CA",,retail,445110,,,,,33.9918952,-118.091973,,,n_4132026875,shop=supermarket
"Citrus, CA",,retail,445230,India Sweets and Spices,"3126 Los Feliz Boulevard, Los Angeles, CA, 90039",3233450360,https://indiasweetsandspices.us/,34.1239783,-118.267128,,,n_4140129391,"shop=greengrocer, amenity=restaurant"
"Citrus, CA",,retail,445110,Grocery Outlet,,,,33.8592604,-118.1184817,,,n_4157154165,"shop=supermarket, brand=Grocery Outlet"
"Citrus, CA",,retail,445120,Circle H Market,"2511 Sunset Boulevard, Los Angeles, CA, 90026",,,34.0799078,-118.269345,,,n_4166608936,shop=convenience
"Citrus, CA",,retail,445120,7-Eleven,"2717 East Colorado Boulevard, Pasadena, CA, 91107-4369",+1 626-793-0102,https://www.7-eleven.com/locations/ca/pasadena/2717-e-colorado-blvd-20269,34.1465436,-118.094295,,,n_4202858214,"shop=convenience, brand=7-Eleven"
"Citrus, CA",,retail,452319,Family Dollar,14431 Ramona Blvd,(626) 338-8046,https://familydollar.com/,34.0883543,-117.9596334,,,n_4204720395,"shop=variety_store, brand=Family Dollar"
"Citrus, CA",,retail,445110,Superior Grocers,"14433 Ramona Parkway, Baldwin Park, CA, 91706",(626) 646-1835,https://superiorgrocers.com/,34.0883604,-117.9590756,,,n_4204915090,"shop=supermarket, brand=Superior Grocers"
"Citrus, CA",,retail,445120,Knicks and Knacks,Ramona Parkway,,,34.088359,-117.958674,,,n_4205400825,shop=convenience
"Citrus, CA",,retail,452319,Dollar Tree,"4259 Maine Avenue, 91706",(626) 960-1647,https://www.dollartree.com/locations/ca/baldwin-park/4568/,34.0899067,-117.9617078,,,n_4209206793,"shop=variety_store, brand=Dollar Tree"
"Citrus, CA",,retail,446120,Perfumeria Starlux,"800 South Los Angeles Street, Los Angeles, CA, 90014",,,34.0417145,-118.2523749,,,n_4209682053,shop=beauty
"Citrus, CA",,retail,445120,Carmen's Snack Shop,"212 East 8th Street, Los Angeles, CA, 90014",,,34.0414745,-118.2520905,,,n_4209682055,shop=convenience
"Citrus, CA",,retail,445120,New Downtown Cafe & Market,"241 East 7th Street, Los Angeles, CA, 90014",,,34.0426195,-118.2492412,,,n_4209682192,shop=convenience
"Citrus, CA",,retail,446120,Newport Perfume Inc.,"215 #C East 7th Street, Los Angeles, CA, 90014",,,34.0429768,-118.2497688,,,n_4209682195,shop=beauty
"Citrus, CA",,retail,453110,Be A Tall Poppy,"767 Santee Street, Los Angeles, CA, 90014",,https://beatallpoppy.com/,34.0417476,-118.2513486,,,n_4209859293,shop=florist
"Citrus, CA",,retail,446120,Perfume Warehouse,"738 #3 South Los Angeles Street, Los Angeles, CA, 90014",,,34.0423659,-118.2514329,,,n_4209859300,shop=beauty
"Citrus, CA",,retail,445110,El Super,"14103 Ramona Parkway, Baldwin Park, CA, 91706",(626) 869-5141,https://elsupermarkets.com/,34.0867188,-117.9664702,,,n_4213802489,"shop=supermarket, brand=El Super"
"Citrus, CA",,retail,452210,Fallas,"14121 Ramona Parkway, 91706",(626) 338-1650,https://www.fallasstores.net/,34.0866271,-117.9661411,,,n_4213802490,shop=department_store
"Citrus, CA",,retail,452319,99 Cents Only Stores,"14151 Ramona Parkway, 91706",(626) 962-4299,https://locations.99only.com/ca/baldwinpark/discount-store-72.html,34.0867274,-117.9654594,,,n_4213805189,"shop=variety_store, brand=99 Cents Only Stores"
"Citrus, CA",,retail,445120,7-Eleven,"1275 West San Bernardino Road, Covina, CA, 91722",+1 626-966-4779,https://www.7-eleven.com/locations/ca/covina/1275-w-san-bernardino-rd-19251,34.0888169,-117.9163895,,,n_4215678390,"shop=convenience, brand=7-Eleven"
"Citrus, CA",,retail,452210,Target,"3100 Baldwin Park Boulevard, Baldwin Park, CA, 91706-4703",+1 626-851-9404,https://www.target.com/sl/baldwin-park/1033,34.0694956,-117.9768767,,,n_4230275989,"shop=department_store, brand=Target"
"Citrus, CA",,retail,445110,Numero Uno Markets,,,,34.04638,-118.2836939,,,n_4250315820,shop=supermarket
"Citrus, CA",,retail,445110,Marukai Market,"123 Astronaut Ellison S Onizuka Street, Los Angeles, CA",,,34.0502168,-118.24229,,,n_4269938708,shop=supermarket
"Citrus, CA",,retail,445110,Little Tokyo Market Place,"333 South Alameda Street, Los Angeles, CA, 90014",+1-213-617-0030,https://www.littletokyomarket.com/,34.0448135,-118.2388853,,,n_4269938709,shop=supermarket
"Citrus, CA",,retail,452210,Macy's,"1111 Plaza Drive, 91790",(626) 962-5400,https://www.macys.com/stores/ca/westcovina/plaza-west-covina_485.html,34.0704868,-117.9290126,,,n_4270121591,"shop=department_store, brand=Macy's"
"Citrus, CA",,retail,445120,Circle K,,,,34.0920002,-117.9740138,,,n_4277008693,"shop=convenience, brand=Circle K"
"Citrus, CA",,retail,452210,Musica Latina,"4155 Maine Avenue, 91706",(626) 814-4458,,34.0883464,-117.9605705,,,n_4278586993,shop=department_store
"Citrus, CA",,retail,445120,M & I Liquor Store,"14511 Pacific Avenue, 91706",,,34.0842172,-117.9587867,,,n_4278586995,shop=convenience
"Citrus, CA",,retail,445310,Brewyard,,,,34.1673593,-118.2923585,,,n_4279164799,shop=beverages
"Citrus, CA",,retail,445120,7-Eleven,"4400 Maine Avenue, Baldwin Park, CA, 91706",+1 626-962-9470,https://www.7-eleven.com/locations/ca/baldwin-park/4400-maine-ave-39347,34.0924347,-117.9602285,,,n_4281935694,"shop=convenience, brand=7-Eleven"
"Citrus, CA",,retail,445120,Alta Dena,"4390 Maine Avenue, 91706",(626) 337-8817,,34.0921881,-117.9603171,,,n_4281946298,shop=convenience
"Citrus, CA",,retail,445120,Vince's Liquor Store,"4741 Maine Avenue, 91706",(626) 337-5080,,34.0992021,-117.960673,,,n_4281978399,shop=convenience
"Citrus, CA",,retail,445120,Coles Market,"14503 Pacific Avenue, 91706",(626) 338-2861,,34.0843344,-117.9589697,,,n_4283556290,shop=convenience
"Citrus, CA",,retail,445292,Pepsi Bottling Group,"4416 Azusa Canyon Road, 91706",(626) 338-5531,https://www.pepsico.com/,34.0928189,-117.9425673,,,n_4283569191,shop=confectionery
"Citrus, CA",,retail,445110,Vallarta,"13940 Ramona Parkway, 91706",(626) 480-8960,https://vallartasupermarkets.com/,34.083305,-117.968609,,,n_4283574289,"shop=supermarket, brand=Vallarta"
"Citrus, CA",,retail,445120,7-Eleven,"3705 Puente Avenue, Baldwin Park, CA, 91706",+1 626-962-8091,https://www.7-eleven.com/locations/ca/baldwin-park/3705-puente-ave-19329,34.0798171,-117.9523666,,,n_4284527609,"shop=convenience, brand=7-Eleven"
"Citrus, CA",,retail,445120,Freeway Liquor,"130 Vincent Avenue, 91790",(626) 332-3330,,34.0739546,-117.9260038,,,n_4284527610,shop=convenience
"Citrus, CA",,retail,445120,7-Eleven,"12954 Bess Avenue, Baldwin Park, CA, 91706",+1 626-337-8833,https://www.7-eleven.com/locations/ca/baldwin-park/12954-bess-ave-14024,34.0670863,-117.992144,,,n_4285397591,"shop=convenience, brand=7-Eleven"
"Citrus, CA",,retail,452210,Target,"2462 Foothill Boulevard, La Verne, CA, 91750-3056",+1 909-593-2421,https://www.target.com/sl/laverne/226,34.1095009,-117.7596954,,,n_4285399489,"shop=department_store, brand=Target"
"Citrus, CA",,retail,452210,Target,"735 South Figueroa Street, Los Angeles, CA, 90017-2571",+1 213-330-4543,https://www.target.com/sl/la-central/2776,34.0491424,-118.261357,,,n_4286972965,"shop=department_store, brand=Target"
"Citrus, CA",,retail,446120,L'Occitane,,,,34.0490109,-118.260878,,,n_4286972967,"shop=cosmetics, brand=L'Occitane"
"Citrus, CA",,retail,446120,MAC Cosmetics,,,,34.0489976,-118.2608404,,,n_4286972969,"shop=cosmetics, brand=MAC Cosmetics"
"Citrus, CA",,retail,445120,7-Eleven,"15942 San Bernardino Road, Covina, CA, 91722",+1 626-962-0293,https://www.7-eleven.com/locations/ca/covina/15942-e-san-bernardino-rd-36703,34.0893795,-117.9344199,,,n_4288328090,"shop=convenience, brand=7-Eleven"
"Citrus, CA",,retail,445120,7-Eleven,"803 West Arrow Highway, 91702",(626) 969-1968,https://www.7-eleven.com/locations/ca/azusa/803-w-arrow-hwy-33554,34.1072602,-117.916763,,,n_4295564589,"shop=convenience, brand=7-Eleven"
"Citrus, CA",,retail,445110,La Amapola Market,,,,34.0705005,-117.934355,,,n_4311298189,shop=supermarket
"Citrus, CA",,retail,445292,See's Candies,,,,34.0706786,-117.9325686,,,n_4311299989,"shop=confectionery, brand=See's Candies"
"Citrus, CA",,retail,445110,Food 4 Less,3000 Baldwin Park Boulevard,(626) 856-0511,http://food4less.com,34.068815,-117.9790983,,,n_4311325889,"shop=supermarket, brand=Food 4 Less"
"Citrus, CA",,retail,452319,Dollar Tree,"6540 Foothill Boulevard, CA, 91042",,https://www.dollartree.com/locations/ca/tujunga/4243/,34.2450054,-118.274625,,,n_4312972392,"shop=variety_store, brand=Dollar Tree"
"Citrus, CA",,retail,446120,8158 Human Hair Company,"4320 Mills Circle, Ontario, CA, 91764",+1 909 9803838,http://8158humanhaircompany.com,34.0731354,-117.5523684,,,n_4324696868,shop=beauty
"Citrus, CA",,retail,445110,Claros Italian Market,,,,34.1401894,-118.0307174,,,n_4349254692,shop=supermarket
"Citrus, CA",,retail,452210,Ross,"2200 East 17th Street, Santa Ana, CA, 92705",+1 714-647-1515,,33.7585121,-117.8359884,,,n_4356307296,"shop=department_store, brand=Ross"
"Citrus, CA",,retail,452210,Marshalls,,,,33.7610841,-117.828643,,,n_4356308290,"shop=department_store, brand=Marshalls"
"Citrus, CA",,retail,445120,,,,,33.7736535,-117.8353243,,,n_4356675889,shop=convenience
"Citrus, CA",,retail,445310,KC Liquor,,,,33.7843271,-117.8362694,,,n_4359143889,shop=alcohol
"Citrus, CA",,retail,446120,Sola Salons,,,,33.9115246,-117.8719106,,,n_4364180774,"shop=beauty, brand=Sola Salons"
"Citrus, CA",,retail,445110,Food 4 Less,,,,34.0571794,-118.2706167,,,n_4399334440,"shop=supermarket, brand=Food 4 Less"
"Citrus, CA",,retail,446120,1202 Salon and Spa,"1202 E Green St, Pasadena, CA, 91106",+1 626-765-3505,https://www.1202salonandspa.com/,34.1443901,-118.1256046,,,n_4458970799,"shop=beauty, operator=Sandra Damato"
"Citrus, CA",,retail,445310,Honey Mee,,,,33.885167,-117.99571,,,n_4480349292,shop=beverages
"Citrus, CA",,retail,445292,Sinfully Sweet Apple Company,"181 North 2nd Avenue, Upland, CA, 91786",+1-909-596-9327,https://sinfullysweetgourmettreats.com/,34.0957397,-117.6486726,,,n_4530064278,shop=confectionery
"Citrus, CA",,retail,445292,See's Candies,"1117 Grand Avenue, Diamond Bar, 91765",,,34.0012406,-117.8125124,,,n_4566275992,"shop=confectionery, brand=See's Candies"
"Citrus, CA",,retail,453110,Xavier's Florist,"1135 Grand Avenue, Diamond Bar, 91765",,https://xaviersflorist.com/,34.0007426,-117.8127126,,,n_4566275995,shop=florist
"Citrus, CA",,retail,445110,Walmart Neighborhood Market,"1180 Diamond Bar Boulevard, Diamond Bar, CA, 91765",+1 909-378-4055,https://www.walmart.com/store/4762-diamond-bar-ca,34.0012181,-117.8095652,,,n_4566280151,"shop=supermarket, brand=Walmart, operator=Walmart"
"Citrus, CA",,retail,446110,CVS Pharmacy,,,https://www.cvs.com/store-locator/diamond-bar-ca-pharmacies/747-grand-ave-diamond-bar-ca-91765/storeid=17259,34.0043561,-117.8215583,,,n_4569374605,"shop=chemist, brand=CVS Pharmacy"
"Citrus, CA",,retail,446191,Lassens Natural Food and Vitamins,"1631 Sunset Boulevard, 90026",+12135426535,https://www.lassens.com/,34.0777075,-118.257883,,,n_4569869888,shop=health_food
"Citrus, CA",,retail,446120,One Stop Beauty Shop,"1119 Grand Avenue, Diamond Bar, 91765",,,34.0011855,-117.8125432,,,n_4570857857,shop=beauty
"Citrus, CA",,retail,446120,Orchid's Nails & Spa,"1121 Grand Avenue, Diamond Bar, 91765",,,34.0011396,-117.8125685,,,n_4570863147,shop=beauty
"Citrus, CA",,retail,445120,Smoke Shop,"1127 Grand Avenue, Diamond Bar, 91765",,,34.0010467,-117.8126305,,,n_4570863149,shop=convenience
"Citrus, CA",,retail,446120,Pure Bliss Nails & Beauty Bar,,,,34.0023945,-117.8114868,,,n_4570869957,shop=beauty
"Citrus, CA",,retail,445310,Mike's Tobacco & Liquor,"Diamond Bar Boulevard, Diamond Bar, CA",,,34.0016709,-117.8092687,,,n_4572131789,shop=alcohol
"Citrus, CA",,retail,446120,La Vie Nails & Spa,"Diamond Bar Boulevard, Diamond Bar, CA",,,34.0024989,-117.8092016,,,n_4572131796,shop=beauty
"Citrus, CA",,retail,452210,Macy's,750 West 7th Street,+12136289311,https://www.macys.com/stores/ca/losangeles/bloc-plaza_487.html,34.0473538,-118.2591719,,,n_4575731358,"shop=department_store, brand=Macy's"
"Citrus, CA",,retail,445310,,,,,34.0067057,-117.9084569,,,n_4578344626,shop=alcohol
"Citrus, CA",,retail,445110,Grocery Outlet,,,,34.1019028,-118.2984934,,,n_4579565087,"shop=supermarket, brand=Grocery Outlet"
"Citrus, CA",,retail,445120,7-Eleven,"150 South Citrus Avenue, West Covina, CA, 91791",+1 626-339-8018,https://www.7-eleven.com/locations/ca/west-covina/150-s-citrus-ave-39342,34.0702712,-117.8896184,,,n_4580129319,"shop=convenience, brand=7-Eleven"
"Citrus, CA",,retail,453110,Aroma Flowers,,,,34.0791882,-117.8881484,,,n_4580231035,shop=florist
"Citrus, CA",,retail,445110,Bo's Altadena Market,"153 West Altadena Drive, Altadena, CA",,,34.1956892,-118.1503213,,,n_4604829973,shop=supermarket
"Citrus, CA",,retail,445310,Showplace Liquors,"3401 Venice Boulevard, Los Angeles, CA, 90019",,,34.0437398,-118.321493,,,n_4623132089,shop=beverages
"Citrus, CA",,retail,445120,7-Eleven,"3477 West Olympic Boulevard, Los Angeles, CA, 90019",+1 323-735-1000,https://www.7-eleven.com/locations/ca/los-angeles/3477-w-olympic-blvd-39477,34.0527909,-118.3139607,,,n_4624146589,"shop=convenience, brand=7-Eleven"
"Citrus, CA",,retail,445110,Sprouts Farmers Market,"400 West Huntington Drive, Monrovia, CA, 91016",+1 626-358-6845,https://www.sprouts.com/store/ca/monrovia/w-huntington-dr/,34.1397044,-118.0079046,,,n_4748045985,"shop=supermarket, brand=Sprouts Farmers Market"
"Citrus, CA",,retail,445120,Water Boy,,,,34.1395546,-118.0072892,,,n_4748045986,shop=convenience
"Citrus, CA",,retail,445110,Baja Ranch,,,,34.1395216,-118.0065712,,,n_4748045991,shop=supermarket
"Citrus, CA",,retail,446120,Mes Ami Nail and Beauty Spa,,,,33.9764112,-117.5740874,,,n_4748438127,shop=beauty
"Citrus, CA",,retail,445110,Smart & Final Extra!,,,,33.9766395,-117.5743409,,,n_4748438128,"shop=supermarket, brand=Smart & Final"
"Citrus, CA",,retail,445110,Ralphs,"211 East Foothill Boulevard, Arcadia, CA, 91006",+1 626-357-1942,https://www.ralphs.com/stores/grocery/ca/arcadia/arcadia/703/00041,34.1517997,-118.0246613,,,n_4751737924,"shop=supermarket, brand=Ralphs"
"Citrus, CA",,retail,445120,7-Eleven,"102 East Huntington Drive, Arcadia, CA, 91006",+1 (626) 623-6015,https://www.7-eleven.com/locations/ca/arcadia/102-e-huntington-dr-39764,34.1396394,-118.0279402,,,n_4751749039,"shop=convenience, brand=7-Eleven"
"Citrus, CA",,retail,445120,,,,,34.0639428,-117.6115145,,,n_4752689991,shop=convenience
"Citrus, CA",,retail,445120,Circle K,,,,34.0631422,-117.611308,,,n_4752689994,"shop=convenience, brand=Circle K"
"Citrus, CA",,retail,452210,Target,"701 Rio Rancho Road, Pomona, CA, 91766-7018",+1 909-634-3151,https://www.target.com/sl/pomona/2831,34.034892,-117.7558677,,,n_4755245380,"shop=department_store, brand=Target"
"Citrus, CA",,retail,452210,Ross,"723 Rio Rancho Road, Pomona, CA, 91766-7018",+1 909-622-5706,,34.0351187,-117.7571283,,,n_4755245381,"shop=department_store, brand=Ross"
"Citrus, CA",,retail,452319,Dollar Tree,,,https://www.dollartree.com/locations/ca/ontario/4506/,34.0208376,-117.6498807,,,n_4759048130,"shop=variety_store, brand=Dollar Tree"
"Citrus, CA",,retail,445110,Albertsons,"7070 Archibald Avenue, Corona, CA, 92880",+1 951-279-0333,https://local.albertsons.com/ca/corona/7070-archibald-ave.html,33.9594979,-117.591573,,,n_4760494769,"shop=supermarket, brand=Albertsons"
"Citrus, CA",,retail,446120,Revol Nail & Salon,,,,33.959611,-117.5909321,,,n_4762210992,shop=beauty
"Citrus, CA",,retail,453991,Master Smokes,,,,33.9593706,-117.5924954,,,n_4762211002,shop=tobacco
"Citrus, CA",,retail,445110,SF Supermarket,"13861 Brookhurst Street, Garden Grove, CA",+1 714-539-6688,https://www.shunfatsupermarket.com,33.7611353,-117.956442,,,n_4785624872,"shop=supermarket, brand=SF Supermarket"
"Citrus, CA",,retail,453110,Hoa Sen Flowers,,,,33.7607919,-117.9566842,,,n_4785624879,shop=florist
"Citrus, CA",,retail,445292,Lindt,"501 20 City Boulevard West, 92868",7149409811,,33.7810329,-117.891891,,,n_4792179721,"shop=chocolate, brand=Lindt"
"Citrus, CA",,retail,452210,Saks Off 5th,B2 City Boulevard East,,,33.7813147,-117.89154,,,n_4792180121,"shop=department_store, brand=Saks Off 5th"
"Citrus, CA",,retail,452210,Neiman Marcus Last Call,"20 City Boulevard East, Orange, CA, 92868",+1-714-939-6806,,33.7810818,-117.891771,,,n_4792180221,"shop=department_store, brand=Neiman Marcus"
"Citrus, CA",,retail,453110,Brad Larsen Florists,,,,34.1447534,-118.13819,,,n_4808297546,shop=florist
"Citrus, CA",,retail,452319,Miniso,,,,34.1456049,-118.152348,,,n_4816893765,"shop=variety_store, brand=Miniso"
"Citrus, CA",,retail,446120,Origins,,,,34.1461425,-118.1511559,,,n_4824052026,"shop=cosmetics, brand=Origins"
"Citrus, CA",,retail,446120,Bokaos Aveda,,,,34.1461566,-118.1516057,,,n_4824052028,shop=beauty
"Citrus, CA",,retail,445120,Old Pasadena General Store,,,,34.1450505,-118.1502976,,,n_4824070371,shop=convenience
"Citrus, CA",,retail,445110,Vons,"2039 Verdugo Boulevard, Montrose, CA, 91020",+1-818-249-4595,https://local.vons.com/ca/montrose/2039-verdugo-blvd.html,34.2055759,-118.221471,,,n_4864266333,"shop=supermarket, brand=Vons"
"Citrus, CA",,retail,445110,Smart & Final,,,,34.0473388,-118.262109,,,n_4879577302,"shop=supermarket, brand=Smart & Final"
"Citrus, CA",,retail,446120,European Wax Center,,,https://locations.waxcenter.com/ca/pasadena/pasadena-south-lake-ave-0293.html,34.1361666,-118.132476,,,n_4882463843,"shop=beauty, brand=European Wax Center"
"Citrus, CA",,retail,446120,Honey Nail Spa,,,,34.1363313,-118.1324774,,,n_4882463845,shop=beauty
"Citrus, CA",,retail,445120,6th Street Market,,,,34.0461557,-118.2514782,,,n_4885688168,shop=convenience
"Citrus, CA",,retail,452210,Target,"2831 East Eastland Center Drive, West Covina, CA, 91791-1624",+1 626-859-0221,https://www.target.com/sl/west-covina/1028,34.0738442,-117.8844871,,,n_4888334902,"shop=department_store, brand=Target"
"Citrus, CA",,retail,452319,Dollar Tree,,,https://www.dollartree.com/locations/ca/west-covina/4712/,34.0737287,-117.8829261,,,n_4888334904,"shop=variety_store, brand=Dollar Tree"
"Citrus, CA",,retail,452210,Burlington,"2753 East Eastland Center Drive, West Covina, CA, 91791",+1 626-966-0661,https://stores.burlington.com/ca/west-covina/285,34.0731799,-117.884615,,,n_4888334913,"shop=department_store, brand=Burlington"
"Citrus, CA",,retail,452210,Ross,"2753 East Eastland Center Drive, West Covina, CA, 91791",+1 626-966-9602,,34.0730488,-117.8853079,,,n_4888334914,"shop=department_store, brand=Ross"
"Citrus, CA",,retail,452210,Marshalls,,,,34.0730555,-117.8863057,,,n_4888334915,"shop=department_store, brand=Marshalls"
"Citrus, CA",,retail,445230,Tropical Imports,,,https://disneyland.disney.go.com/dining/disneyland/tropical-imports/,33.8116329,-117.9200492,,,n_4916167089,shop=greengrocer
"Citrus, CA",,retail,446120,European Wax Center,"2785 North Main Street, Santa Ana",,https://locations.waxcenter.com/ca/santaana/santa-ana-0317.html,33.7738761,-117.866855,,,n_4932290898,"shop=beauty, brand=European Wax Center"
"Citrus, CA",,retail,445110,Nijiya Market,,,,34.0487979,-118.2401698,,,n_4946318822,shop=supermarket
"Citrus, CA",,retail,445110,ALDI,"1403 Baldwin Avenue, Arcadia, CA, 91007-7922",+1 626-461-3200,https://stores.aldi.us/ca/arcadia/1403-s-baldwin-ave,34.1232915,-118.0564398,,,n_4993584022,"shop=supermarket, brand=ALDI"
"Citrus, CA",,retail,445120,Yucca Market,,,,34.1043123,-118.33039,,,n_4994961801,shop=convenience
"Citrus, CA",,retail,453110,,,,,34.1041163,-118.3290409,,,n_4994961806,shop=florist
"Citrus, CA",,retail,445310,Refresh Station,,,,33.8455747,-118.0011637,,,n_4995766956,shop=beverages
"Citrus, CA",,retail,445310,Wonderland Liquor,"1178 West Katella Avenue, Anaheim, CA, 92802",,,33.8030177,-117.9277647,,,n_5078086623,shop=alcohol
"Citrus, CA",,retail,445120,,,,,33.7684406,-117.8367547,,,n_5106101327,shop=convenience
"Citrus, CA",,retail,446120,Nature Republic,,,,34.0619673,-118.3086805,,,n_5111888236,"shop=cosmetics, brand=Nature Republic"
"Citrus, CA",,retail,445120,Metro Fresh,,,,34.0626745,-118.2909789,,,n_5116063525,shop=convenience
"Citrus, CA",,retail,446120,Palace Beauty,,,,34.0621428,-118.2909148,,,n_5116078825,shop=beauty
"Citrus, CA",,retail,446120,Kiki Nails,,,,34.0622176,-118.290862,,,n_5116078826,shop=cosmetics
"Citrus, CA",,retail,445230,,,,,34.1837488,-118.3221079,,,n_5141857637,shop=greengrocer
"Citrus, CA",,retail,452319,Dollar Tree,,,https://www.dollartree.com/locations/ca/anaheim/5131/,33.8494541,-117.8903945,,,n_5181139121,"shop=variety_store, brand=Dollar Tree"
"Citrus, CA",,retail,452210,Ranch Market,,,,33.8411882,-117.9433468,,,n_5181139124,shop=department_store
"Citrus, CA",,retail,452319,99¢ Gift & Up 99,,,,34.1348025,-118.2515205,,,n_5184420023,shop=variety_store
"Citrus, CA",,retail,452319,A.D.J.,,,,33.9802487,-118.1625821,,,n_5198594522,shop=variety_store
"Citrus, CA",,retail,445110,George's Deli & Produce,"706 W Rte 66, Glendora, CA, 91740",,,34.1283262,-117.877325,,,n_5222418496,shop=supermarket
"Citrus, CA",,retail,445310,MacGuerder's Liquor,,,,33.9086223,-117.5811284,,,n_5232912157,shop=alcohol
"Citrus, CA",,retail,445110,Trader Joe's,"3131 Hoover Street, Los Angeles, CA, 90089",+1 213-749-1497,https://locations.traderjoes.com/ca/los-angeles/250/,34.0257159,-118.2848075,,,n_5237417649,"shop=supermarket, brand=Trader Joe's"
"Citrus, CA",,retail,452210,Target,"3131 Hoover Street, Los Angeles, CA, 90089",+1 213-275-3149,https://www.target.com/sl/los-angeles-usc-village/3217,34.0257016,-118.2843512,,,n_5237417650,"shop=department_store, brand=Target"
"Citrus, CA",,retail,452319,Geode Shop,,,,33.8437385,-117.999128,,,n_5251217274,shop=variety_store
"Citrus, CA",,retail,452210,Marshalls,"564 West Huntington Drive, Monrovia, CA, 91016",,,34.1380457,-118.0117043,,,n_5278670877,"shop=department_store, brand=Marshalls"
"Citrus, CA",,retail,445120,7-Eleven,"660 East Foothill Boulevard, San Dimas, CA, 91773-1207",+1 909-599-2805,https://www.7-eleven.com/locations/ca/san-dimas/660-e-foothill-blvd-17210,34.1221231,-117.794637,,,n_5280907221,"shop=convenience, brand=7-Eleven"
"Citrus, CA",,retail,452210,Sears,,,,33.9944991,-117.9287908,,,n_5303546938,"shop=department_store, brand=Sears"
"Citrus, CA",,retail,452210,Burlington,,,,33.9929141,-117.926202,,,n_5303546940,"shop=department_store, brand=Burlington"
"Citrus, CA",,retail,452210,Ross,"1600 Azusa Avenue, City of Industry, CA, 91748",+1 626-581-9489,,33.9930094,-117.9271048,,,n_5303546941,"shop=department_store, brand=Ross"
"Citrus, CA",,retail,452210,JCPenney,,,,33.7772992,-117.870111,,,n_5307529473,"shop=department_store, brand=JCPenney"
"Citrus, CA",,retail,452210,Macy's,,,https://www.macys.com/stores/ca/santaana/mainplace-mall_527.html,33.7762067,-117.86921,,,n_5307529474,"shop=department_store, brand=Macy's"
"Citrus, CA",,retail,445110,Walmart Neighborhood Market,"14865 Telegraph Road, La Mirada, CA, 90638",+1 562-567-6488,https://www.walmart.com/store/5661-la-mirada-ca,33.9185466,-118.013281,,,n_5315597542,"shop=supermarket, brand=Walmart, operator=Walmart"
"Citrus, CA",,retail,445110,Walmart Neighborhood Market,"12840 Beach Boulevard, Stanton, CA, 90680",+1 714-230-0126,https://www.walmart.com/store/4134-stanton-ca,33.7749668,-117.9911038,,,n_5315598124,"shop=supermarket, brand=Walmart, operator=Walmart"
"Citrus, CA",,retail,445110,Walmart Supercenter,"3250 Big Dalton Avenue, Baldwin Park, CA, 91706",+1 626-814-2235,https://www.walmart.com/store/3522-baldwin-park-ca,34.071943,-117.963494,,,n_5315598270,"shop=supermarket, brand=Walmart, operator=Walmart"
"Citrus, CA",,retail,445110,Walmart Neighborhood Market,"1425 North Hacienda Boulevard, La Puente, CA, 91744",+1 626-251-1877,https://www.walmart.com/store/3133-la-puente-ca,34.0471887,-117.949791,,,n_5315598911,"shop=supermarket, brand=Walmart, operator=Walmart"
"Citrus, CA",,retail,445110,Walmart Neighborhood Market,"1560 West Sixth Street, Corona, CA, 92882",+1 951-393-6405,https://www.walmart.com/store/2487-corona-ca,33.87734,-117.596143,,,n_5315599506,"shop=supermarket, brand=Walmart, operator=Walmart"
"Citrus, CA",,retail,445110,Walmart Supercenter,"1275 North Azusa Avenue, Covina, CA, 91722",+1 626-339-4161,https://www.walmart.com/store/2292-covina-ca,34.102622,-117.909601,,,n_5315599563,"shop=supermarket, brand=Walmart, operator=Walmart"
"Citrus, CA",,retail,445310,The Bottle Shop,,,,34.1616804,-118.0540064,,,n_5322600800,shop=alcohol
"Citrus, CA",,retail,445310,Happys Liquor,,,,34.1617791,-118.0530462,,,n_5322600801,shop=alcohol
"Citrus, CA",,retail,445120,Beyond,,,,34.0523761,-118.2508989,,,n_5335740042,shop=convenience
"Citrus, CA",,retail,445310,Gourmet Wine & Spirits,,,,34.0530317,-118.2504402,,,n_5335740045,shop=alcohol
"Citrus, CA",,retail,452319,Global Truss,,,,34.0035659,-118.2005278,,,n_5353936624,shop=variety_store
"Citrus, CA",,retail,452319,B'52,,,,33.9799872,-118.2048275,,,n_5353980321,shop=variety_store
"Citrus, CA",,retail,445110,Baja Ranch Market,,,,34.1583986,-118.1406943,,,n_5366522310,shop=supermarket
"Citrus, CA",,retail,445120,7-Eleven,"690 North Lake Avenue, Pasadena, CA, 91104-4555",+1 626-794-9073,https://www.7-eleven.com/locations/ca/pasadena/690-north-lake-ave-25483,34.1580716,-118.1321323,,,n_5366522311,"shop=convenience, brand=7-Eleven"
"Citrus, CA",,retail,452210,Ross,"241 North Glendale Avenue, Glendale, CA, 91206",+1 818-291-9053,,34.1495102,-118.2469578,,,n_5397493628,"shop=department_store, brand=Ross"
"Citrus, CA",,retail,452210,TJ Maxx,,,,34.1495391,-118.246692,,,n_5397493629,"shop=department_store, brand=TJ Maxx"
"Citrus, CA",,retail,445110,Ralphs,"211 North Glendale Avenue, Glendale, CA, 91206",+1 818-549-0035,https://www.ralphs.com/stores/grocery/ca/glendale/glendale-wilson/703/00134,34.1483826,-118.2481729,,,n_5397493634,"shop=supermarket, brand=Ralphs"
"Citrus, CA",,retail,445120,7-Eleven,"5432 Orangethorpe Avenue, La Palma, CA, 90623-1005",+1 714-523-0961,https://www.7-eleven.com/locations/ca/la-palma/5432-orangethorpe-ave-13769,33.8584199,-118.0388045,,,n_5432488353,"shop=convenience, brand=7-Eleven"
"Citrus, CA",,retail,446120,Nails,,,,33.8109229,-118.1163405,,,n_5433830580,shop=beauty
"Citrus, CA",,retail,445120,7-Eleven,"12200 Artesia Boulevard, Artesia, CA, 90701-4345",+1 562-402-2333,https://www.7-eleven.com/locations/ca/artesia/12200-artesia-blvd-24629,33.8726851,-118.07233,,,n_5439038469,"shop=convenience, brand=7-Eleven"
"Citrus, CA",,retail,453991,Smoke Shop,5912 Del Amo Boulevard,,,33.846719,-118.1159373,,,n_5451811424,shop=tobacco
"Citrus, CA",,retail,445120,7-Eleven,"11140 Del Amo Boulevard, Lakewood, CA, 90715",+1 562-860-7629,https://www.7-eleven.com/locations/ca/lakewood/11140-del-amo-blvd-35999,33.8455235,-118.0958151,,,n_5469698446,"shop=convenience, brand=7-Eleven"
"Citrus, CA",,retail,445210,Brees' Meats,"11877 Valley View Street, Garden Grove, CA, 92845",,http://www.breesmeats.com/,33.7899855,-118.0299832,,,n_5497633115,shop=butcher
"Citrus, CA",,retail,445110,El Super,,,,34.04151,-118.1918603,,,n_5511141558,"shop=supermarket, brand=El Super"
"Citrus, CA",,retail,446120,Ra Organic Spa,"119 North San Fernando Boulevard, Burbank, CA, 91502",818-848-4772,https://www.raorganicspa.com/,34.1810649,-118.309234,,,n_5512810091,shop=beauty
"Citrus, CA",,retail,445292,Sweetie's Candy,"164 Palm Avenue, 91502",(818) 558-5052,,34.1819269,-118.3104171,,,n_5512810108,shop=confectionery
"Citrus, CA",,retail,446120,Make-Up Designery,,,,34.1803127,-118.3082311,,,n_5512816197,shop=beauty
"Citrus, CA",,retail,446120,European Wax Center,"114 South San Fernando Boulevard, Burbank, CA, 91502",,https://locations.waxcenter.com/ca/burbank/burbank-0510.html,34.1807676,-118.308329,,,n_5512816204,"shop=beauty, brand=European Wax Center"
"Citrus, CA",,retail,445110,Food 4 Less,,,,33.9706149,-118.1656423,,,n_5521653523,"shop=supermarket, brand=Food 4 Less"
"Citrus, CA",,retail,452319,,,,,33.9607657,-118.2244303,,,n_5550699721,shop=variety_store
"Citrus, CA",,retail,445120,,,,,34.0399974,-118.2671064,,,n_5567738312,shop=convenience
"Citrus, CA",,retail,445110,Baja Ranch Market,"425 South Citrus Avenue, Covina, CA, 91723",,,34.0820028,-117.8913755,,,n_5567758896,shop=supermarket
"Citrus, CA",,retail,445120,,,,,34.1477632,-118.2350995,,,n_5569901181,shop=convenience
"Citrus, CA",,retail,446110,Rite Aid,,,https://www.riteaid.com/locations/ca/los-angeles/1744-west-sixth-street.html,34.05733,-118.2715485,,,n_5570257826,"shop=chemist, brand=Rite Aid"
"Citrus, CA",,retail,446110,Walgreens,617 W 7th St,213-694-2880,https://www.walgreens.com/locator/walgreens-617+w+7th+st-los+angeles-ca-90017/id=12460,34.048037,-118.257409,,,n_5572386044,"shop=chemist, brand=Walgreens"
"Citrus, CA",,retail,445110,Grocery Outlet,,,,34.0539643,-118.2624455,,,n_5572520605,"shop=supermarket, brand=Grocery Outlet"
"Citrus, CA",,retail,446120,,,,,33.9067795,-117.6057519,,,n_5574879121,shop=beauty
"Citrus, CA",,retail,446120,Melody Nails and Spa,,,,34.2416635,-118.267342,,,n_5606052274,shop=beauty
"Citrus, CA",,retail,445310,Alcorn,448 Foothill Boulevard,,,34.1986013,-118.1882706,,,n_5611904776,shop=alcohol
"Citrus, CA",,retail,445110,Seafood City,,,,34.1408814,-118.225232,,,n_5629661789,"shop=supermarket, brand=Seafood City"
"Citrus, CA",,retail,446120,Beauty Brow Bar,,,,34.141263,-118.224911,,,n_5629661814,shop=beauty
"Citrus, CA",,retail,452210,Macy's,,,https://www.macys.com/stores/ca/losangeles/eagle-rock-plaza_509.html,34.1414298,-118.226069,,,n_5629661817,"shop=department_store, brand=Macy's"
"Citrus, CA",,retail,445110,,,,,33.9176645,-117.9666117,,,n_5632829928,shop=supermarket
"Citrus, CA",,retail,445110,ALDI,"11530 South Street, Cerritos, CA, 90703-6612",+1 562-239-4225,https://stores.aldi.us/ca/cerritos/11530-south-st,33.8574667,-118.0877145,,,n_5638801897,"shop=supermarket, brand=ALDI"
"Citrus, CA",,retail,445120,Snack Shop,,,,33.8110226,-118.1256888,,,n_5640763126,shop=convenience
"Citrus, CA",,retail,446120,Nails & Spa,,,,33.809544,-118.1257498,,,n_5640763131,shop=beauty
"Citrus, CA",,retail,446120,Best Nails,,+1 323 255 3525,,34.142597,-118.2255319,,,n_5659483822,shop=beauty
"Citrus, CA",,retail,446120,Lida's Brow Bar,,,,34.1424927,-118.2255211,,,n_5659483823,shop=beauty
"Citrus, CA",,retail,446120,Sun and Moon Massage and Spa,,,,34.1424094,-118.2258055,,,n_5659483825,shop=beauty
"Citrus, CA",,retail,446120,Hi-Fashion Nails,,,,33.8029202,-117.9391094,,,n_5665024736,shop=beauty
"Citrus, CA",,retail,445120,3 Reyes,,,,33.80354,-117.9341303,,,n_5665025622,shop=convenience
"Citrus, CA",,retail,452319,Dollar Tree,,,https://www.dollartree.com/locations/ca/garden-grove/4725/,33.8026121,-117.9435606,,,n_5665025628,"shop=variety_store, brand=Dollar Tree"
"Citrus, CA",,retail,452210,dd's Discounts,,,,33.8020451,-117.939734,,,n_5665061122,"shop=department_store, brand=dd's Discounts"
"Citrus, CA",,retail,445120,ExtraMile,,,,33.8026598,-117.9419283,,,n_5665061124,"shop=convenience, brand=ExtraMile"
"Citrus, CA",,retail,445110,Smart & Final,,,,33.8018525,-117.943391,,,n_5666998927,"shop=supermarket, brand=Smart & Final"
"Citrus, CA",,retail,445120,Las Brisas Mexican Food,,,,33.8040246,-117.9405995,,,n_5666998933,shop=convenience
"Citrus, CA",,retail,446120,Girasol Beauty Salon,,,,33.8040358,-117.9419907,,,n_5666998934,shop=beauty
"Citrus, CA",,retail,445120,Discount Tobacco,,,,33.8040211,-117.9421933,,,n_5666998937,shop=convenience
"Citrus, CA",,retail,445120,Masala Indian Groceries,,,,33.8035944,-117.9425324,,,n_5666998939,shop=convenience
"Citrus, CA",,retail,446120,3D Eyebrow Microblading,,,,33.8037571,-117.9401821,,,n_5666998942,shop=beauty
"Citrus, CA",,retail,446120,Blue Skye Nails & Spa,,,,33.8012024,-117.9433741,,,n_5667003624,shop=beauty
"Citrus, CA",,retail,445120,Misha's Nutrition,,,,33.8040294,-117.9421514,,,n_5667003629,shop=convenience
"Citrus, CA",,retail,446120,Sona Treading,,,,33.8037663,-117.9425189,,,n_5667003634,shop=beauty
"Citrus, CA",,retail,445310,P&J Liquor,,,,33.8034491,-117.9408178,,,n_5667003636,shop=alcohol
"Citrus, CA",,retail,445120,7-Eleven,"1685 West Katella Avenue, Anaheim, CA, 92802-3021",+1 714-517-0963,https://www.7-eleven.com/locations/ca/anaheim/1685-w-katella-ave-34221,33.8035256,-117.9409133,,,n_5667005121,"shop=convenience, brand=7-Eleven"
"Citrus, CA",,retail,446120,Rio Nails,,,,33.8040383,-117.9418676,,,n_5667005221,shop=beauty
"Citrus, CA",,retail,445120,Alpha Mart,,,,33.807724,-117.9150021,,,n_5673600624,shop=convenience
"Citrus, CA",,retail,445310,Liquor Market,,,,33.8039607,-117.9146421,,,n_5673603426,shop=alcohol
"Citrus, CA",,retail,445120,Hookah's Tobacco,,,,33.8040138,-117.9403464,,,n_5674058622,shop=convenience
"Citrus, CA",,retail,445120,Galaxy,,,,33.769548,-117.9209642,,,n_5674114328,shop=convenience
"Citrus, CA",,retail,453110,Florreria Torres,,,,33.7595245,-117.9198962,,,n_5674114331,shop=florist
"Citrus, CA",,retail,445120,ampm,,,,33.7689852,-117.9208547,,,n_5674123627,"shop=convenience, brand=ampm"
"Citrus, CA",,retail,452319,Dollar Tree,,,https://www.dollartree.com/locations/ca/garden-grove/4678/,33.7718099,-117.9208189,,,n_5674123722,"shop=variety_store, brand=Dollar Tree"
"Citrus, CA",,retail,446120,Natural Nails,,,,33.7702189,-117.9208221,,,n_5674123723,shop=beauty
"Citrus, CA",,retail,445120,Harbor West Market,,,,33.7592149,-117.9199736,,,n_5674123725,shop=convenience
"Citrus, CA",,retail,452319,99 Cents Only Stores,,,https://locations.99only.com/ca/gardengrove/discount-store-141.html,33.7816548,-118.030824,,,n_5687877075,"shop=variety_store, brand=99 Cents Only Stores"
"Citrus, CA",,retail,445310,BevMo!,,,,33.8018933,-118.0138727,,,n_5687986509,"shop=alcohol, brand=BevMo!"
"Citrus, CA",,retail,446120,Upscale Beauty,,,,33.8019545,-118.0134049,,,n_5687986512,shop=beauty
"Citrus, CA",,retail,452210,Ross,"6900 Katella Avenue, Cypress, CA, 90630",+1 714-894-9876,,33.8018873,-118.0120436,,,n_5687987122,"shop=department_store, brand=Ross"
"Citrus, CA",,retail,446120,Nail Art,,,,33.8019443,-118.0114936,,,n_5687987124,shop=beauty
"Citrus, CA",,retail,445310,SGM Liquor,,,,33.8015885,-118.0114689,,,n_5687987128,shop=alcohol
"Citrus, CA",,retail,446120,Sun Tanning,,,,33.8023737,-118.0114354,,,n_5687987131,shop=beauty
"Citrus, CA",,retail,452319,Dollar Tree,,,https://www.dollartree.com/locations/ca/cypress/1823/,33.8040867,-118.0122156,,,n_5687987150,"shop=variety_store, brand=Dollar Tree"
"Citrus, CA",,retail,446120,Relax Nails Spa,,,,33.8039373,-118.0114841,,,n_5687987157,shop=beauty
"Citrus, CA",,retail,446120,Ulta Beauty,"3393 East Foothill Boulevard, Pasadena, CA, 91107",+1 626-351-3297,https://www.ulta.com/stores/pasadena-ca-143,34.1526005,-118.0801749,,,n_5695185840,"shop=beauty, brand=Ulta Beauty"
"Citrus, CA",,retail,445120,7-Eleven,"2512 South Figueroa, Los Angeles, CA, 90007-2549",+1 310-862-4401,https://www.7-eleven.com/locations/ca/los-angeles/2512-south-figueroa-24171,34.0286455,-118.2754357,,,n_5695236165,"shop=convenience, brand=7-Eleven"
"Citrus, CA",,retail,445120,Family's Market,,,,34.0585105,-118.2390153,,,n_5695239157,shop=convenience
"Citrus, CA",,retail,446120,Bloom Nail Bar,,,,34.0445033,-118.2911454,,,n_5695415780,shop=beauty
"Citrus, CA",,retail,445120,,,,,33.8879279,-117.8412504,,,n_5701794869,shop=convenience
"Citrus, CA",,retail,445299,Cheese Cave,,,,34.0970839,-117.7180842,,,n_5703393544,shop=cheese
"Citrus, CA",,retail,445110,Smart & Final Extra!,"2511 Daly Street, Los Angeles, CA, 90031-2212",(323) 539-2400,https://locations.smartandfinal.com/ca/lincoln-heights/511/,34.0755345,-118.216565,,,n_5707510736,"shop=supermarket, brand=Smart & Final"
"Citrus, CA",,retail,446120,,,,,34.1500527,-118.0012369,,,n_5735305936,shop=beauty
"Citrus, CA",,retail,446120,5 Star Massage Therapy and Spa,,,,34.1505017,-118.0029061,,,n_5735305945,shop=beauty
