Location,Search Keyword,Segment,NAICS Code,Business Name,Address,Phone Number,Website,Latitude,Longitude,Rating,User Ratings,Place ID,Types
"San Marino, CA",,retail,452319,99 Cents Only Stores,,,https://locations.99only.com/ca/losangeles/discount-store-125.html,34.1153033,-118.1828915,,,n_86588346,"shop=variety_store, brand=99 Cents Only Stores"
"San Marino, CA",,retail,445110,99 Ranch Market,"140 West Valley Boulevard, 91776",6263078899,https://99ranch.com/,34.0776395,-118.100828,,,n_270042537,"shop=supermarket, brand=99 Ranch Market"
"San Marino, CA",,retail,445110,Ralphs,"3827 Culver Center, Culver City, CA, 90232",+1 310-558-4027,https://www.ralphs.com/stores/grocery/ca/culver-city/westside-walk/703/00086,34.0172999,-118.4076922,,,n_276595352,"shop=supermarket, brand=Ralphs"
"San Marino, CA",,retail,445110,Trader Joe's,"3456 Sepulveda Boulevard, Los Angeles, CA, 90034",+1 310-836-2458,https://locations.traderjoes.com/ca/los-angeles/119/,34.0203234,-118.422068,,,n_276600064,"shop=supermarket, brand=Trader Joe's"
"San Marino, CA",,retail,445110,Trader Joe's,"9290 Culver Boulevard, Culver City, CA, 90232",+1 310-202-1108,https://locations.traderjoes.com/ca/culver-city/36/,34.0252586,-118.3930604,,,n_276606426,"shop=supermarket, brand=Trader Joe's"
"San Marino, CA",,retail,445110,168 Market,1421 East Valley Boulevard,+1 (626) 282-5168,https://www.168markets.com/,34.080386,-118.1099551,,,n_339046430,shop=supermarket
"San Marino, CA",,retail,445110,168 Market,"933 East Las Tunas Drive, San Gabriel, CA, 91776",+1 (626) 285-5168,https://www.168markets.com/,34.1045388,-118.0873216,,,n_339047662,shop=supermarket
"San Marino, CA",,retail,445310,Library Liquor,"8145 Arroyo Drive, Rosemead, CA, 91770",,,34.0425682,-118.0924814,,,n_343192253,shop=alcohol
"San Marino, CA",,retail,445110,Sprouts Farmers Market,"1011 North San Fernando Boulevard, Burbank, CA, 91504",+1 818-566-4089,https://www.sprouts.com/store/ca/burbank/n-san-fernando-blvd/,34.1869185,-118.3187822,,,n_344727062,"shop=supermarket, brand=Sprouts Farmers Market, operator=Sprouts"
"San Marino, CA",,retail,445110,Mitsuwa Marketplace,515 West Las Tunas Drive,+1 (626) 457-2899,https://mitsuwa.com/sg/,34.1027317,-118.106821,,,n_347054514,"shop=supermarket, brand=Mitsuwa Marketplace"
"San Marino, CA",,retail,446110,Walgreens,,,,34.0981831,-118.3268991,,,n_349339593,"shop=chemist, brand=Walgreens"
"San Marino, CA",,retail,452319,Dollar Tree,"811 North La Brea Avenue, Inglewood, CA, 90302-3641",+1 310-981-5082,https://www.dollartree.com/locations/ca/inglewood/4995/,33.9735751,-118.3580275,,,n_358852692,"shop=variety_store, brand=Dollar Tree"
"San Marino, CA",,retail,445120,7-Eleven,"8724 Foothill Boulevard, Sunland, CA, 91040-1923",+1 818-352-8548,https://www.7-eleven.com/locations/ca/sunland/8724-foothill-blvd-25484,34.2599712,-118.323967,,,n_360051491,"shop=convenience, brand=7-Eleven"
"San Marino, CA",,retail,445120,7-Eleven,"17620 Bellflower Boulevard, Bellflower, CA, 90706",+1 562-925-1687,https://www.7-eleven.com/locations/ca/bellflower/17620-bellflower-blvd-33283,33.8722174,-118.1249447,,,n_361335403,"shop=convenience, brand=7-Eleven, operator=7-11"
"San Marino, CA",,retail,452210,Big Lots,,,,33.8527457,-118.1432361,,,n_361337618,"shop=department_store, brand=Big Lots, operator=Big Lots"
"San Marino, CA",,retail,452210,Target,"317 Colorado Street, Glendale, CA, 91204",+1 818-334-1400,https://www.target.com/sl/glendale/2307,34.1429497,-118.258652,,,n_373075520,"shop=department_store, brand=Target"
"San Marino, CA",,retail,445110,99 Ranch Market,,,,34.1880845,-118.465299,,,n_375393681,"shop=supermarket, brand=99 Ranch Market"
"San Marino, CA",,retail,445310,Ten Ren Tea 天仁茗茶,"154 West Valley Boulevard, CA, 91776",,,34.0794676,-118.1019955,,,n_392203901,shop=beverages
"San Marino, CA",,retail,452319,Claro's Italian Market,,,,34.0806137,-118.0862094,,,n_402945367,shop=general
"San Marino, CA",,retail,446110,CVS Pharmacy,"816 East Main Street, Alhambra, CA, 91801",+1 (626) 293-5750,https://www.cvs.com/store-locator/alhambra-ca-pharmacies/816-e-main-street-alhambra-ca-91801/storeid=3968,34.0988488,-118.1178678,,,n_408560416,"shop=chemist, brand=CVS Pharmacy"
"San Marino, CA",,retail,445110,Tehran Market,"1417 Wilshire Boulevard, Santa Monica, CA, 90403",,,34.0273728,-118.488516,,,n_439826034,"shop=supermarket, operator=Tehran Market"
"San Marino, CA",,retail,445310,The Duck Blind,,,,34.029849,-118.4976344,,,n_439940892,shop=alcohol
"San Marino, CA",,retail,446110,CVS Pharmacy,"8601 South Sepulveda Boulevard, Los Angeles, CA, 90045",,https://www.cvs.com/store-locator/los-angeles-ca-pharmacies/8601-south-sepulveda-boulevard-los-angeles-ca-90045/storeid=8886,33.9596518,-118.3968346,,,n_459445389,"shop=chemist, brand=CVS Pharmacy"
"San Marino, CA",,retail,445120,Famima,,,,34.0487063,-118.2584697,,,n_470868191,shop=convenience
"San Marino, CA",,retail,445120,Famima,,,,34.0520632,-118.2509637,,,n_470881984,shop=convenience
"San Marino, CA",,retail,445110,Ralphs,"645 West 9th Street, Los Angeles, CA, 90015",+1 213-452-0840,https://www.ralphs.com/stores/grocery/ca/los-angeles/9th-flower/703/00022,34.0455899,-118.2608354,,,n_470894217,"shop=supermarket, brand=Ralphs"
"San Marino, CA",,retail,445110,Ralphs,"915 South Brookhurst Street, Anaheim, CA, 92804",+1 714-635-3670,https://www.ralphs.com/stores/grocery/ca/anaheim/brookhurst-sc/703/00296,33.819545,-117.9601612,,,n_471293427,"shop=supermarket, brand=Ralphs"
"San Marino, CA",,retail,445110,Stater Bros.,"610 South Brookhurst Street, Anaheim, CA, 92804",+1 714-774-3933,https://www.staterbros.com/stores/166,33.8242583,-117.9579726,,,n_471293428,"shop=supermarket, brand=Stater Bros."
"San Marino, CA",,retail,445120,7-Eleven,"10488 Valley View Street, Buena Park, CA, 90620-4450",+1 714-826-4912,https://www.7-eleven.com/locations/ca/buena-park/10488-valley-view-st-25600,33.8102175,-118.0278216,,,n_471299654,"shop=convenience, brand=7-Eleven"
"San Marino, CA",,retail,452210,Ross,"5635 Woodruff Avenue, Lakewood, CA, 90713",+1 562-866-9753,,33.8595091,-118.1182893,,,n_500594533,"shop=department_store, brand=Ross"
"San Marino, CA",,retail,452319,99 Cents Only Stores,"1617 North Hacienda Boulevard, La Puente, CA, 91744",+1-626-918-6699,https://locations.99only.com/ca/lapuente/discount-store-56.html,34.0495307,-117.9472794,,,n_509864872,"shop=variety_store, brand=99 Cents Only Stores"
"San Marino, CA",,retail,446110,CVS Pharmacy,,,https://www.cvs.com/store-locator/santa-monica-ca-pharmacies/2505-santa-monica-boulevard-santa-monica-ca-90404/storeid=9608,34.0333771,-118.4754357,,,n_536306891,"shop=chemist, brand=CVS Pharmacy"
"San Marino, CA",,retail,445120,Arrow Liquor,,,,34.1015596,-117.7933772,,,n_537193217,shop=convenience
"San Marino, CA",,retail,445120,The Copper Lamp,,,,34.1514994,-118.0036145,,,n_539321032,shop=convenience
"San Marino, CA",,retail,445120,7-Eleven,"400 West Foothill, Monrovia, CA, 91016-2026",+1 626-358-5112,https://www.7-eleven.com/locations/ca/monrovia/400-w-foothill-20295,34.1508814,-118.0078632,,,n_539321036,"shop=convenience, brand=7-Eleven"
"San Marino, CA",,retail,445120,Arco,,,,33.9894323,-118.063985,,,n_556218782,"shop=convenience, amenity=fuel, brand=Arco"
"San Marino, CA",,retail,445120,7-Eleven,"2410 South Fullerton Road, Rowland Heights, CA, 91748-4414",+1 626-912-7506,https://www.7-eleven.com/locations/ca/rowland-heights/2410-s-fullerton-rd-20434,33.9760544,-117.9094003,,,n_560374099,"shop=convenience, brand=7-Eleven"
"San Marino, CA",,retail,445120,Chevron,,,,33.9766237,-117.909158,,,n_560374100,"shop=convenience, amenity=fuel;atm, brand=Chevron"
"San Marino, CA",,retail,445120,Mobil,,,,34.0366255,-118.038132,,,n_565329534,"shop=convenience, amenity=fuel, brand=Mobil"
"San Marino, CA",,retail,445120,7-Eleven,"8363 Foothill Boulevard, Sunland-Tujunga, CA, 91040",+1 818-353-0321,https://www.7-eleven.com/locations/ca/sunland/8363-foothill-blvd-20814,34.2601185,-118.3155035,,,n_566387419,"shop=convenience, brand=7-Eleven, operator=7 Eleven"
"San Marino, CA",,retail,445120,Shell,,,,34.0782779,-118.123268,,,n_576992706,"shop=convenience, amenity=fuel, brand=Shell"
"San Marino, CA",,retail,445292,See's Candies,,,,34.0780501,-118.1137876,,,n_577032093,"shop=confectionery, brand=See's Candies"
"San Marino, CA",,retail,445110,Cali Mart,,,,34.0783087,-118.1131332,,,n_577032096,shop=supermarket
"San Marino, CA",,retail,445120,7-Eleven,"10008 Valley Boulevard, El Monte, CA, 91731-1702",+1 626-579-0659,https://www.7-eleven.com/locations/ca/el-monte/10008-valley-blvd-25625,34.0784233,-118.0526223,,,n_579354911,"shop=convenience, brand=7-Eleven"
"San Marino, CA",,retail,445120,76,"10243 Valley Boulevard, El Monte, CA, 91731",,,34.0770355,-118.0468226,,,n_579354925,"shop=convenience, amenity=fuel, brand=76"
"San Marino, CA",,retail,445120,76,,,https://www.76.com/station/U76-AMERICAN-ROYAL-PETROLEUM-INC-0000888990/,34.0514289,-118.000031,,,n_580751411,"shop=convenience, amenity=fuel, brand=76"
"San Marino, CA",,retail,445120,Shell,,,,34.0348258,-117.97527,,,n_580751561,"shop=convenience, amenity=fuel, brand=Shell"
"San Marino, CA",,retail,445120,,,,,34.0599944,-118.1727227,,,n_583031847,"shop=convenience, amenity=fuel, brand=Mobil"
"San Marino, CA",,retail,446110,CVS Pharmacy,"102 North San Gabriel Boulevard, San Gabriel, CA, 91775",+1 (626) 237-2054,https://www.cvs.com/store-locator/san-gabriel-ca-pharmacies/102-n-san-gabriel-blvd-san-gabriel-ca-91775/storeid=9160,34.1037572,-118.0903874,,,n_585201675,"shop=chemist, brand=CVS Pharmacy"
"San Marino, CA",,retail,445120,76,,,,34.0316582,-118.153439,,,n_607813307,"shop=convenience, amenity=fuel, brand=76"
"San Marino, CA",,retail,445120,76,"3501 3rd St, Los Angeles, CA, 90004",,,34.0692525,-118.291986,,,n_608957448,"shop=convenience, amenity=fuel, brand=76"
"San Marino, CA",,retail,445120,7-Eleven,"265 South Kingsley Drive, Los Angeles, CA, 90004-4307",+1 213-387-8993,https://www.7-eleven.com/locations/ca/los-angeles/265-south-kingsley-dr-15964,34.0692294,-118.3033681,,,n_609065230,"shop=convenience, brand=7-Eleven"
"San Marino, CA",,retail,445120,,,,,34.0719018,-118.2213266,,,n_614037517,shop=convenience
"San Marino, CA",,retail,445120,76,,,https://www.76.com/station/U76-DBA-BROADWAY-OIL-176-0000904545/,34.0729235,-118.220036,,,n_614037522,"shop=convenience, amenity=fuel, brand=76"
"San Marino, CA",,retail,445120,Shell,,,,34.0735162,-118.207495,,,n_614042926,"shop=convenience, amenity=fuel, brand=Shell"
"San Marino, CA",,retail,445120,Shell,,,,34.0859145,-118.187944,,,n_614131294,"shop=convenience, amenity=fuel, brand=Shell"
"San Marino, CA",,retail,445110,Hankook Korean Market,,,,34.2295029,-118.2480204,,,n_617849838,shop=supermarket
"San Marino, CA",,retail,445120,,,,,34.2160448,-118.2395444,,,n_617854895,shop=convenience
"San Marino, CA",,retail,445110,Ralphs,"2675 Foothill Boulevard, La Crescenta, CA, 91214",+1 818-249-5448,https://www.ralphs.com/stores/grocery/ca/la-crescenta/crescenta-plaza/703/00001,34.2232947,-118.236819,,,n_617855272,"shop=supermarket, brand=Ralphs"
"San Marino, CA",,retail,445110,Lotte Market,,,,34.21619,-118.2239344,,,n_617872067,shop=supermarket
"San Marino, CA",,retail,445110,Ralphs,"160 Lake Avenue, Pasadena, CA, 91101",+1 626-793-0531,https://www.ralphs.com/stores/grocery/ca/pasadena/lake/703/00096,34.1489747,-118.1313255,,,n_618441755,"shop=supermarket, brand=Ralphs"
"San Marino, CA",,retail,445292,The Chocolate Box,,,,34.1159845,-118.1515151,,,n_624873852,shop=confectionery
"San Marino, CA",,retail,445110,Co-opportunity Market,"1525 Broadway, 90404",+1 310-451-8902,https://coopportunity.com,34.0243189,-118.4827547,,,n_627181492,shop=supermarket
"San Marino, CA",,retail,445120,Alameda Fuel,,,,33.888908,-118.2196673,,,n_630044934,"shop=convenience, amenity=fuel"
"San Marino, CA",,retail,445120,Shell,,,,33.8318934,-118.29063,,,n_633179952,"shop=convenience, amenity=fuel, brand=Shell"
"San Marino, CA",,retail,452210,Bloomingdale's,,,,34.0135508,-118.4925513,,,n_642708989,"shop=department_store, brand=Bloomingdale's"
"San Marino, CA",,retail,452210,Ross,"3425 East Foothill Boulevard, Pasadena, CA, 91107",+1 626-351-5334,,34.1505768,-118.0803385,,,n_663913193,"shop=department_store, brand=Ross"
"San Marino, CA",,retail,445120,Valero,,,,33.8745344,-118.203172,,,n_701702656,"shop=convenience, amenity=fuel, brand=Valero"
"San Marino, CA",,retail,445120,76,,,https://www.76.com/station/U76-CF-UNITED-LLC-2650673-0000877637/,33.7755663,-118.198294,,,n_702449429,"shop=convenience, amenity=fuel, brand=76"
"San Marino, CA",,retail,445120,Supreme Liquor Jr. Market,,,,33.7751477,-118.197823,,,n_702449431,shop=convenience
"San Marino, CA",,retail,445120,Chevron,,,,33.7895803,-118.188937,,,n_703647788,"shop=convenience, amenity=fuel, brand=Chevron"
"San Marino, CA",,retail,445120,76,,,https://www.76.com/station/U76-APRO-LLC-2708869-0000901146/,33.7901403,-118.197843,,,n_703647850,"shop=convenience, amenity=fuel, brand=76"
"San Marino, CA",,retail,453110,Pacific Florist,,,,33.7841721,-118.1348107,,,n_704354563,shop=florist
"San Marino, CA",,retail,445120,Mobil,,,,34.0110129,-118.081246,,,n_728122630,"shop=convenience, amenity=fuel, brand=Mobil"
"San Marino, CA",,retail,452319,Dollar Tree,,,https://www.dollartree.com/locations/ca/monterey-park/3255/,34.0364137,-118.1307896,,,n_734166573,"shop=variety_store, brand=Dollar Tree"
"San Marino, CA",,retail,453110,,,,,34.037653,-118.1299743,,,n_734166603,shop=florist
"San Marino, CA",,retail,445110,Alta Dena Dairy,,,,34.0374542,-118.1300462,,,n_734167101,shop=grocery
"San Marino, CA",,retail,445310,Country Liquor,,,,34.0553818,-118.1254226,,,n_734684802,shop=alcohol
"San Marino, CA",,retail,446110,Garfield Professional Medical Building,"616 Garfield Ave, Monterey Park, CA, 91754",,,34.0691454,-118.122681,,,n_738178802,"shop=chemist, amenity=doctors"
"San Marino, CA",,retail,445120,Arco,,,,34.0520505,-118.063948,,,n_740421419,"shop=convenience, amenity=fuel, brand=Arco"
"San Marino, CA",,retail,445120,Shell,,,,34.0515189,-118.064693,,,n_740421459,"shop=convenience, amenity=fuel, brand=Shell"
"San Marino, CA",,retail,445110,Siêu Thi Thuân Phát El Monte Superstore,"2650 Rosemead Blvd, South El Monte, CA, 91733",,,34.059963,-118.063463,,,n_740421460,shop=supermarket
"San Marino, CA",,retail,445120,Mobil,,,,34.0629899,-118.065148,,,n_740421733,"shop=convenience, amenity=fuel, brand=Mobil"
"San Marino, CA",,retail,445120,7-Eleven,"6262 Rosemead Boulevard, Temple City, CA, 91780",+1 626-292-5834,https://www.7-eleven.com/locations/ca/temple-city/6262-rosemead-blvd-34630,34.113062,-118.0733063,,,n_741072304,"shop=convenience, brand=7-Eleven"
"San Marino, CA",,retail,445120,Cecy's Market,,,,34.0951193,-118.300791,,,n_757182297,shop=convenience
"San Marino, CA",,retail,445120,La Providencia Market,"4532 Fountain Avenue, Los Angeles, CA, 90029",,,34.0955913,-118.2876342,,,n_757239551,shop=convenience
"San Marino, CA",,retail,445110,El C Lollo Meat Market,,,,34.0769216,-118.275498,,,n_757327034,shop=supermarket
"San Marino, CA",,retail,452319,Dollar Tree,,,https://www.dollartree.com/locations/ca/los-angeles/5490/,34.0865443,-118.186499,,,n_757759930,"shop=variety_store, brand=Dollar Tree"
"San Marino, CA",,retail,445110,Del Mar Foods,,,,34.0620933,-118.0986244,,,n_771567447,shop=supermarket
"San Marino, CA",,retail,445110,Arcadia Supermarket,,,,34.1272822,-118.0530946,,,n_774192247,shop=supermarket
"San Marino, CA",,retail,445110,Grocery Outlet,"520 Workman Mill Rd, La Puente, CA, 91746",,,34.0398355,-117.997761,,,n_780633184,"shop=supermarket, brand=Grocery Outlet"
"San Marino, CA",,retail,445110,T.S. Emporium,,,,34.0623032,-118.1236641,,,n_803017370,shop=supermarket
"San Marino, CA",,retail,445110,Hawaii Supermarket,"120 East Valley Boulevard, 91776",6263070062,https://hawaii-supermarket.com/,34.0792536,-118.0988599,,,n_805610612,shop=supermarket
"San Marino, CA",,retail,445110,,,,,34.0839006,-118.2137358,,,n_806649036,shop=grocery
"San Marino, CA",,retail,445120,76,,,https://www.76.com/station/U76-LA-PALMA-GAS-STATION-INC-0000804934/,33.855871,-117.83775,,,n_814446945,"shop=convenience, amenity=fuel, brand=76"
"San Marino, CA",,retail,445310,,,,,34.15066,-118.4315498,,,n_839067873,shop=alcohol
"San Marino, CA",,retail,445110,Super A Foods,,,,34.1012115,-118.0750065,,,n_846262878,shop=supermarket
"San Marino, CA",,retail,445110,Smart & Final,401 North Fair Oaks Avenue,,,34.1527364,-118.1509388,,,n_852777077,"shop=supermarket, brand=Smart & Final"
"San Marino, CA",,retail,452210,Burlington,,,,34.1257216,-118.055214,,,n_856085038,"shop=department_store, brand=Burlington"
"San Marino, CA",,retail,445120,7-Eleven,"1003 South Baldwin Avenue, Arcadia, CA, 91007-7235",+1 626-445-3777,https://www.7-eleven.com/locations/ca/arcadia/1003-s-baldwin-ave-17565,34.128606,-118.0550447,,,n_856085047,"shop=convenience, brand=7-Eleven"
"San Marino, CA",,retail,445120,American Gas - Mini Mart,,,,34.0988332,-118.0507293,,,n_857725076,"shop=convenience, amenity=fuel"
"San Marino, CA",,retail,445120,Baldwin Gas & Food Mart,,,,34.0904634,-118.0485115,,,n_857725109,"shop=convenience, amenity=fuel"
"San Marino, CA",,retail,445120,7-Eleven,"3243 Santa Anita Avenue, El Monte, CA, 91733-1372",+1 626-442-7410,https://www.7-eleven.com/locations/ca/el-monte/3243-santa-anita-ave-16020,34.0672914,-118.0427725,,,n_857781265,"shop=convenience, brand=7-Eleven"
"San Marino, CA",,retail,445120,,,,,34.0657294,-118.0428833,,,n_857781288,shop=convenience
"San Marino, CA",,retail,445120,Mobil,,,,34.0408761,-118.049496,,,n_858012926,"shop=convenience, amenity=fuel, brand=Mobil"
"San Marino, CA",,retail,445120,Chevron,,,,34.0166542,-118.078574,,,n_859558838,"shop=convenience, amenity=fuel, brand=Chevron"
"San Marino, CA",,retail,445120,76,,,https://www.76.com/station/U76-APRO-LLC-254867-0000901027/,34.0018481,-118.084216,,,n_859559022,"shop=convenience, amenity=fuel, brand=76"
"San Marino, CA",,retail,445110,Food 4 Less,,,,34.0018252,-118.0883925,,,n_859559131,"shop=supermarket, brand=Food 4 Less"
"San Marino, CA",,retail,452210,Marshalls,,,,33.9823687,-118.099241,,,n_862963225,"shop=department_store, brand=Marshalls"
"San Marino, CA",,retail,452319,Five Below,,+1 562-222-1715,https://locations.fivebelow.com/ca/pico-rivera/8850-washington-blvd,33.9827108,-118.099901,,,n_862963274,"shop=variety_store, brand=Five Below"
"San Marino, CA",,retail,445120,Arco,,,,33.9967604,-118.124236,,,n_864089059,"shop=convenience, amenity=fuel, brand=Arco"
"San Marino, CA",,retail,445120,7-Eleven,"1785 Palo Verde Avenue, Long Beach, CA, 90815-4603",+1 562-248-2108,https://www.7-eleven.com/locations/ca/long-beach/1785-palo-verde-avenue-25312,33.7882509,-118.108304,,,n_869418717,"shop=convenience, brand=7-Eleven"
"San Marino, CA",,retail,445120,7-Eleven,"2150 South Fremont Avenue, Alhambra, CA, 91803-4315",+1 626-282-8378,https://www.7-eleven.com/locations/ca/alhambra/2150-s-fremont-ave-18394,34.0680467,-118.1491595,,,n_878924549,"shop=convenience, brand=7-Eleven"
"San Marino, CA",,retail,445110,Albertsons,"2035 Hillhurst Avenue, Los Angeles, CA, 90027",+1 323-660-0687,https://local.albertsons.com/ca/los-angeles/2035-hillhurst-ave.html,34.1088413,-118.287919,,,n_902322532,"shop=supermarket, brand=Albertsons"
"San Marino, CA",,retail,445120,7-Eleven,"4650 Franklin Avenue, Los Angeles, CA, 90027-4202",+1 323-660-7028,https://www.7-eleven.com/locations/ca/los-angeles/4650-franklin-ave-25599,34.105215,-118.2913752,,,n_902322542,"shop=convenience, brand=7-Eleven"
"San Marino, CA",,retail,445110,Jon's Marketplace,,,,34.1001798,-118.2926464,,,n_902322555,shop=supermarket
"San Marino, CA",,retail,452210,JCPenney,,,,34.1440551,-118.259183,,,n_928701152,"shop=department_store, brand=JCPenney"
"San Marino, CA",,retail,446110,Walgreens,"1625 West Sunset Boulevard, Los Angeles, CA, 90026",,https://www.walgreens.com/locator/walgreens-1625+w+sunset+blvd-los+angeles-ca-90026/id=9136,34.0776127,-118.2575936,,,n_933350506,"shop=chemist, brand=Walgreens"
"San Marino, CA",,retail,445110,Ralphs,"3601 East Foothill Boulevard, Pasadena, CA, 91107",+1 626-351-8806,https://www.ralphs.com/stores/grocery/ca/pasadena/foothill-rosemead-plaza/703/00730,34.1512877,-118.07553,,,n_934134981,"shop=supermarket, brand=Ralphs"
"San Marino, CA",,retail,445120,7-Eleven,"601 South Fremont Avenue, Alhambra, CA, 91803-1318",+1 626-570-1224,https://www.7-eleven.com/locations/ca/alhambra/601-south-fremont-ave-17853,34.0875667,-118.1523846,,,n_936119248,"shop=convenience, brand=7-Eleven"
"San Marino, CA",,retail,445120,7-Eleven,"6701 Santa Monica Boulevard, Los Angeles, CA, 90038-1202",+1 323-467-5431,https://www.7-eleven.com/locations/ca/los-angeles/6701-santa-monica-blvd-19667,34.0910473,-118.336518,,,n_938551265,"shop=convenience, brand=7-Eleven"
"San Marino, CA",,retail,445110,Trader Joe's,"610 South Arroyo Parkway, Pasadena, CA, 91105",+1 626-568-9254,https://locations.traderjoes.com/ca/pasadena/51/,34.1351342,-118.1469596,,,n_938900448,"shop=supermarket, brand=Trader Joe's"
"San Marino, CA",,retail,452210,Macy's,,,https://www.macys.com/stores/ca/arcadia/shops-at-santa-anita_482.html,34.1334304,-118.0517513,,,n_938901616,"shop=department_store, brand=Macy's"
"San Marino, CA",,retail,452210,JCPenney,,,,34.1363964,-118.0506784,,,n_938901618,"shop=department_store, brand=JCPenney"
"San Marino, CA",,retail,452210,Nordstrom,,,https://www.nordstrom.com/store-details/nordstrom-santa-anita,34.1353707,-118.0524219,,,n_938901619,"shop=department_store, brand=Nordstrom"
"San Marino, CA",,retail,445110,Trader Joe's,"263 South La Brea Avenue, Los Angeles, CA, 90036",+1 323-965-1989,https://locations.traderjoes.com/ca/los-angeles/31/,34.0691676,-118.3443578,,,n_939272544,"shop=supermarket, brand=Trader Joe's"
"San Marino, CA",,retail,445120,A&G Food Mart,,,,34.0586006,-118.3456724,,,n_940358510,shop=convenience
"San Marino, CA",,retail,452210,Target,"3121 East Colorado Boulevard, Pasadena, CA, 91107-3814",+1 626-584-2931,https://www.target.com/sl/pasadena-east/1332,34.1469237,-118.0856589,,,n_942076158,"shop=department_store, brand=Target"
"San Marino, CA",,retail,445110,Smart & Final,,,,34.1466662,-118.0832932,,,n_942076204,"shop=supermarket, brand=Smart & Final"
"San Marino, CA",,retail,446110,CVS Pharmacy,"12100 Ventura Boulevard, Studio City, CA, 91604",,https://www.cvs.com/store-locator/studio-city-ca-pharmacies/12100-ventura-blvd-studio-city-ca-91604/storeid=9527,34.1433558,-118.395443,,,n_957098900,"shop=chemist, brand=CVS Pharmacy"
"San Marino, CA",,retail,446120,Sephora,"12036 Ventura Boulevard, Studio City, CA, 91604",+1-818-506-3166,,34.1434801,-118.393697,,,n_957109340,"shop=cosmetics, brand=Sephora"
"San Marino, CA",,retail,446110,CVS Pharmacy,"5020 West 190th Street, Torrance, CA, 90503",,https://www.cvs.com/store-locator/torrance-ca-pharmacies/5020-west-190th-street-torrance-ca-90503/storeid=8868,33.8577036,-118.364324,,,n_965401136,"shop=chemist, brand=CVS Pharmacy"
"San Marino, CA",,retail,445110,Jons,"4848 West 190th Street, Torrance, CA, 90503",+1-424-282-2034,https://jonsmarketplace.com/store?no=4,33.8576789,-118.36263,,,n_965401897,shop=supermarket
"San Marino, CA",,retail,445110,Buy Low Market,,,,34.0618345,-118.0524514,,,n_989105051,shop=supermarket
"San Marino, CA",,retail,445120,Adams' Pack Station,,,https://adamspackstation.com/,34.1948541,-118.0228268,,,n_989711453,"shop=convenience, operator=Maggie Moran"
"San Marino, CA",,retail,445110,GW Supermarket,"421 North Atlantic Boulevard, Monterey Park, CA, 91754",,,34.067228,-118.1348382,,,n_1011108775,shop=supermarket
"San Marino, CA",,retail,445110,Quang Hoa Super Market,350 Garvey Avenue,,,34.0623299,-118.1175646,,,n_1011125373,shop=supermarket
"San Marino, CA",,retail,445120,Grace Liquor,,,,33.9521609,-118.1873448,,,n_1013282858,shop=convenience
"San Marino, CA",,retail,445120,Toad's Liquor,,,,33.9491751,-118.1825792,,,n_1013283125,shop=convenience
"San Marino, CA",,retail,445120,7-Eleven,"1865 Lincoln Boulevard, Santa Monica, CA, 90404-6510",+1 310-452-3326,https://www.7-eleven.com/locations/ca/santa-monica/1865-lincoln-ave-39022,34.0126451,-118.4830231,,,n_1028758788,"shop=convenience, brand=7-Eleven"
"San Marino, CA",,retail,452319,99 Cents Only Stores,,,https://locations.99only.com/ca/losangeles/discount-store-63.html,34.0977284,-118.305009,,,n_1036344090,"shop=variety_store, brand=99 Cents Only Stores"
"San Marino, CA",,retail,445110,Lucy`s,,,,34.0986146,-118.311887,,,n_1036344326,shop=supermarket
"San Marino, CA",,retail,445120,Cigarettes4Less,,,,34.0985724,-118.3061042,,,n_1036344355,shop=convenience
"San Marino, CA",,retail,445110,Whole Foods Market,"7871 Santa Monica Boulevard, West Hollywood, CA, 90046",+1 323-848-4200,https://www.wholefoodsmarket.com/stores/westhollywood,34.0915358,-118.3608414,,,n_1040770752,"shop=supermarket, brand=Whole Foods Market"
"San Marino, CA",,retail,452319,Shims Bargain,,,,34.1146489,-118.2451856,,,n_1041279966,shop=variety_store
"San Marino, CA",,retail,445110,Vince's Market,"3250 Silver Lake Boulevard, Los Angeles, CA, 90039",(323) 664-4798,,34.1139738,-118.253779,,,n_1041279967,shop=supermarket
"San Marino, CA",,retail,445110,Super King,,,,34.2022394,-118.4505628,,,n_1090501750,shop=supermarket
"San Marino, CA",,retail,445110,Smart & Final,,,,34.0879126,-118.309646,,,n_1098454659,"shop=supermarket, brand=Smart & Final"
"San Marino, CA",,retail,445110,,,,,33.9898366,-117.9346321,,,n_1106835565,shop=supermarket
"San Marino, CA",,retail,445120,Shell,,,,34.1212716,-117.907152,,,n_1109831813,"shop=convenience, amenity=fuel, brand=Shell"
"San Marino, CA",,retail,445120,7-Eleven,"281 East Pomona Boulevard, Monterey Park, CA, 91755-7237",+1 323-722-7752,https://www.7-eleven.com/locations/ca/monterey-park/281-east-pomona-blvd-17169,34.0339341,-118.1253892,,,n_1111079853,"shop=convenience, brand=7-Eleven"
"San Marino, CA",,retail,445110,Honeybaked,,,,34.1380702,-118.1011844,,,n_1113216783,shop=supermarket
"San Marino, CA",,retail,445110,Sprouts Farmers Market,"2245 Yosemite Drive, Los Angeles, CA, 90041",+1 323-423-1128,http://sprouts.com/store/ca/los-angeles/eagle-rock/,34.1356634,-118.216452,,,n_1145238379,"shop=supermarket, brand=Sprouts Farmers Market"
"San Marino, CA",,retail,445120,Cordons Market,,,,34.2133496,-118.2425138,,,n_1178385099,shop=convenience
"San Marino, CA",,retail,445110,,,,,34.2221326,-118.2491174,,,n_1178385353,shop=supermarket
"San Marino, CA",,retail,445110,Smart & Final,,,,34.2461924,-118.274765,,,n_1178385450,"shop=supermarket, brand=Smart & Final"
"San Marino, CA",,retail,452210,Sears,,,,34.1511208,-118.0708205,,,n_1210063375,"shop=department_store, brand=Sears"
"San Marino, CA",,retail,445310,Belly's West Liquor,,,,34.0776302,-118.1357283,,,n_1223355540,shop=alcohol
"San Marino, CA",,retail,445120,Chevron,,,,34.069386,-118.028137,,,n_1224094960,"shop=convenience, amenity=fuel;car_wash, brand=Chevron"
"San Marino, CA",,retail,445230,Fairfax Market,,,https://disneyland.disney.go.com/dining/disney-california-adventure/fairfax-fruit-market/,33.8077507,-117.9174254,,,n_1231986596,shop=greengrocer
"San Marino, CA",,retail,445230,Bayou Country Fruit Cart,,,https://disneyland.disney.go.com/dining/fruit/,33.8124015,-117.9219802,,,n_1231986700,shop=greengrocer
"San Marino, CA",,retail,445292,Candy Palace,215 Main Street,,https://disneyland.disney.go.com/shops/disneyland/candy-palace-kitchen/,33.8113269,-117.9191133,,,n_1231987200,shop=confectionery
"San Marino, CA",,retail,445292,Pooh Corner,,,https://disneyland.disney.go.com/shops/disneyland/pooh-corner/,33.8122578,-117.9232603,,,n_1231987202,shop=confectionery
"San Marino, CA",,retail,445310,Mint Julep Bar,15 Front Street,,https://disneyland.disney.go.com/dining/disneyland/mint-julep-bar/,33.8111728,-117.9216625,,,n_1231987358,shop=beverages
"San Marino, CA",,retail,445120,UCLA Hill Top Store,,,,34.0723934,-118.4508935,,,n_1233313359,shop=convenience
"San Marino, CA",,retail,445310,Lemonade Small World,,,,33.8137806,-117.9180498,,,n_1233368367,"shop=beverages, amenity=snack_stand"
"San Marino, CA",,retail,445120,,,,,33.8588072,-117.9596716,,,n_1233397047,shop=convenience
"San Marino, CA",,retail,445120,7-Eleven,"301 South Brookhurst Road, Fullerton, CA, 92833-3203",+1 714-447-3065,https://www.7-eleven.com/locations/ca/fullerton/301-s-brookhurst-rd-27746,33.8663531,-117.959846,,,n_1233397286,"shop=convenience, brand=7-Eleven"
"San Marino, CA",,retail,445120,,,,,33.8588406,-117.9589287,,,n_1233397300,shop=convenience
"San Marino, CA",,retail,445110,,,,,33.859883,-117.9573837,,,n_1233397827,shop=supermarket
"San Marino, CA",,retail,445120,7-Eleven,"295 West Central Avenue, Brea, CA, 92821",+1 714-529-7831,https://www.7-eleven.com/locations/ca/brea/295-west-central-24506,33.932507,-117.8989545,,,n_1234340501,"shop=convenience, brand=7-Eleven"
"San Marino, CA",,retail,445110,Ralphs,"305 West Imperial Highway, Brea, CA, 92821",+1 714-529-4505,https://www.ralphs.com/stores/grocery/ca/brea/brea-town-center/703/00192,33.9188241,-117.902639,,,n_1234340553,"shop=supermarket, brand=Ralphs"
"San Marino, CA",,retail,453991,Islands Cigar,101D West Central Avenue,,,33.9326984,-117.8942713,,,n_1234340751,shop=tobacco
"San Marino, CA",,retail,452319,99 Cents Only Stores,,,https://locations.99only.com/ca/brea/discount-store-221.html,33.9326139,-117.917016,,,n_1234350107,"shop=variety_store, brand=99 Cents Only Stores"
"San Marino, CA",,retail,453110,,,,,33.932467,-117.9015455,,,n_1234350262,shop=florist
"San Marino, CA",,retail,445120,ampm,,,,33.8184841,-117.880963,,,n_1234468325,"shop=convenience, brand=ampm"
"San Marino, CA",,retail,445292,Marceline's Confectionery,"1580 South Disneyland Drive, Anaheim, 92802",,https://disneyland.disney.go.com/shopping/marcelines-confectionery/,33.8087355,-117.9226781,,,n_1234801139,shop=confectionery
"San Marino, CA",,retail,446120,Sephora,"1570 South Disneyland Drive, Anaheim, CA, 92802",(714) 758-1700,https://www.sephora.com/happening/stores/anaheim-disneyland,33.8086141,-117.922394,,,n_1234801191,"shop=cosmetics, brand=Sephora"
"San Marino, CA",,retail,445310,Total Wine,"471 South Associated Road, Brea, CA, 92821",+1 714-672-0323,https://www.totalwine.com/store-info/1105,33.9120237,-117.8820434,,,n_1250732968,"shop=alcohol, brand=Total Wine"
"San Marino, CA",,retail,446120,Mlle. Antoinette’s Parfumerie,24 Orleans Street,,,33.8111524,-117.9214412,,,n_1256492317,shop=perfumery
"San Marino, CA",,retail,445120,7-Eleven,,,,34.1044397,-118.3296603,,,n_1274361043,"shop=convenience, brand=7-Eleven"
"San Marino, CA",,retail,445120,7-Eleven,"305 South San Gabriel Boulevard, San Gabriel, CA, 91776-1930",+1 626-545-2770,https://www.7-eleven.com/locations/ca/san-gabriel/305-s-san-gabriel-blvd-19202,34.0986889,-118.091241,,,n_1280332993,"shop=convenience, brand=7-Eleven"
"San Marino, CA",,retail,445110,Ralphs,"10901 Ventura Boulevard, Studio City, CA, 91604",+1 818-760-7008,https://www.ralphs.com/stores/grocery/ca/studio-city/studio-plaza/703/00133,34.1400528,-118.3679456,,,n_1293326615,"shop=supermarket, brand=Ralphs"
"San Marino, CA",,retail,445120,Rocket,"1200 Harbor Blvd., Anaheim, CA, 92805",,,33.8175956,-117.9146396,,,n_1304346625,"shop=convenience, brand=Rocket"
"San Marino, CA",,retail,445110,Stater Bros.,"1040 East Bastanchury Road, Fullerton, CA, 92835",+1 714-257-0460,https://www.staterbros.com/stores/129,33.8983315,-117.9111323,,,n_1399431829,"shop=supermarket, brand=Stater Bros."
"San Marino, CA",,retail,445110,Grocery Outlet,"7260 N. Rosemead, 91775",,https://www.traderjoes.com/stores/index.asp,34.129108,-118.0725061,,,n_1419660412,"shop=supermarket, brand=Grocery Outlet"
"San Marino, CA",,retail,445120,Bob's,,,,34.0288144,-118.4033159,,,n_1419803118,shop=convenience
"San Marino, CA",,retail,445292,Trolley Treats,2741 Buena Vista Street,,https://disneyland.disney.go.com/shops/disney-california-adventure/trolley-treats/,33.8080123,-117.9191349,,,n_1421476451,shop=confectionery
"San Marino, CA",,retail,452210,"Macy's Mens, Childern, & Furniture",,714-990-1400,https://www.macys.com/stores/ca/brea/brea-mall_524.html,33.9163225,-117.885144,,,n_1421587163,"shop=department_store, brand=Macy's"
"San Marino, CA",,retail,446120,Glen Ivy Day Spa,,,,33.9153475,-117.887365,,,n_1421587168,shop=beauty
"San Marino, CA",,retail,452210,Macy's Womens,,,,33.9148148,-117.885329,,,n_1421616628,"shop=department_store, brand=Macy's"
"San Marino, CA",,retail,452210,JCPenney,,714-671-2882,,33.9166759,-117.886911,,,n_1421616629,"shop=department_store, brand=JCPenney"
"San Marino, CA",,retail,452210,Nordstrom,,714-529-0123,https://www.nordstrom.com/store-details/nordstrom-brea-mall,33.9157764,-117.8882045,,,n_1421616637,"shop=department_store, brand=Nordstrom"
"San Marino, CA",,retail,445110,Numero Uno Market,,,,33.9598407,-118.2684904,,,n_1424377560,shop=supermarket
"San Marino, CA",,retail,445310,,,,,33.9302148,-117.8941029,,,n_1429718361,shop=alcohol
"San Marino, CA",,retail,445110,Mother's Market,,,,33.9125846,-117.8804903,,,n_1439087735,shop=supermarket
"San Marino, CA",,retail,445210,,,,,33.912589,-117.8807094,,,n_1439087736,shop=butcher
"San Marino, CA",,retail,445230,Mortimer's Market,Buena Vista Street,,https://disneyland.disney.go.com/dining/fruit/,33.8082886,-117.919092,,,n_1483210923,shop=greengrocer
"San Marino, CA",,retail,446120,LC's Beauty Salon,,,,34.073591,-118.172594,,,n_1488571342,shop=beauty
"San Marino, CA",,retail,445230,Tomorrowland Fruit Cart,,,https://disneyland.disney.go.com/dining/fruit/,33.8119787,-117.9171676,,,n_1488768779,shop=greengrocer
"San Marino, CA",,retail,445110,Trader Joe's,"8611 Santa Monica Boulevard, West Hollywood, CA, 90069",+1 310-657-0152,https://www.traderjoes.com/,34.0880565,-118.3796094,,,n_1514589804,"shop=supermarket, brand=Trader Joe's"
"San Marino, CA",,retail,445110,Sprouts Farmers Market,"735 East Birch Street, Brea, CA, 92821",+1 714-482-1000,https://www.sprouts.com/store/ca/brea/e-birch-st/,33.9189987,-117.889389,,,n_1527196023,"shop=supermarket, brand=Sprouts Farmers Market"
"San Marino, CA",,retail,445120,7-Eleven,"5827 Bellflower Boulevard, Lakewood, CA, 90713",+1 562-866-7159,https://www.7-eleven.com/locations/ca/lakewood/5827-bellflower-blvd-34913,33.8613943,-118.1254236,,,n_1579064035,"shop=convenience, brand=7-Eleven"
"San Marino, CA",,retail,445310,Mission Wines,"1114 Mission Street, 91030",,http://www.missionwines.com/,34.1159292,-118.1543211,,,n_1584184049,shop=alcohol
"San Marino, CA",,retail,446120,Pro Nails,"6112 Bellflower Boulevard, Lakewood, 90712",(562) 866-4943,www.lakewoodpronails.com,33.8660054,-118.124769,,,n_1586488976,shop=beauty
"San Marino, CA",,retail,445120,7 Day Mart,"6100 Bellflower Boulevard, Lakewood, 90712",(562) 867-6144,,33.8656912,-118.1247618,,,n_1586489008,shop=convenience
"San Marino, CA",,retail,445110,Mitsuwa Marketplace,"3760 Centinela Avenue, Los Angeles, 90066",,,34.0051047,-118.4335247,,,n_1629231484,"shop=supermarket, brand=Mitsuwa Marketplace"
"San Marino, CA",,retail,445120,The Quarter Market,,,,34.0953863,-117.7197339,,,n_1634477787,shop=convenience
"San Marino, CA",,retail,445110,Trader Joe's,"1000 Glendon Avenue, Los Angeles, CA, 90024",+1 310-824-1495,https://locations.traderjoes.com/ca/los-angeles/234/,34.0621165,-118.4439469,,,n_1654012034,"shop=supermarket, brand=Trader Joe's"
"San Marino, CA",,retail,445110,Albertson's,,,,34.1626916,-118.0690713,,,n_1666897138,shop=supermarket
"San Marino, CA",,retail,445110,Smart & Final,,,,33.8518733,-118.39026,,,n_1672090651,"shop=supermarket, brand=Smart & Final"
"San Marino, CA",,retail,445110,Trader Joe's,"10850 National Boulevard, Los Angeles, CA, 90064",+1 310-470-1917,https://locations.traderjoes.com/ca/los-angeles/7/,34.0299222,-118.4214045,,,n_1711811935,"shop=supermarket, brand=Trader Joe's"
"San Marino, CA",,retail,445310,Hacienda Beverage - Wine & Liquor Store,,,,33.9101716,-117.9034809,,,n_1722470076,shop=alcohol
"San Marino, CA",,retail,445110,Stater Bros.,"375 North Azusa Avenue, West Covina, CA, 91791",+1 626-915-4951,https://www.staterbros.com/stores/106,34.0771636,-117.9094934,,,n_1732625320,"shop=supermarket, brand=Stater Bros."
"San Marino, CA",,retail,452210,Kohl's,,,,34.1297738,-118.0742922,,,n_1743326182,"shop=department_store, brand=Kohl's"
"San Marino, CA",,retail,453110,Far East Florist,"401 San Gabriel Boulevard, 91776",,,34.0977763,-118.0911826,,,n_1768825339,shop=florist
"San Marino, CA",,retail,445292,See's Candies Factory Shop,,,,34.0251853,-118.3723804,,,n_1770936653,"shop=confectionery, brand=See's Candies"
"San Marino, CA",,retail,445110,Sprouts Farmers Market,"8985 Venice Boulevard, Los Angeles, CA, 90034",+1 424-361-6611,https://www.sprouts.com/store/ca/los-angeles/los-angeles-venice-blvd/,34.0277643,-118.3936984,,,n_1771061777,"shop=supermarket, brand=Sprouts Farmers Market"
"San Marino, CA",,retail,446110,CVS Pharmacy,,,https://www.cvs.com/store-locator/los-angeles-ca-pharmacies/8985-venice-boulevard-los-angeles-ca-90034/storeid=8879,34.0277361,-118.3918364,,,n_1771061782,"shop=chemist, brand=CVS Pharmacy"
"San Marino, CA",,retail,445120,,,,,34.1036485,-117.8074646,,,n_1772279897,shop=convenience
"San Marino, CA",,retail,446120,Queen Skin Care,,,,34.0191037,-118.491607,,,n_1780473983,shop=beauty
"San Marino, CA",,retail,445110,El Super,,,,34.1186297,-118.1962954,,,n_1783734628,shop=supermarket
"San Marino, CA",,retail,445110,Ralphs,"10861 Weyburn Avenue, Los Angeles, CA, 90024",+1 310-824-5994,https://www.ralphs.com/stores/grocery/ca/los-angeles/westwood/703/00759,34.0633324,-118.4439456,,,n_1796489473,"shop=supermarket, brand=Ralphs"
"San Marino, CA",,retail,452210,Target,"10861 Weyburn Avenue, Los Angeles, CA, 90024",+1 310-893-2360,https://www.target.com/sl/la-westwood/2774,34.0627169,-118.443724,,,n_1796489475,"shop=department_store, brand=Target"
"San Marino, CA",,retail,445120,7-Eleven,"265 West Olive Avenue, Burbank, CA, 91502-1825",+1 818-845-6011,https://www.7-eleven.com/locations/ca/burbank/265-west-olive-ave-19709,34.1741334,-118.3163101,,,n_1830100158,"shop=convenience, brand=7-Eleven"
"San Marino, CA",,retail,452210,Target,"10820 Jefferson Boulevard, Culver City, CA, 90230-4935",+1-310-839-5200,https://www.target.com/sl/culver-city-jefferson/198,33.9991214,-118.393933,,,n_1832305764,"shop=department_store, brand=Target"
"San Marino, CA",,retail,445120,ampm,,,,33.9103814,-117.8805438,,,n_1847715003,"shop=convenience, brand=ampm"
"San Marino, CA",,retail,445110,Ralphs,"1770 West Carson Street, Torrance, CA, 90501",+1 310-787-8861,https://www.ralphs.com/stores/grocery/ca/torrance/carson-abalone/703/00132,33.8300147,-118.3109876,,,n_1895798278,"shop=supermarket, brand=Ralphs"
"San Marino, CA",,retail,445120,7-Eleven,"2200 Marine Avenue, Gardena, CA, 90249-3723",+1 310-538-9018,https://www.7-eleven.com/locations/ca/gardena/2200-marine-ave-23045,33.8942577,-118.318133,,,n_1895798279,"shop=convenience, brand=7-Eleven"
"San Marino, CA",,retail,445110,Ralphs,"2600 West Victory Boulevard, Burbank, CA, 91505",+1 818-845-5914,https://www.ralphs.com/stores/grocery/ca/burbank/victory-buena-vista/703/00648,34.1840627,-118.3395852,,,n_1897562819,"shop=supermarket, brand=Ralphs"
"San Marino, CA",,retail,445120,7-Eleven,"13450 Osborne Street, Arleta, CA, 91331-5522",+1 818-686-1427,https://www.7-eleven.com/locations/ca/arleta/13450-osborne-st-18910,34.2415986,-118.426108,,,n_1899473045,"shop=convenience, brand=7-Eleven"
"San Marino, CA",,retail,445110,Trader Joe's,"1600 Vine Street, Los Angeles, CA, 90028",+1 323-856-0689,http://www.traderjoes.com/,34.1000166,-118.326466,,,n_1902175919,"shop=supermarket, brand=Trader Joe's, operator=Trader Joe's"
"San Marino, CA",,retail,446110,CVS Pharmacy,,,,34.2348151,-118.4410192,,,n_1932946472,"shop=chemist, brand=CVS Pharmacy"
"San Marino, CA",,retail,445110,Whole Foods Market,"1050 Gayley Avenue, Los Angeles, CA, 90024",+1 310-824-0858,https://www.wholefoodsmarket.com/stores/westwood,34.0612088,-118.447068,,,n_1949785344,"shop=supermarket, brand=Whole Foods Market"
"San Marino, CA",,retail,445120,7-Eleven,"5905 South Street, Lakewood, CA, 90713",+1 562-461-7173,https://www.7-eleven.com/locations/ca/lakewood/5905-south-street-34473,33.858934,-118.116836,,,n_1950137470,"shop=convenience, brand=7-Eleven"
"San Marino, CA",,retail,445110,Stater Bros.,"1145 East Alosta Avenue, Azusa, CA, 91702",+1 626-335-2310,https://www.staterbros.com/stores/57,34.129528,-117.8827593,,,n_1952134910,"shop=supermarket, brand=Stater Bros."
"San Marino, CA",,retail,445292,Ara's Pastry Shop,"4945 Hollywood Boulevard, 90027",3236611116,https://legoutpastry.com/,34.1019433,-118.2974054,,,n_1956148188,shop=confectionery
"San Marino, CA",,retail,445110,Smart & Final Extra!,,,,34.1347425,-117.908062,,,n_1956746514,"shop=supermarket, brand=Smart & Final"
"San Marino, CA",,retail,445120,7-Eleven,"861 West Route 66, Glendora, CA, 91740-4136",+1 626-335-9514,https://www.7-eleven.com/locations/ca/glendora/861-w-route-66-13995,34.1294866,-117.8811447,,,n_1956746562,"shop=convenience, brand=7-Eleven"
"San Marino, CA",,retail,445110,Vons,"435 West Foothill Boulevard, Glendora, CA, 91741",+1 626-963-2913,https://local.vons.com/ca/glendora/435-w-foothill-blvd.html,34.1373253,-117.871569,,,n_1956776715,"shop=supermarket, brand=Vons"
"San Marino, CA",,retail,445110,Ralphs,"5429 Hollywood Boulevard, Los Angeles, CA, 90027",+1 323-957-6830,https://www.ralphs.com/stores/grocery/ca/los-angeles/hollywest/703/00206,34.102296,-118.3081363,,,n_1975817460,"shop=supermarket, brand=Ralphs"
"San Marino, CA",,retail,452210,Ross,"460 South Lake Avenue, Pasadena, CA, 91101",+1 626-844-0592,https://www.rossstores.com/locator.aspx?form=locator_search&addressline=pasadena,34.1379808,-118.1320437,,,n_2001906764,"shop=department_store, brand=Ross"
"San Marino, CA",,retail,453110,Jacob Maarse Florist,"655 East Green Street, Pasadena, 91101",+1 626-449-0246,https://www.facebook.com/pages/Jacob-Maarse-Florist/167874973264904,34.1446843,-118.1370552,,,n_2001906768,shop=florist
"San Marino, CA",,retail,445310,Stone Brewery Pasadena,,,,34.1417632,-118.1484188,,,n_2013850498,shop=alcohol
"San Marino, CA",,retail,445110,Galleria Market - Galleria Vermont,"440 South Vermont Avenue, Los Angeles, CA, 90020",+1-213-427-6266,,34.0655794,-118.290934,,,n_2026766420,shop=supermarket
"San Marino, CA",,retail,445120,Ukranian Market,1207 Wilshire Boulevard,,,34.0255436,-118.490687,,,n_2048544112,shop=convenience
"San Marino, CA",,retail,445120,7-Eleven,"630 Wilshire Boulevard, Santa Monica, CA, 90401-1502",+1 310-393-7330,https://www.7-eleven.com/locations/ca/santa-monica/630-wilshire-blvd-18839,34.0209613,-118.495461,,,n_2048544130,"shop=convenience, brand=7-Eleven"
"San Marino, CA",,retail,446110,CVS Pharmacy,"500 Wilshire Boulevard, Santa Monica, CA, 90401",+1 310 395 4510,https://www.cvs.com/store-locator/cvs-pharmacy-address/500+Wilshire+Blvd-Santa+Monica-CA-90401/storeid=11178,34.0198475,-118.496933,,,n_2048550263,"shop=chemist, brand=CVS Pharmacy, operator=CVS"
"San Marino, CA",,retail,445310,Liquorland,,,,34.0989922,-117.8717164,,,n_2053855076,"shop=alcohol, brand=Liquorland"
"San Marino, CA",,retail,445310,,,,,34.0982351,-118.320224,,,n_2058536245,shop=alcohol
"San Marino, CA",,retail,445310,Buzz Wine Beer Shop,,,,34.0473884,-118.249404,,,n_2096809590,shop=alcohol
"San Marino, CA",,retail,452319,Dollar Tree,"5825 Bellflower Boulevard, Lakewood, CA, 90713",+1 562 925-6265,https://www.dollartree.com/locations/ca/lakewood/4273/,33.8612868,-118.1260321,,,n_2128318936,"shop=variety_store, brand=Dollar Tree"
"San Marino, CA",,retail,453991,Cigars by Chivas,,,https://www.cigarsbychivas.com/,34.1446384,-118.1520446,,,n_2160774776,shop=tobacco
"San Marino, CA",,retail,446120,Lush,,,https://www.lush.com/,34.1456341,-118.1499228,,,n_2160774781,"shop=cosmetics, brand=Lush"
"San Marino, CA",,retail,445110,H Mart,"3500 West 6th Street, Los Angeles, CA, 90020",+1 (213) 235-1917,https://www.hmart.com/store/la-city-center-ca-90020/bc8fe22d-3bbe-4e1a-860f-f3cecd85f1a0,34.0633764,-118.298541,,,n_2163515963,"shop=supermarket, brand=H Mart"
"San Marino, CA",,retail,445120,Trimana,,,,34.0480735,-118.251005,,,n_2163606665,shop=convenience
"San Marino, CA",,retail,453110,basic flowers,,213 995-3333,https://basicflowersla.com/,34.0512151,-118.2474791,,,n_2164323121,shop=florist
"San Marino, CA",,retail,445110,Super A,,,,34.1033676,-118.2360136,,,n_2178030689,shop=supermarket
"San Marino, CA",,retail,445110,Super King,,,,34.1096481,-118.2430678,,,n_2178031334,shop=supermarket
"San Marino, CA",,retail,445110,Trader Joe's,"604 West Huntington Drive, Monrovia, CA, 91016",+1 626-358-8884,https://locations.traderjoes.com/ca/monrovia/112/,34.1380129,-118.0121045,,,n_2184917998,"shop=supermarket, brand=Trader Joe's"
"San Marino, CA",,retail,445120,yummy.com,"1135 North Mansfield, 90038",,https://www.yummy.com,34.0920181,-118.3407752,,,n_2272909079,shop=convenience
"San Marino, CA",,retail,445120,Yummy.com,"3607 Sunset Boulevard, 90026",+1 323-912-9188,https://www.yummy.com/,34.0903077,-118.2769065,,,n_2272911526,shop=convenience
"San Marino, CA",,retail,445110,yummy.com,"6020 Seabluff, 90094",,https://www.yummy.com/,33.9731821,-118.4223595,,,n_2272915652,shop=supermarket
"San Marino, CA",,retail,452210,Saks Fifth Avenue,"9600 Wilshire Blvd, Beverly Hills, CA",,,34.066752,-118.4054323,,,n_2285787888,"shop=department_store, brand=Saks Fifth Avenue"
"San Marino, CA",,retail,446120,Fancy Nails,,,,34.1090346,-118.2872808,,,n_2294898547,shop=beauty
"San Marino, CA",,retail,445120,7-Eleven,"455 East Foothill Boulevard, Azusa, CA, 91702-2518",+1 626-334-9729,https://www.7-eleven.com/locations/ca/azusa/455-e-foothill-blvd-17448,34.133957,-117.9026829,,,n_2295140340,"shop=convenience, brand=7-Eleven"
"San Marino, CA",,retail,446110,CVS Pharmacy,"3458 Sepulveda Boulevard, Los Angeles, CA",,https://www.cvs.com/store-locator/los-angeles-ca-pharmacies/3458-s-sepulveda-blvd-los-angeles-ca-90034/storeid=9563,34.0202308,-118.422312,,,n_2295243962,"shop=chemist, brand=CVS Pharmacy"
"San Marino, CA",,retail,445110,Trader Joe's,"11976 Ventura Boulevard, Studio City, CA, 91604",+1 818-509-0168,https://www.traderjoes.com/,34.1429858,-118.3933469,,,n_2318548747,"shop=supermarket, brand=Trader Joe's"
"San Marino, CA",,retail,445292,See's Candies,"Monrovia, 91016",,,34.151003,-118.0023719,,,n_2343758104,"shop=confectionery, brand=See's Candies"
"San Marino, CA",,retail,453110,Westwood Flower Garden,"1091 Gayley Avenue, 90024",,https://www.westwoodflowergarden.com/,34.0604296,-118.4468857,,,n_2363521794,shop=florist
"San Marino, CA",,retail,445110,Albertsons,"810 South State College Boulevard, Anaheim, CA, 92806",+1 714-533-4790,https://local.albertsons.com/ca/anaheim/810-s-state-college-blvd.html,33.8313152,-117.8886498,,,n_2373956215,"shop=supermarket, brand=Albertsons"
"San Marino, CA",,retail,446120,Oasis Nail Spa,"3317 West Magnolia Boulevard, Burbank, CA, 91505",818-848-1299,http://www.oasisnailspa.com/,34.1691309,-118.343756,,,n_2378691827,shop=beauty
"San Marino, CA",,retail,452210,Big Lots,"1670 West Katella Avenue, Anaheim, CA, 92802",+1 714-534-6696,https://local.biglots.com/ca/anaheim/1670-w-katella-ave,33.8019146,-117.939827,,,n_2386564633,"shop=department_store, brand=Big Lots"
"San Marino, CA",,retail,445110,Food 4 Less,,,,33.8020061,-117.9377578,,,n_2386564635,"shop=supermarket, brand=Food 4 Less"
"San Marino, CA",,retail,445120,Dacha,"5338 Laurel Canyon Boulevard, 91607",,,34.1679362,-118.3960242,,,n_2410136084,shop=convenience
"San Marino, CA",,retail,445292,Bittersweet Treats,,,http://www.bittersweettreats.com/,34.146182,-118.1148928,,,n_2421399144,shop=confectionery
"San Marino, CA",,retail,445110,Super A Foods,"5250 York Boulevard, Los Angeles, 90042",+1 323 551-6884,https://www.superafoods.com/,34.1198066,-118.2013052,,,n_2432921187,shop=supermarket
"San Marino, CA",,retail,445110,Bob's Market,,,,34.0121025,-118.4670218,,,n_2461998175,shop=supermarket
"San Marino, CA",,retail,445120,Whitley Market,"1900 Highland Avenue, Los Angeles, CA",,,34.105589,-118.3368736,,,n_2487341969,shop=convenience
"San Marino, CA",,retail,445310,Ocean Liquor,,,,34.1042067,-118.138565,,,n_2489435656,shop=alcohol
"San Marino, CA",,retail,446110,CVS Pharmacy,,,https://www.cvs.com/store-locator/van-nuys-ca-pharmacies/6201-sepulveda-blvd-van-nuys-ca-91411/storeid=9630,34.1833094,-118.466524,,,n_2503450605,"shop=chemist, brand=CVS Pharmacy"
"San Marino, CA",,retail,452319,Dollar Tree,,,https://www.dollartree.com/locations/ca/van-nuys/5294/,34.1810474,-118.4652688,,,n_2503461218,"shop=variety_store, brand=Dollar Tree"
"San Marino, CA",,retail,445110,Ralphs,"1200 Central Avenue, Glendale, CA, 91202",+1 818-246-1752,https://www.ralphs.com/stores/grocery/ca/glendale/central/703/00097,34.1644476,-118.256508,,,n_2532878475,"shop=supermarket, brand=Ralphs"
"San Marino, CA",,retail,446120,Wynn Nail Spa,"Wilshire Boulevard, Los Angeles, 90036",+1 323 933 2271,http://www.wynnnailspa.com,34.0621831,-118.350949,,,n_2570208272,shop=beauty
"San Marino, CA",,retail,446120,Wynn Nail Spa,"Vine Street, Los Angeles, 90028",1 323 871 8001,http://www.wynnnailspa.com,34.0985353,-118.326884,,,n_2570230112,shop=beauty
"San Marino, CA",,retail,445110,Ralphs,"2600 Vermont Avenue, Los Angeles, CA, 90007",+1 323-732-3863,https://www.ralphs.com/stores/grocery/ca/los-angeles/renaissance-plaza/703/00294,34.0317653,-118.290833,,,n_2578244375,"shop=supermarket, brand=Ralphs"
"San Marino, CA",,retail,452210,Walmart,"22015 Hawthorne Boulevard, Torrance, CA, 90503",+1 310-750-0179,https://www.walmart.com/store/5874-torrance-ca,33.8278373,-118.353416,,,n_2592234966,"shop=department_store, brand=Walmart, operator=Walmart"
"San Marino, CA",,retail,445120,Bay Market,"22 Washington Boulevard, 90292",,,33.9793044,-118.4660468,,,n_2622750158,shop=convenience
"San Marino, CA",,retail,445120,EZ Market,"15445 Ventura Boulevard, Sherman Oaks, 91403",(818) 907-6237,,34.1546969,-118.4702973,,,n_2623019150,shop=convenience
"San Marino, CA",,retail,445120,Lee's Market,,,,34.0336786,-118.2808943,,,n_2643391588,shop=convenience
"San Marino, CA",,retail,445110,Tokyo Central,3832 West Sepulveda Boulevard,,,33.82492,-118.3527152,,,n_2649600532,shop=supermarket
"San Marino, CA",,retail,452319,Daiso Japan,,,,33.824945,-118.3529582,,,n_2649600533,"shop=variety_store, brand=Daiso"
"San Marino, CA",,retail,445110,Market World,,,,33.8231996,-118.341167,,,n_2649600562,shop=supermarket
"San Marino, CA",,retail,445120,7-Eleven,,,,33.7909523,-118.282924,,,n_2652392633,"shop=convenience, brand=7-Eleven"
"San Marino, CA",,retail,446120,"Elite Hair, Nails & Spa",,,,33.8744695,-117.9037409,,,n_2668083563,shop=beauty
"San Marino, CA",,retail,446120,Noble's Pool & Spa,,,,33.8737202,-117.9038486,,,n_2668099725,shop=beauty
"San Marino, CA",,retail,445120,Fullerton Dairy Alta Dena Certified Dairy,,,,33.8722837,-117.9073382,,,n_2668105677,shop=convenience
"San Marino, CA",,retail,445110,Big Food Saver,,,,34.0632749,-118.1030018,,,n_2681629433,shop=supermarket
"San Marino, CA",,retail,445120,7-Eleven,"5498 1/2 CENTINELA, Los Angeles, CA, 90045-2032",+1 310-642-0181,https://www.7-eleven.com/locations/ca/los-angeles/5498-1-2-centinela-26262,33.9767076,-118.3766242,,,n_2687983137,"shop=convenience, brand=7-Eleven"
"San Marino, CA",,retail,445120,7-Eleven,"5791 Obama Boulevard, Los Angeles, CA, 90016-5013",+1 323-937-2304,https://www.7-eleven.com/locations/ca/los-angeles/5791-obama-blvd-25330,34.0218762,-118.3718604,,,n_2687983138,"shop=convenience, brand=7-Eleven"
"San Marino, CA",,retail,445120,Food Mart,,,,34.054461,-118.3237385,,,n_2697735084,shop=convenience
"San Marino, CA",,retail,445120,Shell,,,,34.069351,-118.3087526,,,n_2697735085,"shop=convenience, brand=Shell"
"San Marino, CA",,retail,445110,HK Market,"124 North Western Avenue, Los Angeles, CA",,,34.074174,-118.308883,,,n_2697735086,shop=supermarket
"San Marino, CA",,retail,445120,7-Eleven,"473 North Western Avenue, Los Angeles, CA, 90004-2609",+1 323-462-4590,https://www.7-eleven.com/locations/ca/los-angeles/473-n-western-ave-19598,34.0801347,-118.309577,,,n_2697735244,"shop=convenience, brand=7-Eleven"
"San Marino, CA",,retail,445120,7-Eleven,"10834 Santa Monica Boulevard, West Los Angeles, CA, 90025-4617",+1 310-475-2079,https://www.7-eleven.com/locations/ca/west-los-angeles/10834-santa-monica-blvd-16114,34.0496576,-118.435558,,,n_2699610757,"shop=convenience, brand=7-Eleven"
"San Marino, CA",,retail,445120,Food Mart,,,,33.9776964,-118.386966,,,n_2707561675,shop=convenience
"San Marino, CA",,retail,445310,Regal Fine Spirits,,,,33.9828009,-118.3924196,,,n_2707561683,shop=alcohol
"San Marino, CA",,retail,446110,Walgreens,"8770 West Pico Boulevard, Los Angeles, CA, 90035",,https://www.walgreens.com/locator/walgreens-8770+w+pico+blvd-los+angeles-ca-90035/id=6445,34.0544272,-118.383439,,,n_2707776869,"shop=chemist, brand=Walgreens"
"San Marino, CA",,retail,445310,Dave's Liquor,,,,34.0371851,-118.388525,,,n_2707776870,shop=alcohol
"San Marino, CA",,retail,445120,7-Eleven,"100 West Imperial Avenue, El Segundo, CA, 90245-2200",+1 310-640-1634,https://www.7-eleven.com/locations/ca/el-segundo/100-w-imperial-ave-27356,33.9305655,-118.4162264,,,n_2709013346,"shop=convenience, brand=7-Eleven"
"San Marino, CA",,retail,445120,Mobil Mart,6301 Santa Monica Boulevard,,,34.0911711,-118.327061,,,n_2715023299,"shop=convenience, brand=Mobil Mart"
"San Marino, CA",,retail,445310,Oro Liquor Market,,,,34.0688114,-118.3100445,,,n_2715023300,shop=alcohol
"San Marino, CA",,retail,452210,Target,"6000 Sepulveda Boulevard, Culver City, CA, 90230-6423",+1 310-754-4614,https://www.target.com/sl/culver-city-westfield-mall/2632,33.9849802,-118.394411,,,n_2715023304,"shop=department_store, brand=Target"
"San Marino, CA",,retail,445120,ampm,,,,33.9883968,-118.3958505,,,n_2715023502,"shop=convenience, brand=ampm"
"San Marino, CA",,retail,445120,7-Eleven,"4930 West Pico Boulevard, Los Angeles, CA, 90019-4228",+1 323-936-0754,https://www.7-eleven.com/locations/ca/los-angeles/4930-w-pico-blvd-39021,34.0477036,-118.344057,,,n_2715023630,"shop=convenience, brand=7-Eleven"
"San Marino, CA",,retail,445120,7-Eleven,"7600 Sunset Boulevard, Los Angeles, CA, 90046-2715",+1 323-876-5131,https://www.7-eleven.com/locations/ca/los-angeles/7600-sunset-blvd-18778,34.0977551,-118.3553452,,,n_2715023631,"shop=convenience, brand=7-Eleven"
"San Marino, CA",,retail,445120,Country Kwik Market & Deli,,,,34.0413792,-117.7980598,,,n_2738810245,shop=convenience
"San Marino, CA",,retail,445110,Trader Joe's,"12861 Towne Center Drive, Cerritos, CA, 90703",+1 562-402-5148,https://www.traderjoes.com/,33.8689672,-118.058037,,,n_2807667380,"shop=supermarket, brand=Trader Joe's"
"San Marino, CA",,retail,452210,Marshalls,"5895 Lincoln Avenue, Buena Park, 90620",714-828-4760,http://www.marshallsonline.com/,33.832804,-118.0300711,,,n_2807682445,"shop=department_store, brand=Marshalls"
"San Marino, CA",,retail,445110,Walmart Neighborhood Market,"5420 La Palma Avenue, La Palma, CA, 90623",+1 714-822-3152,https://www.walmart.com/store/3099-la-palma-ca,33.845619,-118.038726,,,n_2819134133,"shop=supermarket, brand=Walmart, operator=Walmart"
"San Marino, CA",,retail,452210,Target,"141 Lakewood Center Mall, Lakewood, CA, 90712-2419",+1 562-894-0019,https://www.target.com/sl/Lakewood-Center-Mall-Store/1409,33.8526164,-118.1401341,,,n_2819189476,"shop=department_store, brand=Target"
"San Marino, CA",,retail,452210,Kohl's,"2650 Carson Street, Lakewood, CA, 90712",+1 562-425-2127,https://www.kohls.com/stores/ca/lakewood-633.shtml,33.8310593,-118.1615117,,,n_2819355430,"shop=department_store, brand=Kohl's"
"San Marino, CA",,retail,445110,Whole Foods Market,"465 Foothill Boulevard, Pasadena, CA, 91105",+1 626-204-2266,https://www.wholefoodsmarket.com/stores/pasadena,34.1510164,-118.072249,,,n_2875583535,"shop=supermarket, brand=Whole Foods Market"
"San Marino, CA",,retail,445120,7-Eleven,"1117 West Manchester Boulevard, Inglewood, CA, 90301-1530",+1 310-215-9942,https://www.7-eleven.com/locations/ca/inglewood/1117-w-manchester-blvd-26166,33.9601695,-118.375769,,,n_2892741009,"shop=convenience, brand=7-Eleven"
"San Marino, CA",,retail,445110,Whole Foods Market,"225 Lincoln Boulevard, Venice, CA, 90291",+1 310-566-9480,https://www.wholefoodsmarket.com/stores/venice,34.0012423,-118.469738,,,n_2892741011,"shop=supermarket, brand=Whole Foods Market, operator=Amazon"
"San Marino, CA",,retail,445120,Valero,,,,33.8465453,-117.976468,,,n_2906670177,"shop=convenience, amenity=fuel, brand=Valero"
"San Marino, CA",,retail,445120,7-Eleven,"8725 Orangethorpe Avenue, Buena Park, CA, 90621-3715",+1 714-739-2627,https://www.7-eleven.com/locations/ca/buena-park/8725-orangethorpe-ave-17840,33.8593984,-117.9807962,,,n_2906670234,"shop=convenience, brand=7-Eleven"
"San Marino, CA",,retail,445120,Valley Stores,,,,34.150213,-118.3797669,,,n_2930475057,shop=convenience
"San Marino, CA",,retail,452210,JCPenney,,,,33.8483755,-118.140723,,,n_2933993515,"shop=department_store, brand=JCPenney"
"San Marino, CA",,retail,445292,See's Candies,,,,33.8511148,-118.1400357,,,n_2939400405,"shop=confectionery, brand=See's Candies"
"San Marino, CA",,retail,445110,Trader Joe's,"2222 North Bellflower Boulevard, Long Beach, CA, 90815",+1 562-596-2514,https://locations.traderjoes.com/ca/long-beach/194/,33.7966967,-118.1230626,,,n_2940058338,"shop=supermarket, brand=Trader Joe's"
"San Marino, CA",,retail,445292,Ghost Town Bakery & Soup Station,,,https://www.knotts.com/play/drinks-dining/ghost-town-bakery,33.8431156,-117.9994853,,,n_2950096030,shop=confectionery
"San Marino, CA",,retail,445120,General Merchandise Store,,,,33.8438112,-117.9998441,,,n_2950105459,shop=convenience
"San Marino, CA",,retail,445292,Ghost Town Candy Store,,,,33.8438635,-118.0005364,,,n_2950108047,shop=confectionery
"San Marino, CA",,retail,452210,Macy's,,,https://www.macys.com/stores/ca/lakewood/lakewood-center_513.html,33.8502167,-118.1410107,,,n_2952346625,"shop=department_store, brand=Macy's"
"San Marino, CA",,retail,445310,Tiki Liquor & Wine,,,,33.8732489,-118.3695311,,,n_2956279304,shop=alcohol
"San Marino, CA",,retail,446120,Sweet Paradise Nails,"4149 Norse Way, Long Beach, CA, 90808",,,33.8331848,-118.141878,,,n_2959379896,shop=beauty
"San Marino, CA",,retail,446120,Bombshell (salon),"4156 Norse Way, Long Beach, 90808",,,33.8336215,-118.1417974,,,n_2959404058,shop=beauty
"San Marino, CA",,retail,446120,Bonded by Roots (salon),,,,33.8335146,-118.1416289,,,n_2959404061,shop=beauty
"San Marino, CA",,retail,453110,Pretty lil Things,"4425 Village Road, Long Beach, CA, 90808",,,33.8338622,-118.141154,,,n_2959404074,shop=florist
"San Marino, CA",,retail,445110,Superior (market),,,,33.8556925,-118.1667143,,,n_2959500086,shop=supermarket
"San Marino, CA",,retail,445210,Druzhba Meat Market,,,,34.0974634,-118.3039857,,,n_2970164894,shop=butcher
"San Marino, CA",,retail,445120,small world Gifts & Sundries,,,https://disneyland.disney.go.com/shops/disneyland-hotel/small-world-gifts-sundries/,33.8090788,-117.9268839,,,n_2978426465,shop=convenience
"San Marino, CA",,retail,446120,Imperial Spa,,,,33.8928446,-117.9463132,,,n_2983915978,shop=beauty
"San Marino, CA",,retail,445310,,,,,33.8709752,-117.9073157,,,n_2993281842,shop=alcohol
"San Marino, CA",,retail,446120,Swan Nails,,,,33.8465827,-118.116962,,,n_2995125794,shop=beauty
"San Marino, CA",,retail,446120,Sharrion James Salon,,,,33.8222928,-118.1069738,,,n_3001839827,shop=beauty
"San Marino, CA",,retail,445120,Jerky,,,,33.8223953,-118.1068209,,,n_3001839828,shop=convenience
"San Marino, CA",,retail,446120,Jagar Hair,"4416 Village Road, Long Beach, 90808",,,33.8335931,-118.1410779,,,n_3014498631,shop=beauty
"San Marino, CA",,retail,452210,Ross,"1990 Ximeno Avenue, Long Beach, CA, 90815",+1 562-494-5095,,33.7921611,-118.1376769,,,n_3015941762,"shop=department_store, brand=Ross"
"San Marino, CA",,retail,445120,7-Eleven,"10656 ROSECRANS, Norwalk, CA, 90650",+1 562-484-9806,https://www.7-eleven.com/locations/ca/norwalk/10656-rosecrans-34753,33.9016818,-118.1061835,,,n_3017409364,"shop=convenience, brand=7-Eleven"
"San Marino, CA",,retail,445292,IT'SUGAR,"100 Universal City Plaza, Universal City, CA, 91608",,https://www.universalstudioshollywood.com/web/en/us/things-to-do/shopping/citywalk/itsugar,34.1364817,-118.3532018,,,n_3019431007,"shop=confectionery, brand=IT'SUGAR"
"San Marino, CA",,retail,446120,Sephora,"100 Universal City Plaza, Universal City, CA, 91608",,https://www.universalstudioshollywood.com/web/en/us/things-to-do/shopping/citywalk/sephora,34.1361663,-118.3544568,,,n_3020557696,"shop=cosmetics, brand=Sephora, operator=Sephora"
"San Marino, CA",,retail,445110,99 Ranch Market,,,,34.0096175,-117.7406913,,,n_3052695500,"shop=supermarket, brand=99 Ranch Market"
"San Marino, CA",,retail,445110,Albertsons,"3255 Grand Avenue, Chino Hills, CA, 91709",+1 909-590-3660,https://local.albertsons.com/ca/chino-hills/3255-grand-ave.html,34.0010634,-117.734328,,,n_3052709216,"shop=supermarket, brand=Albertsons"
"San Marino, CA",,retail,445110,Sprouts Farmers Market,"3630 Grand Avenue, Chino Hills, CA, 91709",+1 909-548-0440,https://www.sprouts.com/store/ca/chino-hills/grand-ave/,34.0030531,-117.727472,,,n_3052718411,"shop=supermarket, brand=Sprouts Farmers Market"
"San Marino, CA",,retail,453110,Allen's Flowers,,+1-323-378-3335,https://www.allensflowermarket.com/,34.0959507,-118.283934,,,n_3059590325,shop=florist
"San Marino, CA",,retail,445110,Fresco Community Market,,,,34.1048359,-118.183443,,,n_3060455018,shop=supermarket
"San Marino, CA",,retail,453991,Light em Up Smoke Shop,,,,33.8732114,-118.114943,,,n_3069540156,shop=tobacco
"San Marino, CA",,retail,446120,StarLite Hair,,,,33.8732114,-118.1146267,,,n_3069540161,shop=beauty
"San Marino, CA",,retail,452319,Dollar Store,,,,33.8732649,-118.114535,,,n_3069540163,shop=variety_store
"San Marino, CA",,retail,446120,nails,,,,33.8600257,-118.143189,,,n_3069569355,shop=beauty
"San Marino, CA",,retail,446120,Harmony,,,,34.1000408,-118.2594363,,,n_3119815049,shop=beauty
"San Marino, CA",,retail,445120,7-Eleven,"2200 West Sunset Boulevard, Los Angeles, CA, 90026",+1 213-989-1528,https://www.7-eleven.com/locations/ca/los-angeles/2200-w-sunset-blvd-33028,34.0776853,-118.2664375,,,n_3119817446,"shop=convenience, brand=7-Eleven"
"San Marino, CA",,retail,445110,Smart & Final,,,,33.8347955,-118.117734,,,n_3129845035,"shop=supermarket, brand=Smart & Final"
"San Marino, CA",,retail,445110,Sprouts Farmers Market,"4253 Woodruff Avenue, Lakewood, CA, 90713",+1 562-739-2541,https://www.sprouts.com/store/ca/lakewood/woodruff-ave/,33.8356956,-118.117745,,,n_3129845038,"shop=supermarket, brand=Sprouts Farmers Market"
"San Marino, CA",,retail,445310,Aviation Liqour,,,,33.8851794,-118.378882,,,n_3137664448,shop=alcohol
"San Marino, CA",,retail,445310,Jon's Liquor,,,,33.8870787,-118.3783208,,,n_3137765634,shop=alcohol
"San Marino, CA",,retail,445110,Trader Joe's,"1821 Manhattan Beach Boulevard, Manhattan Beach, CA, 90266",+1 310-372-1274,https://locations.traderjoes.com/ca/manhattan-beach/34/,33.887547,-118.3798207,,,n_3137961994,"shop=supermarket, brand=Trader Joe's"
"San Marino, CA",,retail,453110,1-800-FLOWERS,,,,34.0777127,-118.1347047,,,n_3148364950,shop=florist
"San Marino, CA",,retail,446120,Harmony Nail & Threading Salon,"54 South Pasadena Avenue, Pasadena, CA",+1 626-578-1807,https://www.facebook.com/pages/Harmony-Nail-Threading-Salon/198481927007633,34.1448212,-118.1539881,,,n_3178465625,shop=beauty
"San Marino, CA",,retail,446120,LATHER,"17 East Colorado Boulevard, Pasadena, CA",,,34.1459211,-118.150011,,,n_3179468396,shop=beauty
"San Marino, CA",,retail,446120,Vinita's Beauty & Threading Studio,"253 East Colorado Boulevard, Pasadena, CA",626) 304-1107,https://www.threadingstudio.com/,34.1460155,-118.1451177,,,n_3180241470,shop=beauty
"San Marino, CA",,retail,445292,Yummy Cupcakes Pasadena,"247 East Colorado Boulevard, Pasadena, CA",6 2 6 . 3 9 6 . 4 9 3 3,https://www.yummycupcakes.com/pasadena/,34.1460171,-118.1452539,,,n_3180241471,shop=confectionery
"San Marino, CA",,retail,446120,Planet Beach,"708 East Colorado Boulevard, Pasadena, CA",626-478-0261,http://www.planetbeachpasadena.com/,34.1456606,-118.1357236,,,n_3180394113,shop=beauty
"San Marino, CA",,retail,452210,Macy's,,,https://www.macys.com/stores/ca/culvercity/westfield-culver-city_516.html,33.9863817,-118.393571,,,n_3181111952,"shop=department_store, brand=Macy's"
"San Marino, CA",,retail,452210,JCPenney,,,,33.9865482,-118.391756,,,n_3181111956,"shop=department_store, brand=JCPenney"
"San Marino, CA",,retail,446120,Pasadena Nails & Skin Care!,"646 East Colorado Boulevard, Pasadena, CA",(626) 440-9828,http://pasadenanailskincare.com/,34.1456871,-118.137103,,,n_3181482523,shop=beauty
"San Marino, CA",,retail,446120,Amadeus Spa,"799 East Green Street, Pasadena, CA",+1 626-578-3404,https://www.facebook.com/pages/Amadeus-Spa/109144515795655,34.1446997,-118.1340847,,,n_3183112388,shop=beauty
"San Marino, CA",,retail,446120,AcuSpa,,(626)-578-9119,https://www.acuspapasadena.com/,34.1397845,-118.1317345,,,n_3184199188,shop=beauty
"San Marino, CA",,retail,446120,Integrity Lash,,1 (626) 437-4000,https://www.integritylash.com/,34.1397292,-118.13171,,,n_3184199191,shop=beauty
"San Marino, CA",,retail,446120,South Lake Avenue Nail Design,,626-577-9783,https://www.southlakeavenue.org/business-directory-member/south-lake-avenue-nail-design/,34.1397914,-118.1320521,,,n_3184199241,shop=beauty
"San Marino, CA",,retail,446120,Merle Norman,,(626)449-4070,https://www.merlenormanstudio.com/,34.1392742,-118.132102,,,n_3184214967,"shop=cosmetics, brand=Merle Norman Cosmetics"
"San Marino, CA",,retail,453991,La Marca Cigars,"530 South Myrtle Avenue, Monrovia, CA",626) 775-4155,http://lamarcacigars.com/,34.1461584,-118.0007798,,,n_3186055056,shop=tobacco
"San Marino, CA",,retail,453110,Monrovia Floral,"119 East Olive Avenue, Monrovia, CA",(626)358-1889,https://www.monfloral.com/,34.1449782,-118.0001125,,,n_3193084517,shop=florist
"San Marino, CA",,retail,453991,The Village Smoke Shop and Accessories,"5317 Laurel Canyon Boulevard, Valley Village, CA",+18189805552,https://www.yelp.com/map/the-village-smoke-shop-and-accessories-valley-village-3,34.167222,-118.396706,,,n_3197909426,"shop=tobacco, operator=Eli"
"San Marino, CA",,retail,445292,Candy Parlour,,,https://www.knotts.com/california-marketplace/candy-parlour,33.842334,-117.9981699,,,n_3215624860,shop=confectionery
"San Marino, CA",,retail,452319,Dollar Tree,"9679 Chapman Avenue, Garden Grove, CA, 92841",+1 714-636-3640,https://www.dollartree.com/locations/ca/garden-grove/2053/,33.78983,-117.9641191,,,n_3276001461,"shop=variety_store, brand=Dollar Tree"
"San Marino, CA",,retail,452210,Ross,"8361 On the Mall, Buena Park, CA, 90620",+1 714-952-1007,https://rossstores.com/,33.8455496,-117.9887412,,,n_3276020021,"shop=department_store, brand=Ross"
"San Marino, CA",,retail,453991,Famous Smoke Shop,,,,34.1864896,-118.4123897,,,n_3276401762,shop=tobacco
"San Marino, CA",,retail,446120,El Prestigio,,,,34.1868555,-118.4122339,,,n_3277285967,shop=beauty
"San Marino, CA",,retail,453991,,,,,34.1791536,-118.4050858,,,n_3277534040,shop=tobacco
"San Marino, CA",,retail,445310,J&C Food Store,,,,34.1797506,-118.4050511,,,n_3277564339,shop=alcohol
"San Marino, CA",,retail,452210,Ross,"560 North Euclid Street, Anaheim, CA, 92801",+1 714-635-9380,,33.8391791,-117.9386309,,,n_3279443705,"shop=department_store, brand=Ross"
"San Marino, CA",,retail,445310,Liquor & Market,,,,34.1863106,-118.4577015,,,n_3285443598,shop=alcohol
"San Marino, CA",,retail,452319,99 Cents Only Stores,,,https://locations.99only.com/ca/losangeles/discount-store-375.html,33.9760578,-118.3741511,,,n_3297920444,"shop=variety_store, brand=99 Cents Only Stores"
"San Marino, CA",,retail,452210,99 Cent Store,,,,33.9762357,-118.372456,,,n_3297920445,shop=department_store
"San Marino, CA",,retail,453991,,,,,34.0548735,-118.2911255,,,n_3333393024,shop=tobacco
"San Marino, CA",,retail,446120,,,,,33.8109182,-118.1056448,,,n_3357311957,shop=beauty
"San Marino, CA",,retail,446120,2nd Street Beauty,,,,33.8112257,-118.1082599,,,n_3358875084,shop=beauty
"San Marino, CA",,retail,445120,7-Eleven,"7040 Sunset Boulevard, Hollywood, CA, 90028-7567",+1 323-463-9772,https://www.7-eleven.com/locations/ca/hollywood/7040-sunset-blvd-a-29261,34.0978027,-118.3431865,,,n_3384647299,"shop=convenience, brand=7-Eleven"
"San Marino, CA",,retail,445310,Titta Inn,"5533 Huntington Drive North, Los Angeles, CA, 90032",(323) 221-8828,,34.0943055,-118.1599515,,,n_3413802685,shop=wine
"San Marino, CA",,retail,446120,Wilshire Beauty,"5401 Wilshire Boulevard, Los Angeles, CA, 90036",,,34.0625343,-118.346381,,,n_3441437794,shop=beauty
"San Marino, CA",,retail,445110,Champion Provisions Co 冠軍食品,"140 West Valley Blvd, 91776",626-571-8188,,34.0782644,-118.1021421,,,n_3445749908,shop=supermarket
"San Marino, CA",,retail,445110,Nijiya Market,2121 West 182nd Street,13103667200,https://www.nijiya.com/,33.8661176,-118.3167531,,,n_3445812621,shop=supermarket
"San Marino, CA",,retail,445110,Nijiya Market,17869 Colima Road,626-913-9991,http://www.nijiya.com/,33.99079,-117.9148389,,,n_3445816736,shop=supermarket
"San Marino, CA",,retail,446120,Bliss,,,,33.9415218,-118.4103187,,,n_3448133710,shop=beauty
"San Marino, CA",,retail,445120,7-Eleven,"6915 Rosemead Boulevard, San Gabriel, CA, 91775-1412",+1 626-286-9697,https://www.7-eleven.com/locations/ca/san-gabriel/6915-rosemead-blvd-25481,34.1232911,-118.0733198,,,n_3476995243,"shop=convenience, brand=7-Eleven"
"San Marino, CA",,retail,445310,BevMo!,"3730 Foothill Boulevard, Padadena, 91107",,,34.1500048,-118.072291,,,n_3477523635,"shop=alcohol, brand=BevMo!"
"San Marino, CA",,retail,445110,Sprouts Farmers Market,"39 N. Rosemead Boulevard, Pasadena, CA, 91107",+1 626-696-1290,https://www.sprouts.com/store/ca/pasadena/n-rosemead-blvd/,34.1472457,-118.0740524,,,n_3477528943,"shop=supermarket, brand=Sprouts Farmers Market"
"San Marino, CA",,retail,445292,See's Candies,"3641 Foothill Boulevard, Pasadena, 91107",,,34.1506019,-118.07461,,,n_3477534974,"shop=confectionery, brand=See's Candies"
"San Marino, CA",,retail,445120,Fine wine * Craft Beer,"3689 E. Colorado Blvd., Pasadena, 91107",,,34.1466485,-118.0736313,,,n_3477546867,"shop=convenience, brand=7-Eleven"
"San Marino, CA",,retail,445120,7-Eleven,"227 South Rosemead Boulevard, Pasadena, CA, 91107-4900",+1 626-793-4744,https://www.7-eleven.com/locations/ca/pasadena/227-s-rosemead-blvd-20297,34.142473,-118.0739183,,,n_3477563423,"shop=convenience, brand=7-Eleven"
"San Marino, CA",,retail,445110,Trader Joe's,"856 West Arrow Highway, San Dimas, CA, 91773",+1 909-305-4757,https://locations.traderjoes.com/ca/san-dimas/28/,34.1036077,-117.821291,,,n_3489981986,"shop=supermarket, brand=Trader Joe's"
"San Marino, CA",,retail,445110,Ralphs,"9470 Las Tunas Drive, Temple City, CA, 91780",+1 626-286-0898,https://www.ralphs.com/stores/grocery/ca/temple-city/temple-city/703/00053,34.1053054,-118.0640557,,,n_3507799463,"shop=supermarket, brand=Ralphs"
"San Marino, CA",,retail,446120,,,,,33.8474731,-118.1246099,,,n_3523016583,shop=beauty
"San Marino, CA",,retail,445120,7-Eleven,"5870 East Del Amo Boulevard, Lakewood, CA, 90713-2344",+1 562-420-9868,https://www.7-eleven.com/locations/ca/lakewood/5870-e-del-amo-blvd-24207,33.8465782,-118.1167302,,,n_3523017345,"shop=convenience, brand=7-Eleven"
"San Marino, CA",,retail,446120,Nails,,,,33.8329839,-118.117073,,,n_3523051443,shop=beauty
"San Marino, CA",,retail,452210,Total Fashion,,,,33.7812499,-118.1533591,,,n_3561227371,shop=department_store
"San Marino, CA",,retail,445310,,,,,34.1015706,-118.311353,,,n_3561748883,shop=alcohol
"San Marino, CA",,retail,445110,Trader Joe's,"8645 South Sepulveda Boulevard, Westchester, CA, 90045",+1 310-338-9238,https://locations.traderjoes.com/ca/westchester/33/,33.9586411,-118.3965106,,,n_3561883816,"shop=supermarket, brand=Trader Joe's"
"San Marino, CA",,retail,445120,7-Eleven,,,,34.0273247,-118.257228,,,n_3577173162,"shop=convenience, brand=7-Eleven"
"San Marino, CA",,retail,446120,M.O Beauty,"1193 South Diamond Bar Boulevard, Diamond Bar, CA, 91765",626-469-7860,https://customeyelashextensionsdiamondbar.com/,34.0015959,-117.8113907,,,n_3624200689,shop=beauty
"San Marino, CA",,retail,445120,Circle K,,,,33.9948363,-117.758879,,,n_3624209230,"shop=convenience, brand=Circle K"
"San Marino, CA",,retail,446120,Diamond Foot Spa,,,,34.0025319,-117.8092233,,,n_3625542647,shop=beauty
"San Marino, CA",,retail,445310,Grizzly Peak Refreshments,,,,33.8078057,-117.9200195,,,n_3648076388,shop=beverages
"San Marino, CA",,retail,452319,99 Cents Only Stores,,,https://locations.99only.com/ca/brea/discount-store-253.html,33.9127444,-117.892729,,,n_3688768516,"shop=variety_store, brand=99 Cents Only Stores"
"San Marino, CA",,retail,445120,,,,,33.9033899,-118.1692843,,,n_3696439853,shop=convenience
"San Marino, CA",,retail,445310,,,,,34.1650069,-118.3974551,,,n_3709931937,shop=alcohol
"San Marino, CA",,retail,453110,Mystic Florist,,,,33.8186108,-117.9755351,,,n_3726837337,shop=florist
"San Marino, CA",,retail,446120,,,,,33.8186113,-117.9752288,,,n_3726837363,shop=beauty
"San Marino, CA",,retail,452319,Dollar King,,,,34.2333405,-118.254024,,,n_3726837638,shop=variety_store
"San Marino, CA",,retail,445110,Seoul Korean Market,Foothill Boulevard,,,34.2189597,-118.230913,,,n_3730695348,shop=supermarket
"San Marino, CA",,retail,445210,Angus Meat Market,,,,34.229165,-118.2470838,,,n_3731892592,shop=butcher
"San Marino, CA",,retail,445110,Liquors,,,,34.2051835,-118.2245819,,,n_3732293156,shop=supermarket
"San Marino, CA",,retail,446120,Paradise Tan,,,,34.2051123,-118.2265346,,,n_3732373474,shop=beauty
"San Marino, CA",,retail,445310,,,,,34.1523928,-118.448426,,,n_3733661253,shop=alcohol
"San Marino, CA",,retail,446120,Buff & Tweeze,,,,34.237238,-118.2603367,,,n_3761097961,shop=beauty
"San Marino, CA",,retail,446120,Elle Bella Spa,,,,34.2263613,-118.2437976,,,n_3761575271,shop=beauty
"San Marino, CA",,retail,446110,Walgreens,,,https://www.walgreens.com/locator/walgreens-310+s+lake+ave-pasadena-ca-91101/id=11442,34.140451,-118.131678,,,n_3762118887,"shop=chemist, brand=Walgreens"
"San Marino, CA",,retail,452319,99Cent,,,,34.2459232,-118.2742884,,,n_3762837921,shop=variety_store
"San Marino, CA",,retail,445110,Walmart Neighborhood Market,"121 North Beach Boulevard, Anaheim, CA, 92801",+1 714-822-3179,https://www.walmart.com/store/3101-anaheim-ca,33.833236,-117.995057,,,n_3763124364,"shop=supermarket, brand=Walmart, operator=Walmart"
"San Marino, CA",,retail,452319,Daiso Japan,,,,33.8031557,-118.009291,,,n_3777296983,"shop=variety_store, brand=Daiso"
"San Marino, CA",,retail,453110,Florist,,,,33.8033815,-118.0148968,,,n_3777296987,shop=florist
"San Marino, CA",,retail,445110,Superior Grocers,"151 South Hacienda Boulevard, City of Industry, CA, 91745",,,34.0220378,-117.9582938,,,n_3779274742,"shop=supermarket, brand=Superior Grocers"
"San Marino, CA",,retail,446120,Nail Villa,,323-697-5338,,34.0836376,-118.3464476,,,n_3779901412,shop=beauty
"San Marino, CA",,retail,446120,Pampered Hands,,,,34.0836504,-118.3468752,,,n_3779901414,shop=beauty
"San Marino, CA",,retail,446120,,,,,34.0833051,-118.3449965,,,n_3779901422,shop=beauty
"San Marino, CA",,retail,446120,Fuzzy Navel,,,,34.0833614,-118.3465001,,,n_3780628670,shop=beauty
"San Marino, CA",,retail,452210,Target,"2626 Colorado Boulevard, Los Angeles, CA, 90041-1070",+1 323-258-1355,https://www.target.com/sl/los-angeles-eagle-rock/1408,34.1415053,-118.224087,,,n_3785455269,"shop=department_store, brand=Target"
"San Marino, CA",,retail,453110,,,,,34.200216,-118.4932313,,,n_3799359346,shop=florist
"San Marino, CA",,retail,445120,Food Mart,,,,34.0171552,-118.308744,,,n_3800035750,shop=convenience
"San Marino, CA",,retail,445310,,,,,34.0148115,-118.3087338,,,n_3800035756,shop=alcohol
"San Marino, CA",,retail,446120,Nailnation,"7380 Melrose Avenue, Los Angeles, 90046",+1-323-272-3048,http://www.nailnationspa.com/,34.0834572,-118.3507823,,,n_3825249419,shop=beauty
"San Marino, CA",,retail,453991,Vapes of Wrath,"7372 Melrose Avenue, Los Angeles, 90046",,http://www.vow-la.com/,34.0834461,-118.3506014,,,n_3825249424,shop=tobacco
"San Marino, CA",,retail,445120,7-Eleven,"7353 Melrose Avenue, Los Angeles, CA, 90046-7573",+1 323-782-8526,https://www.7-eleven.com/locations/ca/los-angeles/7353-melrose-ave-39012,34.0839335,-118.3500872,,,n_3825249428,"shop=convenience, brand=7-Eleven, operator=7-Eleven"
"San Marino, CA",,retail,446120,Atelier Cuticle,,,,34.083814,-118.3547691,,,n_3827584983,shop=beauty
"San Marino, CA",,retail,446120,Beauty Supply,,,,34.0838336,-118.3559541,,,n_3827584985,shop=beauty
"San Marino, CA",,retail,445310,M Melrose Wine & Spirits,,,,34.0837509,-118.3519877,,,n_3827585018,shop=alcohol
"San Marino, CA",,retail,446120,Sugar Nail,,,,34.0838385,-118.3565575,,,n_3827585033,shop=beauty
"San Marino, CA",,retail,445110,Ralphs,"17840 Ventura Boulevard, Encino, CA, 91316",+1 818-345-6882,https://www.ralphs.com/stores/grocery/ca/encino/encino/703/00006,34.1626477,-118.5214777,,,n_3844031631,"shop=supermarket, brand=Ralphs"
"San Marino, CA",,retail,446120,Nail Bar,"7022 Melrose Avenue, Los Angeles, CA, 90046",+1 323 930 0099,,34.0833122,-118.343572,,,n_3849945982,shop=beauty
"San Marino, CA",,retail,446120,Your Spa,"7260 Melrose Avenue, Los Angeles, CA, 90046",,http://www.yourspaonmelrose.com/,34.0833792,-118.3478419,,,n_3849945988,shop=beauty
"San Marino, CA",,retail,452210,Marshalls,"7013 Hollywood Boulevard, Los Angeles, CA, 90028",,,34.1017604,-118.3421854,,,n_3852390078,"shop=department_store, brand=Marshalls"
"San Marino, CA",,retail,446120,Sephora,"6801 Hollywood Boulevard, Los Angeles, CA, 90028",(323) 462-6898,https://www.sephora.com/,34.1018086,-118.3399417,,,n_3852390079,"shop=cosmetics, brand=Sephora"
"San Marino, CA",,retail,445310,Hollywood Liquor,,,,34.1013859,-118.3429611,,,n_3852390080,shop=alcohol
"San Marino, CA",,retail,445120,Hollywood Bazaar - Food Market,,,,34.101767,-118.336312,,,n_3861449028,shop=convenience
"San Marino, CA",,retail,445120,Highland Market,"6818 Hollywood Boulevard, Hollywood, CA, 90028",,,34.1013914,-118.3393654,,,n_3869786467,shop=convenience
"San Marino, CA",,retail,446120,Paseo Nails,,,,33.8036466,-118.0403935,,,n_3873759417,shop=beauty
"San Marino, CA",,retail,445120,Circle K,,,,33.8666324,-117.924039,,,n_3874205358,"shop=convenience, brand=Circle K"
"San Marino, CA",,retail,445110,Ralphs,"4700 Admiralty Way, Marina Del Rey, CA, 90292",+1 310-823-4684,https://www.ralphs.com/stores/grocery/ca/marina-del-rey/marina-waterside-center/703/00279,33.9799107,-118.4390338,,,n_3877034830,"shop=supermarket, brand=Ralphs"
"San Marino, CA",,retail,452210,Ross,"7060 West Sunset Boulevard, Los Angeles, CA, 90028",+1 323-465-0738,,34.0974411,-118.3433261,,,n_3878771057,"shop=department_store, brand=Ross"
"San Marino, CA",,retail,445110,Food 4 Less,,,,34.0419614,-118.3100256,,,n_3884274487,"shop=supermarket, brand=Food 4 Less"
"San Marino, CA",,retail,445310,,,,,34.0437744,-118.3050982,,,n_3884274790,shop=alcohol
"San Marino, CA",,retail,445120,Lucky 98,,,,34.0437013,-118.3043146,,,n_3884275116,shop=convenience
"San Marino, CA",,retail,446120,Cosmetic Rejuvenation Medical Center,"7901 Santa Monica Boulevard, West Hollywood, CA, 90046",323-650-9949,http://crmclaser.com,34.0910767,-118.3617644,,,n_3884346154,shop=beauty
"San Marino, CA",,retail,446120,Phenix,,,,33.8798203,-117.9621683,,,n_3887241833,shop=beauty
"San Marino, CA",,retail,445310,BevMo!,,,,34.1647425,-118.5238012,,,n_3893005521,"shop=alcohol, brand=BevMo!"
"San Marino, CA",,retail,445110,Everfresh Marketplace,,,,34.1650948,-118.523875,,,n_3893005522,shop=supermarket
"San Marino, CA",,retail,445120,7-Eleven,"5120 ZELZAH, Encino, CA, 91316-3323",+1 818-708-3286,https://www.7-eleven.com/locations/ca/encino/5120-zelzah-16464,34.1641368,-118.521704,,,n_3893005524,"shop=convenience, brand=7-Eleven"
"San Marino, CA",,retail,445120,Broadway Market,"900 South Broadway, Los Angeles, CA, 90015",,,34.0421045,-118.2560662,,,n_3905714571,shop=convenience
"San Marino, CA",,retail,445120,Chapman Market,"221 West 8th Street, Los Angeles, CA, 90014",+1 213 4894080,,34.0436122,-118.2541694,,,n_3905774489,shop=convenience
"San Marino, CA",,retail,446120,Ocean Breeze Spa Salon,,,http://spaoceanbreeze.com/massage-inglewood-ca/,33.9606949,-118.3523564,,,n_3907270213,shop=beauty
"San Marino, CA",,retail,446120,Caressa Beauty Salon,,,,34.0199648,-118.4041432,,,n_3960923711,shop=beauty
"San Marino, CA",,retail,445120,7-Eleven,"10356 Venice Boulevard, Los Angeles, CA, 90232-3338",+1 310-202-6604,https://www.7-eleven.com/locations/ca/los-angeles/10356-venice-blvd-21479,34.0201438,-118.4034498,,,n_3960923712,"shop=convenience, brand=7-Eleven"
"San Marino, CA",,retail,453991,Tobacco Outpost,,,,34.0205495,-118.4045253,,,n_3960923715,shop=tobacco
"San Marino, CA",,retail,452319,99¢ Discount Store Mini-Mart,,,,34.0248965,-118.4077257,,,n_3960923732,shop=variety_store
"San Marino, CA",,retail,445310,Hillis Liquor,,,,34.0290583,-118.410378,,,n_3960933174,shop=alcohol
"San Marino, CA",,retail,446120,Pamper Nail Spa,,,,34.028964,-118.410314,,,n_3960933176,shop=beauty
"San Marino, CA",,retail,446120,Kausar Beauty Salon & Boutique,,,,34.0288717,-118.4111135,,,n_3960933186,shop=beauty
"San Marino, CA",,retail,446120,The Luxe,9229 Venice Boulevard,,,34.0268168,-118.3938231,,,n_3961992043,shop=beauty
"San Marino, CA",,retail,445120,India Sweets & Spices,9409 Venice Boulevard,+1 310-837-5286,,34.0255645,-118.3955288,,,n_3961992053,"shop=convenience, amenity=restaurant"
"San Marino, CA",,retail,445120,Star Mini Mart,,,,34.0252505,-118.3964288,,,n_3961992258,shop=convenience
"San Marino, CA",,retail,446120,,,,,34.0252266,-118.3964941,,,n_3961992259,shop=beauty
"San Marino, CA",,retail,453110,Mahalo Flowers,,,,34.0235186,-118.3990717,,,n_3961992382,shop=florist
"San Marino, CA",,retail,445120,Bahay Natin,,,,34.0234988,-118.399107,,,n_3961992383,shop=convenience
"San Marino, CA",,retail,446120,Tranquility,,,,34.0232898,-118.399486,,,n_3961992385,shop=beauty
"San Marino, CA",,retail,445120,Kavita Grocery,,,,34.0217983,-118.402135,,,n_3961992396,shop=convenience
"San Marino, CA",,retail,445310,Big 7,,,,34.0216281,-118.4024391,,,n_3961992400,shop=alcohol
"San Marino, CA",,retail,445110,Whole Foods Market,"788 South Grand Avenue, Los Angeles, CA, 90017",+1 213-873-4745,https://www.wholefoodsmarket.com/stores/downtownlosangeles,34.0458779,-118.2576698,,,n_3967578956,"shop=supermarket, brand=Whole Foods Market"
"San Marino, CA",,retail,452210,Ross,"5339 West Centinela Avenue, Los Angeles, CA, 90045",+1 310-216-0911,,33.9787767,-118.3732974,,,n_3999904512,"shop=department_store, brand=Ross"
"San Marino, CA",,retail,445310,Everson Royce Wine & Spirits,,626-765-9334,https://www.eversonroyce.com/,34.1485758,-118.1491208,,,n_4002281793,shop=alcohol
"San Marino, CA",,retail,446120,Jubilee Salon & Spa,138 North Lake Avenue,(626) 584-7065,http://www.jubileebeautyspas.com/,34.1484486,-118.1321621,,,n_4002281798,shop=beauty
"San Marino, CA",,retail,445292,Mignon Chocolate,"6 East Holly Street, Pasadena, CA, 91103",,https://mignonchocolate.com/,34.1475189,-118.150241,,,n_4002281801,shop=confectionery
"San Marino, CA",,retail,446120,Règne Salon & Beauty Boutique,"38 East Holly Street, Pasadena, CA, 91103",,,34.1475176,-118.149643,,,n_4002282001,shop=beauty
"San Marino, CA",,retail,446120,Castle Nails,,,,34.145786,-118.1262266,,,n_4003035380,shop=beauty
"San Marino, CA",,retail,446120,Voda Spa,,(323) 654-4411,https://www.vodaspa.com/,34.0906606,-118.3566787,,,n_4003035766,shop=beauty
"San Marino, CA",,retail,453110,Funtasia Flowers,,,,34.0909364,-118.3579419,,,n_4003229567,shop=florist
"San Marino, CA",,retail,445310,Golden Rule Liquor,,,,34.0909587,-118.3583513,,,n_4003229568,shop=beverages
"San Marino, CA",,retail,446120,New Image Cuts,,,,34.1660108,-118.2877031,,,n_4006284843,shop=beauty
"San Marino, CA",,retail,445120,7-Eleven,"6350 San Fernando, Glendale, CA, 91201-2441",+1 818-649-1592,https://www.7-eleven.com/locations/ca/glendale/6350-san-fernando-29032,34.1661092,-118.2878383,,,n_4006285146,"shop=convenience, brand=7-Eleven"
"San Marino, CA",,retail,445110,Trader Joe's,"11755 West Olympic Boulevard, Los Angeles, CA, 90064",+1 310-477-5949,https://www.traderjoes.com/,34.0337202,-118.4492798,,,n_4015581473,"shop=supermarket, brand=Trader Joe's"
"San Marino, CA",,retail,445120,ampm,,,,33.819507,-118.189748,,,n_4045905171,"shop=convenience, brand=ampm"
"San Marino, CA",,retail,445120,ampm,,,,34.0092677,-118.487374,,,n_4045929828,"shop=convenience, brand=ampm"
"San Marino, CA",,retail,445120,ampm,,,,34.0941069,-118.3391051,,,n_4045965700,"shop=convenience, brand=ampm"
"San Marino, CA",,retail,445120,ampm,"401 North Placentia Avenue, Fullerton, 92831",,,33.8744036,-117.8793031,,,n_4047288897,"shop=convenience, brand=ampm"
"San Marino, CA",,retail,445120,ampm,"780 Brea Canyon Road, City of Industry, CA, 91789",,,34.0034773,-117.8458858,,,n_4047316839,"shop=convenience, brand=ampm"
"San Marino, CA",,retail,445120,ampm,"1100 South Nogales Street, Rowland Heights, CA, 91748",,,33.9958827,-117.887862,,,n_4047327242,"shop=convenience, brand=ampm"
"San Marino, CA",,retail,445120,ampm,"17175 Colima Road, Hacienda Heights, CA, 91745",,,33.9913412,-117.93243,,,n_4047361707,"shop=convenience, brand=ampm"
"San Marino, CA",,retail,445120,ampm,"10121 Whittier Boulevard, Whittier, CA, 90606",,,33.9949609,-118.070694,,,n_4047379719,"shop=convenience, brand=ampm"
"San Marino, CA",,retail,445120,ampm,"8505 Pioneer Boulevard, Whittier, CA, 90606",,,33.9668372,-118.0829705,,,n_4047382433,"shop=convenience, brand=ampm"
"San Marino, CA",,retail,445120,7-Eleven,"11143 Venice Boulevard, Los Angeles, CA, 90034-6915",+1 310-397-1522,https://www.7-eleven.com/locations/ca/los-angeles/11143-venice-blvd-18820,34.0134064,-118.4171315,,,n_4075193947,"shop=convenience, brand=7-Eleven"
"San Marino, CA",,retail,445120,7-Eleven,,,https://www.7-eleven.com/locations/ca/van-nuys/7858-van-nuys-blvd-33610,34.2137409,-118.4480074,,,n_4078868155,"shop=convenience, brand=7-Eleven"
"San Marino, CA",,retail,445230,CaliMex Family Market,"6604 N Figueroa Street, Los Angeles, CA, 90042",,,34.1223657,-118.1843985,,,n_4089002180,shop=greengrocer
"San Marino, CA",,retail,445120,7-Eleven,"2000 East La Palma Avenue, Anaheim, CA, 92805",+1 714-533-3783,https://www.7-eleven.com/locations/ca/anaheim/2000-east-la-palma-ave-35774,33.8469778,-117.888926,,,n_4091188311,"shop=convenience, brand=7-Eleven"
"San Marino, CA",,retail,446120,,,,,34.1871284,-118.4842676,,,n_4093642381,shop=beauty
"San Marino, CA",,retail,445120,Santee Court Market,"716 South Los Angeles Street, Los Angeles, 90014",,,34.0423945,-118.2504777,,,n_4096326965,shop=convenience
"San Marino, CA",,retail,445310,Jason's Wine & Spirits,"110 East 9th Street, Los Angeles, 90079",,https://jasonsliquor.com/,34.0407449,-118.2549069,,,n_4096439885,shop=alcohol
"San Marino, CA",,retail,446120,Wax Candy,"756 South Main Street, Los Angeles, 90014",,,34.0427771,-118.2528969,,,n_4098463767,shop=beauty
"San Marino, CA",,retail,445310,Silversun Liquor,"2901 Sunset Boulevard, Los Angeles, CA, 90026",+1 323-666-2744,,34.0832745,-118.273249,,,n_4098494397,shop=alcohol
"San Marino, CA",,retail,446120,Universal Perfumes,"755 South Los Angeles Street, Los Angeles, 90014",,,34.0423055,-118.2520084,,,n_4101045062,shop=beauty
"San Marino, CA",,retail,446120,Perfume Center,"758 South Los Angeles Street, Los Angeles, 90014",,,34.042041,-118.2518689,,,n_4101051511,shop=beauty
"San Marino, CA",,retail,446120,DK&Co,Kester Avenue,,www.dkandco.org,34.2022741,-118.4576797,,,n_4102556990,shop=beauty
"San Marino, CA",,retail,445310,Deli Liquor Store,East Artesia Boulevard,,,33.8744667,-118.1760043,,,n_4104570832,shop=alcohol
"San Marino, CA",,retail,445310,Liquor,Artesia Boulevard,,,33.8746228,-118.1343204,,,n_4104773493,shop=alcohol
"San Marino, CA",,retail,445120,7-Eleven,"9403 Artesia Boulevard, Bellflower, CA, 90706",+1 562-925-1450,https://www.7-eleven.com/locations/ca/bellflower/9403-artesia-37031,33.8752263,-118.13351,,,n_4104779436,"shop=convenience, brand=7-Eleven"
"San Marino, CA",,retail,445310,Cherry Liquor,Cherry Avenue,,,33.8222397,-118.1678404,,,n_4104857844,shop=alcohol
"San Marino, CA",,retail,445120,7-Eleven,"4550 Orange Avenue, Long Beach, CA, 90807-2310",+1 562-595-9113,https://www.7-eleven.com/locations/ca/long-beach/4550-orange-ave-21932,33.8413866,-118.176032,,,n_4104894911,"shop=convenience, brand=7-Eleven"
"San Marino, CA",,retail,453110,Tom & Jeri's Florist,Cherry Avenue,,,33.8536113,-118.1678631,,,n_4104913013,shop=florist
"San Marino, CA",,retail,445310,Eddie's Liquor,Cherry Avenue,,,33.8545881,-118.1682459,,,n_4104917230,shop=alcohol
"San Marino, CA",,retail,453991,Daysi's Smoke Shop,Cherry Avenue,,,33.8685669,-118.1687935,,,n_4105101055,shop=tobacco
"San Marino, CA",,retail,453110,Anny's Flowers,Cherry Avenue,,,33.8708803,-118.1688136,,,n_4105121945,shop=florist
"San Marino, CA",,retail,446120,Chérie Lash & Nail Salon,West 6th Street,,,33.7742631,-118.1935315,,,n_4107290380,shop=beauty
"San Marino, CA",,retail,445120,Pete's Market,East 7th Street,,,33.7751599,-118.1781504,,,n_4107564331,shop=convenience
"San Marino, CA",,retail,445120,7 Days Mart,East 7th Street,,,33.7750018,-118.1765467,,,n_4107564333,shop=convenience
"San Marino, CA",,retail,445120,Dollar Mart,East 7th Street,,,33.7755007,-118.1679877,,,n_4107665458,shop=convenience
"San Marino, CA",,retail,446120,JK Sam Beauty Salon,2032 East 7th Street,,,33.7751484,-118.1668236,,,n_4107665461,shop=beauty
"San Marino, CA",,retail,445120,7-Eleven,"14219 South Western Avenue, Gardena, CA, 90249",+1 310-965-9892,https://www.7-eleven.com/locations/ca/gardena/14219-western-ave-34214,33.9023487,-118.309406,,,n_4113561990,"shop=convenience, brand=7-Eleven"
"San Marino, CA",,retail,445310,Wing Stop,,,,34.1794731,-118.5356328,,,n_4114862389,shop=alcohol
"San Marino, CA",,retail,445110,Bazaar,,,,34.1792692,-118.5358,,,n_4114862390,shop=supermarket
"San Marino, CA",,retail,446120,,,,,34.1789582,-118.5355801,,,n_4114862395,shop=beauty
"San Marino, CA",,retail,453991,,,,,34.1787875,-118.5358304,,,n_4114862396,shop=tobacco
"San Marino, CA",,retail,445120,Fancy Food,,,,34.1793138,-118.5363996,,,n_4114862399,shop=convenience
"San Marino, CA",,retail,453991,,,,,34.1808709,-118.5356129,,,n_4114880551,shop=tobacco
"San Marino, CA",,retail,446120,,,,,34.1810481,-118.5356085,,,n_4114880553,shop=beauty
"San Marino, CA",,retail,446120,Pao Hua Perfumes & Cosmetics,"East 4th Street, Los Angeles, CA",,,34.0470369,-118.2460826,,,n_4116685299,shop=cosmetics
"San Marino, CA",,retail,445110,Ai Hoa Supermarket,,,,34.0640481,-118.2387185,,,n_4121132644,shop=supermarket
"San Marino, CA",,retail,453991,Royals Cigarette,,,,34.0467585,-118.255161,,,n_4121132664,shop=tobacco
"San Marino, CA",,retail,445110,Mas Market,,,,34.1294568,-118.2595938,,,n_4129399334,shop=supermarket
"San Marino, CA",,retail,445110,,,,,33.9918952,-118.091973,,,n_4132026875,shop=supermarket
"San Marino, CA",,retail,445230,India Sweets and Spices,"3126 Los Feliz Boulevard, Los Angeles, CA, 90039",3233450360,https://indiasweetsandspices.us/,34.1239783,-118.267128,,,n_4140129391,"shop=greengrocer, amenity=restaurant"
"San Marino, CA",,retail,445292,Pistachio,,,,34.163912,-118.5234768,,,n_4141076320,shop=confectionery
"San Marino, CA",,retail,453991,,,,,34.1641128,-118.5239529,,,n_4141076322,shop=tobacco
"San Marino, CA",,retail,445110,Sabzee,,,,34.1616273,-118.5132619,,,n_4148069421,shop=supermarket
"San Marino, CA",,retail,453110,,,,,34.1614817,-118.5127033,,,n_4148069426,shop=florist
"San Marino, CA",,retail,453991,,,,,34.1606634,-118.5100763,,,n_4148069442,shop=tobacco
"San Marino, CA",,retail,445110,Grocery Outlet,,,,33.8592604,-118.1184817,,,n_4157154165,"shop=supermarket, brand=Grocery Outlet"
"San Marino, CA",,retail,445120,Circle H Market,"2511 Sunset Boulevard, Los Angeles, CA, 90026",,,34.0799078,-118.269345,,,n_4166608936,shop=convenience
"San Marino, CA",,retail,445120,7-Eleven,"2717 East Colorado Boulevard, Pasadena, CA, 91107-4369",+1 626-793-0102,https://www.7-eleven.com/locations/ca/pasadena/2717-e-colorado-blvd-20269,34.1465436,-118.094295,,,n_4202858214,"shop=convenience, brand=7-Eleven"
"San Marino, CA",,retail,452319,Family Dollar,14431 Ramona Blvd,(626) 338-8046,https://familydollar.com/,34.0883543,-117.9596334,,,n_4204720395,"shop=variety_store, brand=Family Dollar"
"San Marino, CA",,retail,445110,Superior Grocers,"14433 Ramona Parkway, Baldwin Park, CA, 91706",(626) 646-1835,https://superiorgrocers.com/,34.0883604,-117.9590756,,,n_4204915090,"shop=supermarket, brand=Superior Grocers"
"San Marino, CA",,retail,445120,Knicks and Knacks,Ramona Parkway,,,34.088359,-117.958674,,,n_4205400825,shop=convenience
"San Marino, CA",,retail,452319,Dollar Tree,"4259 Maine Avenue, 91706",(626) 960-1647,https://www.dollartree.com/locations/ca/baldwin-park/4568/,34.0899067,-117.9617078,,,n_4209206793,"shop=variety_store, brand=Dollar Tree"
"San Marino, CA",,retail,446120,Perfumeria Starlux,"800 South Los Angeles Street, Los Angeles, CA, 90014",,,34.0417145,-118.2523749,,,n_4209682053,shop=beauty
"San Marino, CA",,retail,445120,Carmen's Snack Shop,"212 East 8th Street, Los Angeles, CA, 90014",,,34.0414745,-118.2520905,,,n_4209682055,shop=convenience
"San Marino, CA",,retail,445120,New Downtown Cafe & Market,"241 East 7th Street, Los Angeles, CA, 90014",,,34.0426195,-118.2492412,,,n_4209682192,shop=convenience
"San Marino, CA",,retail,446120,Newport Perfume Inc.,"215 #C East 7th Street, Los Angeles, CA, 90014",,,34.0429768,-118.2497688,,,n_4209682195,shop=beauty
"San Marino, CA",,retail,453110,Be A Tall Poppy,"767 Santee Street, Los Angeles, CA, 90014",,https://beatallpoppy.com/,34.0417476,-118.2513486,,,n_4209859293,shop=florist
"San Marino, CA",,retail,446120,Perfume Warehouse,"738 #3 South Los Angeles Street, Los Angeles, CA, 90014",,,34.0423659,-118.2514329,,,n_4209859300,shop=beauty
"San Marino, CA",,retail,445110,El Super,"14103 Ramona Parkway, Baldwin Park, CA, 91706",(626) 869-5141,https://elsupermarkets.com/,34.0867188,-117.9664702,,,n_4213802489,"shop=supermarket, brand=El Super"
"San Marino, CA",,retail,452210,Fallas,"14121 Ramona Parkway, 91706",(626) 338-1650,https://www.fallasstores.net/,34.0866271,-117.9661411,,,n_4213802490,shop=department_store
"San Marino, CA",,retail,452319,99 Cents Only Stores,"14151 Ramona Parkway, 91706",(626) 962-4299,https://locations.99only.com/ca/baldwinpark/discount-store-72.html,34.0867274,-117.9654594,,,n_4213805189,"shop=variety_store, brand=99 Cents Only Stores"
"San Marino, CA",,retail,445120,7-Eleven,"1275 West San Bernardino Road, Covina, CA, 91722",+1 626-966-4779,https://www.7-eleven.com/locations/ca/covina/1275-w-san-bernardino-rd-19251,34.0888169,-117.9163895,,,n_4215678390,"shop=convenience, brand=7-Eleven"
"San Marino, CA",,retail,452210,Target,"3100 Baldwin Park Boulevard, Baldwin Park, CA, 91706-4703",+1 626-851-9404,https://www.target.com/sl/baldwin-park/1033,34.0694956,-117.9768767,,,n_4230275989,"shop=department_store, brand=Target"
"San Marino, CA",,retail,445310,Highland Liquor,"1770 Highland Avenue, Los Angeles, CA",,,34.1033737,-118.3383858,,,n_4230488702,shop=alcohol
"San Marino, CA",,retail,445110,Numero Uno Markets,,,,34.04638,-118.2836939,,,n_4250315820,shop=supermarket
"San Marino, CA",,retail,452210,Target,"7100 Santa Monica Boulevard, West Hollywood, CA, 90046-5896",+1 323-603-0004,https://www.target.com/sl/west-hollywood/1884,34.08971,-118.3447263,,,n_4259747295,"shop=department_store, brand=Target"
"San Marino, CA",,retail,445120,7-Eleven,"1699 West Carson Street, Torrance, CA, 90501",+1 310-618-8608,https://www.7-eleven.com/locations/ca/torrance/1699-west-carson-st-24078,33.8318982,-118.30881,,,n_4267702989,"shop=convenience, brand=7-Eleven"
"San Marino, CA",,retail,445110,Marukai Market,"123 Astronaut Ellison S Onizuka Street, Los Angeles, CA",,,34.0502168,-118.24229,,,n_4269938708,shop=supermarket
"San Marino, CA",,retail,445110,Little Tokyo Market Place,"333 South Alameda Street, Los Angeles, CA, 90014",+1-213-617-0030,https://www.littletokyomarket.com/,34.0448135,-118.2388853,,,n_4269938709,shop=supermarket
"San Marino, CA",,retail,452210,Macy's,"1111 Plaza Drive, 91790",(626) 962-5400,https://www.macys.com/stores/ca/westcovina/plaza-west-covina_485.html,34.0704868,-117.9290126,,,n_4270121591,"shop=department_store, brand=Macy's"
"San Marino, CA",,retail,445120,Circle K,,,,34.0920002,-117.9740138,,,n_4277008693,"shop=convenience, brand=Circle K"
"San Marino, CA",,retail,452210,Musica Latina,"4155 Maine Avenue, 91706",(626) 814-4458,,34.0883464,-117.9605705,,,n_4278586993,shop=department_store
"San Marino, CA",,retail,445120,M & I Liquor Store,"14511 Pacific Avenue, 91706",,,34.0842172,-117.9587867,,,n_4278586995,shop=convenience
"San Marino, CA",,retail,445110,Erewhon,"585 Venice Boulevard, Venice, CA, 90291",+1 310 362 3062,https://www.erewhonmarket.com/,33.9897279,-118.4622025,,,n_4278753909,"shop=supermarket, brand=Erewhon"
"San Marino, CA",,retail,445310,Brewyard,,,,34.1673593,-118.2923585,,,n_4279164799,shop=beverages
"San Marino, CA",,retail,452319,99 Cents Only Stores,"201 Lincoln Boulevard, Venice, CA, 90291",,https://locations.99only.com/ca/venice/discount-store-92.html,34.0016106,-118.470025,,,n_4280190236,"shop=variety_store, brand=99 Cents Only Stores"
"San Marino, CA",,retail,452210,Ross,"1400 Lincoln Boulevard, Venice, CA, 90291",+1 310-392-0106,https://www.rossstores.com/,33.9981128,-118.4605719,,,n_4280316634,"shop=department_store, brand=Ross"
"San Marino, CA",,retail,445120,Arco,,,,33.9598395,-118.436155,,,n_4280847290,"shop=convenience, amenity=fuel, brand=Arco"
"San Marino, CA",,retail,445120,Trading Post Liquor,"1313 Main Street, 90291",,,33.9893497,-118.472311,,,n_4281801224,shop=convenience
"San Marino, CA",,retail,445120,7-Eleven,"4400 Maine Avenue, Baldwin Park, CA, 91706",+1 626-962-9470,https://www.7-eleven.com/locations/ca/baldwin-park/4400-maine-ave-39347,34.0924347,-117.9602285,,,n_4281935694,"shop=convenience, brand=7-Eleven"
"San Marino, CA",,retail,445120,Alta Dena,"4390 Maine Avenue, 91706",(626) 337-8817,,34.0921881,-117.9603171,,,n_4281946298,shop=convenience
"San Marino, CA",,retail,445120,Vince's Liquor Store,"4741 Maine Avenue, 91706",(626) 337-5080,,34.0992021,-117.960673,,,n_4281978399,shop=convenience
"San Marino, CA",,retail,445120,Coles Market,"14503 Pacific Avenue, 91706",(626) 338-2861,,34.0843344,-117.9589697,,,n_4283556290,shop=convenience
"San Marino, CA",,retail,445292,Pepsi Bottling Group,"4416 Azusa Canyon Road, 91706",(626) 338-5531,https://www.pepsico.com/,34.0928189,-117.9425673,,,n_4283569191,shop=confectionery
"San Marino, CA",,retail,445110,Vallarta,"13940 Ramona Parkway, 91706",(626) 480-8960,https://vallartasupermarkets.com/,34.083305,-117.968609,,,n_4283574289,"shop=supermarket, brand=Vallarta"
"San Marino, CA",,retail,445120,7-Eleven,"3705 Puente Avenue, Baldwin Park, CA, 91706",+1 626-962-8091,https://www.7-eleven.com/locations/ca/baldwin-park/3705-puente-ave-19329,34.0798171,-117.9523666,,,n_4284527609,"shop=convenience, brand=7-Eleven"
"San Marino, CA",,retail,445120,Freeway Liquor,"130 Vincent Avenue, 91790",(626) 332-3330,,34.0739546,-117.9260038,,,n_4284527610,shop=convenience
"San Marino, CA",,retail,445120,7-Eleven,"12954 Bess Avenue, Baldwin Park, CA, 91706",+1 626-337-8833,https://www.7-eleven.com/locations/ca/baldwin-park/12954-bess-ave-14024,34.0670863,-117.992144,,,n_4285397591,"shop=convenience, brand=7-Eleven"
"San Marino, CA",,retail,452210,Target,"2462 Foothill Boulevard, La Verne, CA, 91750-3056",+1 909-593-2421,https://www.target.com/sl/laverne/226,34.1095009,-117.7596954,,,n_4285399489,"shop=department_store, brand=Target"
"San Marino, CA",,retail,452210,Target,"735 South Figueroa Street, Los Angeles, CA, 90017-2571",+1 213-330-4543,https://www.target.com/sl/la-central/2776,34.0491424,-118.261357,,,n_4286972965,"shop=department_store, brand=Target"
