Location,Search Keyword,Segment,NAICS Code,Business Name,Address,Phone Number,Website,Latitude,Longitude,Rating,User Ratings,Place ID,Types
"Kings Beach, CA",,retail,445110,Tahoma Market and Deli,"6890 West Lake Boulevard, Tahoma, CA, 96142",,,39.0685632,-120.130964,,,n_356578447,shop=supermarket
"Kings Beach, CA",,retail,445110,Raley's,,,,38.9120046,-120.0057267,,,n_365763046,"shop=supermarket, brand=Raley's, operator=Raleys"
"Kings Beach, CA",,retail,445110,Whole Foods Market,"6139 South Virginia Street, Reno, NV, 89502",+1 775-852-8023,https://www.wholefoodsmarket.com/stores/reno,39.468918,-119.787229,,,n_446942641,"shop=supermarket, brand=Whole Foods Market"
"Kings Beach, CA",,retail,445110,Raley's,,,,39.2508376,-119.949433,,,n_471036224,"shop=supermarket, brand=Raley's"
"Kings Beach, CA",,retail,452319,Dollar Tree,,,https://www.dollartree.com/locations/nv/reno/1729/,39.5066164,-119.8051445,,,n_544743532,"shop=variety_store, brand=Dollar Tree"
"Kings Beach, CA",,retail,445110,Save Mart,,,,39.5072322,-119.806595,,,n_544743546,"shop=supermarket, brand=Save Mart"
"Kings Beach, CA",,retail,452210,TJ Maxx,"4821 Kietzke Lane, Reno, NV, 89509",,,39.4811265,-119.7954911,,,n_556331064,"shop=department_store, brand=TJ Maxx"
"Kings Beach, CA",,retail,445110,Smith's,"750 South Meadows Parkway, Reno, NV, 89521",+1 775-851-8060,https://www.smithsfoodanddrug.com/stores/grocery/nv/reno/750-s-meadows-pkwy-reno-nv/706/00378,39.4373477,-119.756782,,,n_559981995,"shop=supermarket, brand=Smith's"
"Kings Beach, CA",,retail,445120,7-Eleven,"3923 Pioneer Trail, South Lake Tahoe, CA, 96151",+1 530-541-8711,https://www.7-eleven.com/locations/ca/south-lake-tahoe/3923-pioneer-trail-17970,38.9526981,-119.946944,,,n_828422179,"shop=convenience, brand=7-Eleven"
"Kings Beach, CA",,retail,445120,Corner Minit Mart,,,,39.5225583,-119.7895561,,,n_914985782,shop=convenience
"Kings Beach, CA",,retail,445110,Save Mart,,,,39.5342764,-119.862476,,,n_915255729,"shop=supermarket, brand=Save Mart"
"Kings Beach, CA",,retail,452319,Dollar Tree,,,https://www.dollartree.com/locations/nv/reno/2751/,39.5347701,-119.8626689,,,n_915255730,"shop=variety_store, brand=Dollar Tree"
"Kings Beach, CA",,retail,445110,Food Source (Raley's),,,,39.4865237,-119.7968482,,,n_1409418738,shop=supermarket
"Kings Beach, CA",,retail,445120,Alice's Mountain Market,"1850 Village South Rd #47, Olympic Valley, CA, 96146",1.530.581.2014,,39.1972831,-120.2338294,,,n_1645244659,shop=convenience
"Kings Beach, CA",,retail,445110,Save Mart,"11399 Deerfield Drive, Truckee, CA, 96161",+1-530-587-5522,https://www.savemart.com/stores#/4947,39.3192133,-120.209069,,,n_2119910780,"shop=supermarket, brand=Save Mart"
"Kings Beach, CA",,retail,445120,7-Eleven,"10015 PALISADES, Truckee, CA, 96161-1901",+1 530-587-4734,https://www.7-eleven.com/locations/ca/truckee/10015-palisades-24548,39.3259429,-120.1767986,,,n_2299104428,"shop=convenience, brand=7-Eleven"
"Kings Beach, CA",,retail,446120,Chrystal Nails & Spa,,,,39.2502049,-119.9504945,,,n_3023873112,shop=beauty
"Kings Beach, CA",,retail,445120,7-Eleven,"8593 North Lake Boulevard, Kings Beach, CA, 96143",+1 530-546-2002,https://www.7-eleven.com/locations/ca/kings-beach/8593-n-lake-blvd-15183,39.2363043,-120.0221298,,,n_3026628818,"shop=convenience, brand=7-Eleven"
"Kings Beach, CA",,retail,445310,SiPS,599 North Lake Boulevard,,,39.1722066,-120.140187,,,n_3049840272,shop=alcohol
"Kings Beach, CA",,retail,446120,Lucky Nails & Spa,"5150 Mae Anne Avenue, Reno, NV, 89523",,,39.5317982,-119.867133,,,n_3167997465,shop=beauty
"Kings Beach, CA",,retail,453110,Sparks Florist,"5000 Smithridge Drive, Reno, NV, 89502",+1-800-886-5703,https://www.reno.florist/,39.4776736,-119.78681,,,n_3220967258,shop=florist
"Kings Beach, CA",,retail,445120,7-Eleven,"3210 North Lake Boulevard, Tahoe City, CA, 96145-5725",+1 530-583-5811,https://www.7-eleven.com/locations/ca/tahoe-city/3210-n-lake-boulevard-14077,39.191282,-120.1053786,,,n_3299014168,"shop=convenience, brand=7-Eleven"
"Kings Beach, CA",,retail,445110,Tahoe Central Market,,,,39.2365317,-120.0236702,,,n_3337200794,shop=supermarket
"Kings Beach, CA",,retail,445120,Sinclair,,,,39.2375669,-120.0300411,,,n_3383183077,"shop=convenience, amenity=fuel"
"Kings Beach, CA",,retail,445120,7-Eleven,,,https://www.7-eleven.com/locations/nv/incline-village/901-tahoe-blvd-18386,39.249315,-119.9522085,,,n_3383260035,"shop=convenience, brand=7-Eleven"
"Kings Beach, CA",,retail,445310,Keys Liquor Market,,,,38.919729,-119.9950401,,,n_3562121052,shop=alcohol
"Kings Beach, CA",,retail,445110,Safeway,"11290 Donner Pass Road, Truckee, CA, 96161",+1 530-582-7950,https://local.safeway.com/safeway/ca/truckee/11290-donner-pass-rd.html,39.3272672,-120.206545,,,n_3562526725,"shop=supermarket, brand=Safeway"
"Kings Beach, CA",,retail,452319,General Merchandise Dollar Store,,,,39.5198207,-119.8099455,,,n_3785077389,shop=variety_store
"Kings Beach, CA",,retail,445310,Nahar Food and Liquor,,,,39.5196604,-119.8098649,,,n_3785077396,shop=alcohol
"Kings Beach, CA",,retail,453991,Lavi's Smoke & Head Shop,"743 South Virginia Street, Reno, NV, 89509",,,39.5175837,-119.8090983,,,n_3793402276,shop=tobacco
"Kings Beach, CA",,retail,453110,Sweet Thorns Florist,"733 South Virginia Street, Reno, NV, 89509",+1 775-842-0853,,39.5176604,-119.8092833,,,n_3793402277,shop=florist
"Kings Beach, CA",,retail,445120,Quickie Mart,"777 South Virginia Street, Reno, NV, 89509",,,39.5170358,-119.8089414,,,n_3793402279,shop=convenience
"Kings Beach, CA",,retail,445299,Wedge Cheese Shop,"16 Saint Lawrence Avenue, Reno, NV, 89509",,,39.5181124,-119.8096295,,,n_3793402281,shop=cheese
"Kings Beach, CA",,retail,445120,Jashan Market,"436 North Virginia Street, Reno, NV, 89501",,,39.5307528,-119.8143603,,,n_4053647122,shop=convenience
"Kings Beach, CA",,retail,445292,Chocolate Nugget Candy Factory,"56 NV 341, Mound House, NV",+1 775-246-5500,https://www.angelfire.com/chocolatenuggetcandyfactory/,39.2277503,-119.6455577,,,n_4150029763,shop=confectionery
"Kings Beach, CA",,retail,445120,Camp Richardson General Store,,,,38.9340949,-120.0398685,,,n_4213266590,shop=convenience
"Kings Beach, CA",,retail,452210,Ross,"1030 Al Tahoe Boulevard, South Lake Tahoe, CA, 96150",+1 530-541-5029,,38.9333346,-119.9756369,,,n_4217828499,"shop=department_store, brand=Ross"
"Kings Beach, CA",,retail,445292,Rocket Fizz,CA,,,38.9564878,-119.942738,,,n_4236860287,"shop=confectionery, brand=Rocket Fizz"
"Kings Beach, CA",,retail,452319,Dollar Tree Store at 99 Cents Only Store 3,"2100 East William Street, Carson City, NV, 89706",+1-775 524 2030,https://www.dollartree.com/locations/nv/carson-city/10432/,39.1745015,-119.7450231,,,n_4239974018,"shop=variety_store, brand=Dollar Tree"
"Kings Beach, CA",,retail,452319,Dollar Tree,"2709 North Carson Street, Carson City, NV, 89706",+1 775 882 7733,https://www.dollartree.com/locations/nv/carson-city/1225/,39.1846847,-119.7678095,,,n_4239978490,"shop=variety_store, brand=Dollar Tree"
"Kings Beach, CA",,retail,445292,Grandma's Fudge,,,,39.3110441,-119.6495816,,,n_4243505328,shop=chocolate
"Kings Beach, CA",,retail,452319,Dollar Tree,"911 Topsy Lane, Carson City, NV, 89705-8422",+1 775-267-4362,https://www.dollartree.com/locations/nv/carson-city/4264/,39.107738,-119.778355,,,n_4243517118,"shop=variety_store, brand=Dollar Tree"
"Kings Beach, CA",,retail,445120,DJ Liquor & Groceries,"229 West 2nd Street, Reno, NV, 89501",,,39.526398,-119.8166827,,,n_4396672155,shop=convenience
"Kings Beach, CA",,retail,445120,Sierra Market,,,,38.9470429,-119.7573427,,,n_4398651555,shop=convenience
"Kings Beach, CA",,retail,445120,Sierra ARCO (Marathon Petroleum),,,,39.533985,-119.8682233,,,n_4416178442,"shop=convenience, brand=ARCO"
"Kings Beach, CA",,retail,446120,Jessie's Salon,"10580 North Mccarran Boulevard, Reno, NV, 89503",,,39.5354816,-119.8628956,,,n_4416178452,shop=beauty
"Kings Beach, CA",,retail,445120,7-Eleven,"10170 North Mccarran Boulevard, Reno, NV, 89503",,https://www.7-eleven.com/locations/nv/reno/10170-n-mccarran-blvd-33021,39.5268685,-119.8616047,,,n_4416233906,"shop=convenience, brand=7-Eleven"
"Kings Beach, CA",,retail,452319,Dollar Tree,,,,38.9635433,-119.7800958,,,n_4423039820,"shop=variety_store, brand=Dollar Tree"
"Kings Beach, CA",,retail,445120,JB Liquor & Smoke,"1086 South Virginia Street, Reno, NV, 89502",,,39.5134083,-119.806587,,,n_4446852015,shop=convenience
"Kings Beach, CA",,retail,445110,Raley's,"3701 South Carson Street, Carson City, NV, 89701",,,39.1330542,-119.7680838,,,n_4594848821,"shop=supermarket, brand=Raley's"
"Kings Beach, CA",,retail,446120,Reign Hair & Co,"20 Mary Street, Reno, NV, 89502",,,39.5145877,-119.8078202,,,n_4623945815,shop=beauty
"Kings Beach, CA",,retail,445120,Sharma Mart,,,,39.5439894,-119.8074352,,,n_4802737038,shop=convenience
"Kings Beach, CA",,retail,445110,Grocery Outlet,,,,38.9206975,-119.992198,,,n_4935971323,"shop=supermarket, brand=Grocery Outlet"
"Kings Beach, CA",,retail,453110,The Stem,,,,39.5249295,-119.8116044,,,n_4948011660,shop=florist
"Kings Beach, CA",,retail,445292,Sugar Love Chocolates,,,,39.5248971,-119.8117679,,,n_4948011662,shop=chocolate
"Kings Beach, CA",,retail,446120,Eye Candy Salon,"122 West 2nd Street, Reno, NV, 89501",,,39.5264781,-119.8150767,,,n_4960636868,shop=beauty
"Kings Beach, CA",,retail,445110,Raley’s,,,,39.3950434,-119.7657188,,,n_5224036821,shop=supermarket
"Kings Beach, CA",,retail,452319,Dollar General,,,https://www.dollargeneral.com/store-directory/nv/washoe-valley/14626,39.2909782,-119.770343,,,n_5465619895,"shop=variety_store, brand=Dollar General"
"Kings Beach, CA",,retail,445120,Glenshire General Store,"10095 Dorchester Drive, Truckee, CA, 96161",,,39.3552102,-120.1077042,,,n_6053605906,shop=convenience
"Kings Beach, CA",,retail,445120,,,,,39.3829875,-120.0822723,,,n_6160028440,shop=convenience
"Kings Beach, CA",,retail,446110,CVS Pharmacy,,,https://www.cvs.com/store-locator/tahoe-city-ca-pharmacies/950-n-lake-blvd-suite-100-tahoe-city-ca-96145/storeid=9976,39.1741201,-120.1369203,,,n_6160318006,"shop=chemist, brand=CVS Pharmacy"
"Kings Beach, CA",,retail,446120,Sassy Nails,,,,39.3255088,-120.210713,,,n_6164291648,shop=beauty
"Kings Beach, CA",,retail,445120,7-Eleven,"11400 Donner Pass Road, Truckee, CA, 96161-4921",+1 530-587-4246,https://www.7-eleven.com/locations/ca/truckee/11400-donner-pass-rd-16965,39.3263976,-120.2098543,,,n_6164299209,"shop=convenience, brand=7-Eleven"
"Kings Beach, CA",,retail,445110,Sprouts Farmers Market,"587 South Meadows Parkway, Reno, NV, 89521",+1 775-335-1055,https://www.sprouts.com/store/nv/reno/reno/,39.4395827,-119.760021,,,n_6347833894,"shop=supermarket, brand=Sprouts Farmers Market"
"Kings Beach, CA",,retail,452210,Marshalls,"567 South Meadows Parkway, Reno, NV, 89521",,,39.4396573,-119.760933,,,n_6347833895,"shop=department_store, brand=Marshalls"
"Kings Beach, CA",,retail,446120,City Nails,"1111 Steamboat Parkway, reno, NV, 89521",,,39.4236027,-119.7394205,,,n_6347896501,shop=beauty
"Kings Beach, CA",,retail,446120,Michael Grace Salon,"1091 Steamboat Parkway, reno, NV, 89521",,,39.4235861,-119.7410808,,,n_6347896505,shop=beauty
"Kings Beach, CA",,retail,445110,Turmeric Grocery,"9333 Double R Boulevard, reno, NV, 89521",,,39.4511726,-119.7588759,,,n_6348032796,shop=supermarket
"Kings Beach, CA",,retail,445120,,,,,39.1250607,-119.7725369,,,n_6485017916,shop=convenience
"Kings Beach, CA",,retail,445120,Arco Food Mart,,,,39.175022,-119.7374025,,,n_6501394789,shop=convenience
"Kings Beach, CA",,retail,445120,Golden Gate,,,,39.1747634,-119.7388906,,,n_6501394797,shop=convenience
"Kings Beach, CA",,retail,445120,7-Eleven,,,https://www.7-eleven.com/locations/nv/carson-city/3838-us-50-32303,39.180776,-119.724789,,,n_6501394801,"shop=convenience, brand=7-Eleven"
"Kings Beach, CA",,retail,445120,,,,,39.1540887,-119.7675966,,,n_6501426651,shop=convenience
"Kings Beach, CA",,retail,445120,,,,,39.1701544,-119.7632172,,,n_6501426658,shop=convenience
"Kings Beach, CA",,retail,445120,Jacksons,,,,39.1727785,-119.7501005,,,n_6501426666,"shop=convenience, brand=Jacksons"
"Kings Beach, CA",,retail,445120,7-Eleven,,,https://www.7-eleven.com/locations/nv/carson-city/3701-n-carson-st-22629,39.1909588,-119.772303,,,n_6505405317,"shop=convenience, brand=7-Eleven"
"Kings Beach, CA",,retail,445120,VP Racing Food Mart,,,,39.1680514,-119.766544,,,n_6505425441,shop=convenience
"Kings Beach, CA",,retail,445110,WinCo Foods,,,,39.4420193,-119.7683851,,,n_6595931513,"shop=supermarket, brand=WinCo Foods"
"Kings Beach, CA",,retail,452319,Dollar Tree,"9760 South Virginia Street, Reno, NV, 89511-5941",+1 775-343-7015,https://www.dollartree.com/locations/nv/reno/2523/,39.441379,-119.7679961,,,n_6595931515,"shop=variety_store, brand=Dollar Tree"
"Kings Beach, CA",,retail,446120,Ulta Beauty,"1050 Emerald Bay Road, South Lake Tahoe, CA, 96150",,https://www.ulta.com/stores/south-lake-tahoe-ca-1850,38.9112104,-120.0050809,,,n_6711321701,"shop=cosmetics, brand=Ulta Beauty"
"Kings Beach, CA",,retail,452319,Dollar General,,,,39.1757657,-119.734089,,,n_7194633388,"shop=variety_store, brand=Dollar General"
"Kings Beach, CA",,retail,445110,FoodMaxx,,,,39.1759461,-119.7311524,,,n_7253901206,"shop=supermarket, brand=FoodMaxx"
"Kings Beach, CA",,retail,452210,TJ Maxx,,,,38.914775,-120.004425,,,n_7258417835,"shop=department_store, brand=TJ Maxx"
"Kings Beach, CA",,retail,453110,Thran's Flowers,976 Emerald Bay Road,,http://www.thransflowers.com,38.913863,-120.0054094,,,n_7949402507,shop=florist
"Kings Beach, CA",,retail,445310,Tahoe Bottle Shop,,,,38.9535157,-119.9463613,,,n_7967807533,shop=alcohol
"Kings Beach, CA",,retail,445310,Cowboys Liquor,"East William Street, Carson City, NV",,,39.1707143,-119.7639459,,,n_8174668627,shop=alcohol
"Kings Beach, CA",,retail,446110,CVS Pharmacy,,,https://www.cvs.com/store-locator/carson-city-nv-pharmacies/3240-us-highway-50-e-carson-city-nv-89701/storeid=9981,39.1784288,-119.7319412,,,n_8221421550,"shop=chemist, brand=CVS Pharmacy"
"Kings Beach, CA",,retail,452210,Big Lots,"4215 South Carson Street, Carson City, NV, 89701",+1 775-883-1557,https://local.biglots.com/nv/carson-city/4215-s-carson-st,39.1290638,-119.7674072,,,n_8258428574,"shop=department_store, brand=Big Lots"
"Kings Beach, CA",,retail,452210,JCPenney,,,,39.1306967,-119.7674345,,,n_8258428576,"shop=department_store, brand=JCPenney"
"Kings Beach, CA",,retail,445120,Sticks market,,(530) 214-8891,https://m.facebook.com/SticksMarket,39.3290803,-120.2512447,,,n_8268701831,shop=convenience
"Kings Beach, CA",,retail,445120,,,,,39.3218586,-120.208568,,,n_8272610865,shop=convenience
"Kings Beach, CA",,retail,445120,Shell,,,,39.3941332,-119.7676246,,,n_8291030793,"shop=convenience, brand=Shell"
"Kings Beach, CA",,retail,452319,Dollar Tree,,,https://www.dollartree.com/locations/nv/dayton/3159/,39.2630481,-119.5830274,,,n_8305342437,"shop=variety_store, brand=Dollar Tree"
"Kings Beach, CA",,retail,445120,Copper Lane,,,,39.2756025,-120.1206833,,,n_8421722673,shop=convenience
"Kings Beach, CA",,retail,445110,Grocery Outlet,"Dayton, NV",,,39.2684819,-119.5774119,,,n_8534257068,"shop=supermarket, brand=Grocery Outlet"
"Kings Beach, CA",,retail,452210,Ross,"4825 Kietzke Lane, Reno, NV, 89502",+1 775-826-2000,,39.4794821,-119.795939,,,n_8720253791,"shop=department_store, brand=Ross"
"Kings Beach, CA",,retail,453991,,,,,39.1714613,-119.7673199,,,n_8737397568,shop=tobacco
"Kings Beach, CA",,retail,452319,Dollar Tree,,,https://www.dollartree.com/locations/nv/zephyr-cove/5613/,38.9848033,-119.942175,,,n_8778369261,"shop=variety_store, brand=Dollar Tree"
"Kings Beach, CA",,retail,446120,Paradise Nails,,,,38.9858534,-119.943223,,,n_8778369263,shop=beauty
"Kings Beach, CA",,retail,445110,Bazaar European Deli and Cafe,,,,39.4907811,-119.79425,,,n_8830956516,shop=supermarket
"Kings Beach, CA",,retail,452210,Ross,"4201 South Carson Street, Carson City, NV, 89701-5562",+1 775-884-0782,,39.1300276,-119.7673959,,,n_8871304331,"shop=department_store, brand=Ross"
"Kings Beach, CA",,retail,446120,Get Nailed and Beauty Supplies,,,,39.1565389,-119.7658645,,,n_8888379924,shop=beauty
"Kings Beach, CA",,retail,446120,Bath & Body Works,,+1-775-851-2400,,39.4029164,-119.7519614,,,n_8912588230,"shop=cosmetics, brand=Bath & Body Works"
"Kings Beach, CA",,retail,446120,Ulta Beauty,"13985 South Virginia Street, Reno, NV, 89511",+1-775-418-5949,https://www.ulta.com/stores/reno-nv-1534,39.4038496,-119.7499606,,,n_8912588253,"shop=cosmetics, brand=Ulta Beauty"
"Kings Beach, CA",,retail,445110,Leo's Pharmacy!,"571 riverbed cir., Reno, NV, 89521",,,39.4229113,-119.731899,,,n_8925133874,"shop=supermarket, operator=allah herself"
"Kings Beach, CA",,retail,445120,7-Eleven,"5075 North Lake Boulevard, Carnelian Bay, CA, 96140-1045",+1 530-546-5711,https://www.7-eleven.com/locations/ca/carnelian-bay/5075-n-lake-blvd-17525,39.2267701,-120.082509,,,n_8943484341,"shop=convenience, brand=7-Eleven"
"Kings Beach, CA",,retail,453991,Cigs for Less,,,,39.1746656,-119.7442322,,,n_8983918884,shop=tobacco
"Kings Beach, CA",,retail,446191,Phil's Discount Nutrition,"Carson City, NV",,,39.1746465,-119.7443803,,,n_8983918885,shop=health_food
"Kings Beach, CA",,retail,445110,Hacienda Market & Grill,"2270 East William Street, Carson City, NV, 89706",+1-775-461-3322,,39.1749213,-119.7435127,,,n_8983918887,shop=supermarket
"Kings Beach, CA",,retail,445110,US Foods,,,,39.1514609,-119.766267,,,n_9025659317,shop=supermarket
"Kings Beach, CA",,retail,445110,Frida's Meat & Grocery,,,,38.9625227,-119.7811769,,,n_9453513638,shop=supermarket
"Kings Beach, CA",,retail,452210,JCPenney,,,,39.4729716,-119.784107,,,n_9466822476,"shop=department_store, brand=JCPenney"
"Kings Beach, CA",,retail,452210,Macy's,,,https://www.macys.com/stores/nv/reno/meadowood-mall_409.html,39.4743261,-119.7837894,,,n_9466822484,"shop=department_store, brand=Macy's"
"Kings Beach, CA",,retail,446120,Sephora,,,,39.4730662,-119.784323,,,n_9466822500,"shop=cosmetics, brand=Sephora"
"Kings Beach, CA",,retail,452210,Macy's,,,https://www.macys.com/stores/nv/reno/meadowood-mall_409.html,39.4755571,-119.7830249,,,n_9466822506,"shop=department_store, brand=Macy's"
"Kings Beach, CA",,retail,446120,Bath & Body Works,,,,39.4743138,-119.7819387,,,n_9466854629,"shop=cosmetics, brand=Bath & Body Works"
"Kings Beach, CA",,retail,445310,Total Wine,"6671 South Virginia Street, Reno, NV, 89511",+1 775-853-3669,https://www.totalwine.com/store-info/1203,39.4653374,-119.785433,,,n_9531181928,"shop=alcohol, brand=Total Wine"
"Kings Beach, CA",,retail,446120,Ulta Beauty,"4891 Kietzke Lane, Reno, NV, 89509",+1 775-823-9128,https://www.ulta.com/stores/reno-nv-1167,39.4796525,-119.7941271,,,n_9756052879,"shop=beauty, brand=Ulta Beauty"
"Kings Beach, CA",,retail,446120,Velvet Touch Salon,,,,38.946879,-119.7568801,,,n_9890619387,shop=beauty
"Kings Beach, CA",,retail,446120,Aurora Salon,,,,38.9469124,-119.7575494,,,n_9890619388,shop=beauty
"Kings Beach, CA",,retail,446120,True Bliss Skin Care & Wellness,,,,38.9472503,-119.7575947,,,n_9890619389,shop=beauty
"Kings Beach, CA",,retail,446120,Polish Nail Bar,,,,38.9471787,-119.7576746,,,n_9890619392,shop=beauty
"Kings Beach, CA",,retail,446120,Latina's,,,,39.1742744,-119.7460407,,,n_9891016485,shop=beauty
"Kings Beach, CA",,retail,445110,Grocery Outlet,"2100 East William Street, Carson City, NV, 89701",,https://www.groceryoutlet.com/circulars/storeid/501,39.1745564,-119.744719,,,n_9891016490,"shop=supermarket, brand=Grocery Outlet"
"Kings Beach, CA",,retail,453110,Carson City Florist,,,,39.1740786,-119.7460488,,,n_9891016491,shop=florist
"Kings Beach, CA",,retail,453991,Tobacco Island,,,,39.5033426,-119.7828006,,,n_9910666175,shop=tobacco
"Kings Beach, CA",,retail,452319,Five Below,,+1 775-245-2365,https://locations.fivebelow.com/nv/reno/6137-d-s-virginia-st,39.469644,-119.787046,,,n_10049439250,"shop=variety_store, brand=Five Below"
"Kings Beach, CA",,retail,445310,Ben's Fine Wine & Spirits,3777 North Carson Street,,,39.1924628,-119.7734246,,,n_10078590017,shop=wine
"Kings Beach, CA",,retail,446120,Regal Nails,,,,39.5289183,-119.7822298,,,n_10174855297,"shop=beauty, brand=Regal Nails"
"Kings Beach, CA",,retail,446120,Regal Nails,,,,39.5352497,-119.8677274,,,n_10174888115,"shop=beauty, brand=Regal Nails"
"Kings Beach, CA",,retail,445310,Vino 100,1131 Steamboat Parkway,+1-775-851-VINO,https://www.vino100reno.com/,39.423384,-119.7383607,,,n_10231754257,shop=wine
"Kings Beach, CA",,retail,445310,Silver Spur Liquor & Gifts,"221 North Virginia Street, Reno, NV, 89501",,,39.5272907,-119.8136667,,,n_10254786408,shop=alcohol
"Kings Beach, CA",,retail,445110,Sprouts Farmers Market,"299 East Plumb Lane, Reno, NV, 89502",+1 775-446-3979,https://www.sprouts.com/store/nv/reno/reno-plumb-ln/,39.5067755,-119.8013084,,,n_10576173271,"shop=supermarket, brand=Sprouts Farmers Market"
"Kings Beach, CA",,retail,445120,7-Eleven,,,,39.4775407,-119.7651462,,,n_10717922904,"shop=convenience, brand=7-Eleven"
"Kings Beach, CA",,retail,445120,,,,,38.9411373,-119.9776948,,,n_10919361969,shop=convenience
"Kings Beach, CA",,retail,445120,Food Mart,,,,39.2502178,-119.9531366,,,n_10969769728,"shop=convenience, brand=Food Mart"
"Kings Beach, CA",,retail,445120,Ez Market Mini Mart,,,,39.1795754,-119.7690497,,,n_11060933966,shop=convenience
"Kings Beach, CA",,retail,446120,Regal Nails,,,,39.1119748,-119.7777415,,,n_11064141054,"shop=beauty, brand=Regal Nails"
"Kings Beach, CA",,retail,445110,Silk Road,,+17754109981,,39.504021,-119.7827997,,,n_11068131301,shop=supermarket
"Kings Beach, CA",,retail,446120,Xpress Cuts & Tans,"5150 Mae Anne Avenue, Reno, NV, 89523",,,39.5314806,-119.8671697,,,n_11076288869,shop=beauty
"Kings Beach, CA",,retail,446120,European Wax Center,"5110 Mae Anne Avenue, Reno, NV, 89523",+1 775-746-0567,https://locations.waxcenter.com/nv/reno/reno-0299.html,39.5298585,-119.866751,,,n_11076288877,"shop=beauty, brand=European Wax Center"
"Kings Beach, CA",,retail,446120,Ulta Beauty,"5110 Mae Anne Avenue, Reno, NV, 89523",+1 775-624-6201,https://www.ulta.com/stores/reno-nv-1166,39.5298985,-119.866237,,,n_11076288881,"shop=cosmetics, brand=Ulta Beauty"
"Kings Beach, CA",,retail,445292,Rocky Mountain Chocolate Factory,"5100 Mae Anne Avenue, Reno, NV, 89523",,,39.5304357,-119.8654536,,,n_11076359755,"shop=confectionery, brand=Rocky Mountain Chocolate Factory"
"Kings Beach, CA",,retail,453991,Smok'n Ray's Smoke Shop,,,,39.5138724,-119.8290439,,,n_11076382627,shop=tobacco
"Kings Beach, CA",,retail,445120,ExtraMile,,,,39.5132104,-119.8588155,,,n_11081965202,"shop=convenience, brand=ExtraMile"
"Kings Beach, CA",,retail,446120,Nail Bar,,+1 775-376-1009,,39.4908486,-119.8060598,,,n_11081997042,shop=beauty
"Kings Beach, CA",,retail,453991,Still Smokin',,,,39.4717757,-119.7859132,,,n_11081997052,shop=tobacco
"Kings Beach, CA",,retail,453991,Lavi Smoke & Food Mart 2,"9570 South Mccarran Boulevard, Reno, NV, 89523",,,39.5142655,-119.859253,,,n_11082012809,shop=tobacco
"Kings Beach, CA",,retail,453110,The Garden Flowers & Coffee,,+1 775-440-1019,,39.5191078,-119.8028897,,,n_11082221111,"shop=florist, amenity=cafe"
"Kings Beach, CA",,retail,445120,7-Eleven,"800 South Wells Avenue, Reno, NV, 89502",+1 775-322-6711,https://www.7-eleven.com/locations/nv/reno/800-south-wells-17606,39.5181399,-119.8027938,,,n_11082221113,"shop=convenience, brand=7-Eleven"
"Kings Beach, CA",,retail,446120,Universal Styling Salon,,+1 775-324-5330,,39.5185381,-119.8034081,,,n_11082221125,shop=beauty
"Kings Beach, CA",,retail,445120,Murillo's Store,,,,39.5177424,-119.8033791,,,n_11082221127,shop=convenience
"Kings Beach, CA",,retail,446120,Little City Salon,1175 South Wells Avenue,,,39.5140617,-119.8033673,,,n_11082221135,shop=beauty
"Kings Beach, CA",,retail,446120,Flawless Microblading & Nails,1185 South Wells Avenue,+1 775-815-3787,,39.5140234,-119.8033673,,,n_11082221136,shop=beauty
"Kings Beach, CA",,retail,446120,Pantry Products,,,https://www.pantryproductsnv.com,39.5122594,-119.8033454,,,n_11082221143,shop=cosmetics
"Kings Beach, CA",,retail,446120,Chula's Beauty Salon,,+1 714-402-6523,,39.5106418,-119.8033509,,,n_11082221153,shop=beauty
"Kings Beach, CA",,retail,445110,Marketon,,,,39.5110633,-119.8024113,,,n_11082221157,shop=supermarket
"Kings Beach, CA",,retail,446120,Salon De Belleza,,+1 775-333-9566,,39.5114786,-119.8026528,,,n_11082221163,shop=beauty
"Kings Beach, CA",,retail,453110,Floreria Reno,,+1 775-453-2392,,39.5115396,-119.8026569,,,n_11082221164,shop=florist
"Kings Beach, CA",,retail,446120,Corona's Beauty Salon,"South Wells Avenue, Reno",,,39.5123524,-119.8029442,,,n_11082221168,shop=beauty
"Kings Beach, CA",,retail,446120,Blue Salon Reno,,+1 775-329-4555,,39.5139794,-119.8027513,,,n_11082221179,shop=beauty
"Kings Beach, CA",,retail,446120,La Familia,,+1 775-229-0583,,39.5158908,-119.8030225,,,n_11082221188,shop=beauty
"Kings Beach, CA",,retail,445120,Dino Mart,,,,39.5166713,-119.8027403,,,n_11082221191,shop=convenience
"Kings Beach, CA",,retail,446120,Pacific Sun Tanning,,,,39.5319485,-119.8310071,,,n_11090569523,shop=beauty
"Kings Beach, CA",,retail,446120,Salon NV,"1325 West 7th Street, Reno, NV, 89503",+1 775-683-9501,,39.5310657,-119.8343077,,,n_11090569539,shop=beauty
"Kings Beach, CA",,retail,445310,One Stop Liquor,"1325 West 7th Street, Reno, NV, 89503",,,39.5310701,-119.8341969,,,n_11090569541,shop=alcohol
"Kings Beach, CA",,retail,446110,CVS Pharmacy,,,https://www.cvs.com/store-locator/reno-nv-pharmacies/1250-west-7th-st-reno-nv-89503/storeid=8806,39.5303769,-119.8323471,,,n_11090569545,"shop=chemist, brand=CVS Pharmacy"
"Kings Beach, CA",,retail,446120,Wynn Nail Bar,1066 Emerald Bay Road,,,38.9111931,-120.0039883,,,n_11091814387,shop=beauty
"Kings Beach, CA",,retail,445310,Uncorked,10018 Donner Pass Road,,,39.3277228,-120.1864473,,,n_11099864704,shop=wine
"Kings Beach, CA",,retail,445292,Sweets Handmade Candies,,,,39.3276822,-120.1865866,,,n_11099911508,shop=confectionery
"Kings Beach, CA",,retail,446120,Hollywood Nails,,+1 775-825-1877,,39.4814991,-119.7902256,,,n_11103334363,shop=beauty
"Kings Beach, CA",,retail,446120,Aveda Aura,,,,39.5012264,-119.7903365,,,n_11103334373,"shop=cosmetics, brand=Aveda"
"Kings Beach, CA",,retail,446120,Prude & Boujee,,,,39.5145792,-119.8078078,,,n_11124061662,shop=beauty
"Kings Beach, CA",,retail,445120,La Familia Mini Mart,,,,39.5062324,-119.7971432,,,n_11126312123,shop=convenience
"Kings Beach, CA",,retail,446120,New Style Beauty Salon,,+1 775-322-2866; +1 775-412-8261,,39.5065162,-119.7969566,,,n_11126312127,shop=beauty
"Kings Beach, CA",,retail,446120,Style Brows,,+1 775-870-9203,https://www.sbdcollections.com,39.5065171,-119.7968986,,,n_11126312128,shop=beauty
"Kings Beach, CA",,retail,445110,Smart & Final,,,,39.5067916,-119.7989784,,,n_11126312135,"shop=supermarket, brand=Smart & Final"
"Kings Beach, CA",,retail,446120,Strandz Salon,,+1 775-826-6008,,39.4930598,-119.7924452,,,n_11128776862,shop=beauty
"Kings Beach, CA",,retail,446120,Authentique,,+1 775-507-7474,,39.4916873,-119.7920962,,,n_11128776868,shop=beauty
"Kings Beach, CA",,retail,446120,Unbeweavable,,,,39.4916367,-119.7924051,,,n_11128776871,shop=cosmetics
"Kings Beach, CA",,retail,446120,Metamorphosis Salon and Day Spa,,,,39.4380639,-119.7561315,,,n_11141902169,shop=beauty
"Kings Beach, CA",,retail,453991,Smoke Shop II,"901 Golden Lane, Reno, NV, 89502",775-329-6299,https://www.rsic.org/about-3/business-enterprises-and-economic-development/smoke-shops/,39.5215392,-119.7870706,,,n_11144762241,"shop=tobacco, operator=Reno-Sparks Indian Colony"
"Kings Beach, CA",,retail,453991,RSIC Smoke Shop I,"2001 East 2nd Street, Reno, NV, 89502",+1 775-329-2972,,39.5277286,-119.7856203,,,n_11144802831,"shop=tobacco, operator=Reno-Sparks Indian Colony"
"Kings Beach, CA",,retail,446120,Foxy Nails,"11331 South Virginia Street, Reno, NV, 89511",+1-775-853-2333,https://foxynailnv.com,39.4285987,-119.7638095,,,n_11152814984,"shop=beauty, operator=owner"
"Kings Beach, CA",,retail,446120,Lavender Nail Spa,,+1 775-851-9892,,39.4652126,-119.7811061,,,n_11159941781,shop=beauty
"Kings Beach, CA",,retail,446120,Look Nook Salon,,,,39.4656007,-119.779847,,,n_11159941785,shop=beauty
"Kings Beach, CA",,retail,445299,The Wheyfarer Cheese and Specialty Foods,24 California Avenue,,,39.5200066,-119.8110048,,,n_11167136996,shop=cheese
"Kings Beach, CA",,retail,445292,Barrels-O-Candy,,,,39.31123,-119.6495061,,,n_11168782099,shop=confectionery
"Kings Beach, CA",,retail,446120,Eden Nail Lounge,,,,39.4527049,-119.7790762,,,n_11172822037,shop=beauty
"Kings Beach, CA",,retail,445310,Lee's Discount Liquor,,,,39.4529426,-119.7791314,,,n_11172822038,shop=alcohol
"Kings Beach, CA",,retail,445120,Shop-n-Go,,,,39.4566302,-119.7801858,,,n_11176945946,"shop=convenience, brand=Shop-n-Go"
"Kings Beach, CA",,retail,445110,Grocery Outlet,,,,39.4873933,-119.7870556,,,n_11196843180,"shop=supermarket, brand=Grocery Outlet"
"Kings Beach, CA",,retail,452319,Dollar Tree,,,https://www.dollartree.com/locations/nv/reno/6694/,39.4877279,-119.7870568,,,n_11196843181,"shop=variety_store, brand=Dollar Tree"
"Kings Beach, CA",,retail,446120,LV Nails,,+1 775-322-9800,,39.5265255,-119.8289958,,,n_11203685302,shop=beauty
"Kings Beach, CA",,retail,453991,Smoke-N-Head Shop,,,,39.5265031,-119.8291155,,,n_11203685303,shop=tobacco
"Kings Beach, CA",,retail,452319,Cigarettes and 99¢ Plus,,,,39.5264778,-119.8292525,,,n_11203685305,shop=variety_store
"Kings Beach, CA",,retail,446120,Style Brows,,,,39.5269489,-119.8294435,,,n_11203685310,shop=beauty
"Kings Beach, CA",,retail,446120,Magic Nails,,,,39.5282571,-119.8297301,,,n_11203685318,"shop=beauty, brand=Magic Nails"
"Kings Beach, CA",,retail,453110,Beautiful Flowers,"1 South Lake St, South Lake Tahoe, CA, 96150",530-600-1506,https://beautifulflowerssouthlaketahoe.com,38.9292149,-119.9924705,,,n_11206970608,shop=florist
"Kings Beach, CA",,retail,453110,Flower Bucket Florist,"1657 Prater Way, Sparks, NV, 89431",+1-775-359-8846,https://flowerbucketflorist.com,39.5376623,-119.7650183,,,n_11265936548,shop=florist
"Kings Beach, CA",,retail,446120,New Beginnings Beauty Salon,,,,39.0908623,-119.7779076,,,n_11291931225,shop=beauty
"Kings Beach, CA",,retail,445110,Big Horn Olive Oil Company,"3888 Mayberry Drive, Reno, NV, 89519",,,39.5064165,-119.8596531,,,n_11404644209,shop=grocery
"Kings Beach, CA",,retail,445110,Asian Mart,,,,39.4923969,-119.7951328,,,n_11404734858,shop=supermarket
"Kings Beach, CA",,retail,453991,Yum Yum Smoke Shop,,,,39.4906456,-119.7941958,,,n_11404734867,shop=tobacco
"Kings Beach, CA",,retail,446120,Nova Salon & Spa,"4792 Caughlin Parkway, Reno, NV, 89519",,,39.4833666,-119.8528482,,,n_11408358806,shop=beauty
"Kings Beach, CA",,retail,452319,Casa Moreno,"1845 Prater Way, Sparks, NV, 89431",+1-775-355-7112,,39.5371218,-119.7682119,,,n_11433523728,shop=general
"Kings Beach, CA",,retail,445310,Jm Mini Market,,,,38.9521596,-119.7611687,,,n_11466757265,shop=alcohol
"Kings Beach, CA",,retail,445120,,,,,39.2195695,-119.6523272,,,n_11466995550,shop=convenience
"Kings Beach, CA",,retail,445110,168 Asian Market,"Reno, NV",,https://www.168asianmarketreno.com/,39.4952651,-119.7976311,,,n_11506787404,shop=supermarket
"Kings Beach, CA",,retail,445120,7-Eleven,,,,39.4949056,-119.7986108,,,n_11506787413,"shop=convenience, brand=7-Eleven"
"Kings Beach, CA",,retail,445120,7-Eleven,"211 East Grove Street, Reno, NV, 89502-3808",+1 775-825-7758,https://www.7-eleven.com/locations/nv/reno/211-east-grove-st-14080,39.5012588,-119.7957422,,,n_11632892879,"shop=convenience, brand=7-Eleven"
"Kings Beach, CA",,retail,445120,,,,,39.5008399,-119.7974317,,,n_11632892950,shop=convenience
"Kings Beach, CA",,retail,445210,Overland Meat & Seafood Company,"2227 South Lake Tahoe Blvd, South Lake Tahoe, CA, 96150",+1-530-544-3204,,38.9184356,-119.9976422,,,n_11679013810,shop=butcher
"Kings Beach, CA",,retail,445120,MSC Pinoy Village Market,,,,39.5353936,-119.7707407,,,n_11806154769,shop=convenience
"Kings Beach, CA",,retail,446120,Pro Nails,"1650 Robb Drive, Reno, NV, 89523",,,39.5283788,-119.8802707,,,n_11941183061,shop=beauty
"Kings Beach, CA",,retail,446120,Tahoe Natural Beauty,,,,38.9574376,-119.94365,,,n_11954889385,shop=beauty
"Kings Beach, CA",,retail,446120,Perfectly Polished Nail Spa,,,,38.9554048,-119.9433092,,,n_11954889410,shop=beauty
"Kings Beach, CA",,retail,445210,Mahogany Smoked Meats,,,,38.95881,-119.9427467,,,n_11956738004,shop=butcher
"Kings Beach, CA",,retail,446120,TLC Salon,,,,39.476396,-119.7658167,,,n_11968090618,shop=beauty
"Kings Beach, CA",,retail,446120,Cozy Nail Spa,,,,39.1093549,-119.7757928,,,n_11999980611,shop=beauty
"Kings Beach, CA",,retail,445310,Candle Vino,,+1 775-453-0452,,39.5049005,-119.8167493,,,n_12007868930,shop=wine
"Kings Beach, CA",,retail,446120,Plumb and Pine,,,https://plumbandpine.com,39.5050158,-119.8156735,,,n_12007868934,shop=beauty
"Kings Beach, CA",,retail,446120,BLEACH,,,,39.505015,-119.8156096,,,n_12007868935,shop=beauty
"Kings Beach, CA",,retail,445210,Butcher Boy,,,,39.5052903,-119.8156529,,,n_12007868937,shop=butcher
"Kings Beach, CA",,retail,445110,Safeway,"1020 Johnson Boulevard, South Lake Tahoe, CA, 96150",+1 530-542-7740,https://local.safeway.com/safeway/ca/south-lake-tahoe/1020-johnson-ln.html,38.9440488,-119.9674009,,,n_12026116499,"shop=supermarket, brand=Safeway"
"Kings Beach, CA",,retail,445110,Safeway,"1020 Johnson Boulevard, South Lake Tahoe, CA, 96150",+1 530-542-7740,https://local.safeway.com/safeway/ca/south-lake-tahoe/1020-johnson-ln.html,38.9440977,-119.9673771,,,n_12026312330,"shop=supermarket, brand=Safeway"
"Kings Beach, CA",,retail,445120,Fairview Food Mart,,,,39.1499312,-119.7516112,,,n_12039056573,shop=convenience
"Kings Beach, CA",,retail,446120,Dazzle Naul & Spa,,,,38.9480259,-119.9578727,,,n_12042858862,shop=beauty
"Kings Beach, CA",,retail,446120,Sola Salons,,,,39.4783144,-119.7974468,,,n_12051954225,"shop=beauty, brand=Sola Salons"
"Kings Beach, CA",,retail,445120,Jacksons,"2001 South Virginia Street, Reno, NV, 89502",,,39.5043992,-119.8031551,,,n_12060213642,"shop=convenience, brand=Jacksons"
"Kings Beach, CA",,retail,446110,CVS Pharmacy,"299 East Plumb Lane, 89502",,,39.5068642,-119.8006303,,,n_12060242870,"shop=chemist, brand=CVS Pharmacy"
"Kings Beach, CA",,retail,445110,Grooceryoutlet bargain,,,,39.2479758,-119.9631353,,,n_12115475004,shop=supermarket
"Kings Beach, CA",,retail,452319,Five Below,,+1 775-234-5056,https://locations.fivebelow.com/nv/reno/13921-s-virginia-st,39.406607,-119.7507358,,,n_12152484538,"shop=variety_store, brand=Five Below"
"Kings Beach, CA",,retail,445110,Trader Joe's,"Reno, NV",,,39.4017487,-119.7516431,,,n_12183054494,"shop=supermarket, brand=Trader Joe's"
"Kings Beach, CA",,retail,446120,,"3641 Kings Row, Reno, NV, 89503",,,39.5427094,-119.8580017,,,n_12199355288,shop=beauty
"Kings Beach, CA",,retail,445120,Grab n Go 2,"1350 Stardust Street, Reno, NV, 89503",,,39.5281599,-119.8348605,,,n_12202136124,shop=convenience
"Kings Beach, CA",,retail,445120,Royal Market,"6380 Mae Anne Avenue, Reno, NV, 89523",,,39.5261504,-119.8876226,,,n_12205944769,shop=convenience
"Kings Beach, CA",,retail,446120,Hall Wrye Plastic Surgeon & Medical Spa,"6380 Mae Anne Avenue, Reno, NV, 89523",,,39.5262057,-119.8875415,,,n_12205944770,shop=beauty
"Kings Beach, CA",,retail,453110,Flourish,"121 Woodland Avenue, Reno, NV, 89523",,,39.5052069,-119.8971735,,,n_12208625298,shop=florist
"Kings Beach, CA",,retail,446120,Salon Hair & Nails,"2005 Sierra Highlands Drive, Reno, NV, 89523",,,39.5338537,-119.8694314,,,n_12210032682,shop=beauty
"Kings Beach, CA",,retail,446120,Party Nails,"2005 Sierra Highlands Drive, Reno, NV, 89523",,,39.5340307,-119.8694367,,,n_12210032686,shop=beauty
"Kings Beach, CA",,retail,445120,Go-Fer Market #2,"110 East 2nd Street, Reno, NV, 89505",,,39.5271456,-119.8114279,,,n_12249022538,shop=convenience
"Kings Beach, CA",,retail,445120,El Tapatio Market,"349 South Wells Avenue, Reno, NV, 89502",,,39.5226651,-119.8033631,,,n_12337741634,shop=convenience
"Kings Beach, CA",,retail,445292,Sierra Nevada Chocolate Company,"1290 South Virginia Street, Reno, NV, 89502",,,39.5119087,-119.8060502,,,n_12337741653,shop=chocolate
"Kings Beach, CA",,retail,445110,Raley's O-N-E Market,"10001 Soaring Way, 96161",,,39.3197303,-120.1550872,,,n_12400728848,"shop=supermarket, brand=Raley's"
"Kings Beach, CA",,retail,446120,Mira Day Spa,,,,39.4732614,-119.7825656,,,n_12419513114,shop=beauty
"Kings Beach, CA",,retail,446120,JC Perfume & Imports,,,,39.4735264,-119.7838095,,,n_12419513119,shop=perfumery
"Kings Beach, CA",,retail,446120,Purfumania,,,,39.4736325,-119.7830605,,,n_12419513121,shop=perfumery
"Kings Beach, CA",,retail,446120,Lavelier,,,,39.473557,-119.7831671,,,n_12419513123,shop=beauty
"Kings Beach, CA",,retail,445292,See's Candies,,,,39.4739928,-119.7831745,,,n_12419513126,shop=confectionery
"Kings Beach, CA",,retail,446120,Luxury Fragrances,,,,39.4747992,-119.7829069,,,n_12419513133,shop=perfumery
"Kings Beach, CA",,retail,445120,The Street Corner,,,,39.4741124,-119.7825985,,,n_12419513136,shop=convenience
"Kings Beach, CA",,retail,446120,Style Brows,,,,39.4748862,-119.7823447,,,n_12419513155,shop=beauty
"Kings Beach, CA",,retail,446120,Bath & Body Works,,,,39.1073118,-119.7775568,,,n_12440288160,"shop=cosmetics, brand=Bath & Body Works"
"Kings Beach, CA",,retail,445292,See's Candies,,,,39.1073252,-119.7764267,,,n_12440288162,"shop=confectionery, brand=See's Candies"
"Kings Beach, CA",,retail,445110,Raley's,"1630 Robb Drive, 89523",+1 775-746-6400,https://www.raleys.com/store/105,39.5279045,-119.8799474,,,n_12671273001,shop=supermarket
"Kings Beach, CA",,retail,445120,Maverik,"Reno, NV",,,39.528018,-119.789888,,,n_12685931616,"shop=convenience, brand=Maverik"
"Kings Beach, CA",,retail,452319,Reno Guns and Range,2325 Market Street,,,39.5152792,-119.7840781,,,n_12884689801,shop=variety_store
"Kings Beach, CA",,retail,453991,Hatuey Cigar,"1583 South Virginia Street, Reno, NV",,,39.5085571,-119.8050631,,,n_12941487658,shop=tobacco
"Kings Beach, CA",,retail,446120,Lather & Fizz,,,https://www.latherandfizz.com,39.1707881,-120.1418489,,,n_13038099993,shop=cosmetics
"Kings Beach, CA",,retail,445120,A & J Oriental Market,,+1-530-542-4443,,38.9275322,-119.9820032,,,n_13043484278,shop=convenience
"Kings Beach, CA",,retail,452319,Five Below,"1052 Emerald Bay Road, South Lake Tahoe, CA, 96150",,https://locations.fivebelow.com/ca/south-lake-tahoe/1052-emerald-bay-rd,38.9112682,-120.0048274,,,n_13045909905,"shop=variety_store, brand=Five Below"
"Kings Beach, CA",,retail,445310,,,,,38.9483268,-119.9564423,,,n_13062677601,shop=beverages
"Kings Beach, CA",,retail,445110,Walmart Supercenter,"4855 Kietzke Lane, Reno, NV, 89509",+1 775-829-8088,https://www.walmart.com/store/2189-reno-nv,39.4806241,-119.7988482,,,w_32811191,"shop=supermarket, brand=Walmart, operator=Walmart"
"Kings Beach, CA",,retail,445110,Save Mart,,,,39.4774541,-119.7963291,,,w_32811300,"shop=supermarket, brand=Save Mart"
"Kings Beach, CA",,retail,445110,Raley's,"4786 Caughlin Parkway, Reno, NV, 89519",+1 (775) 828-2424,,39.4828746,-119.8537548,,,w_32827273,shop=supermarket
"Kings Beach, CA",,retail,452319,99 Cents Only Stores,"5695 South Virginia Street, Reno, NV, 89502",,https://locations.99only.com/nv/reno/discount-store-346.html,39.4734161,-119.7882182,,,w_32907683,"shop=variety_store, brand=99 Cents Only Stores"
"Kings Beach, CA",,retail,445120,7-Eleven,"6150 South Mccarran Boulevard, Reno, NV, 89511",,https://www.7-eleven.com/locations/nv/reno/6150-s-mccarran-33090,39.4761965,-119.7917012,,,w_32907887,"shop=convenience, brand=7-Eleven"
"Kings Beach, CA",,retail,445110,Raley's,"1441 Mayberry Drive, Reno, NV, 89509",+1-775-786-0270,https://www.raleys.com/store/103,39.5104228,-119.836596,,,w_32914849,shop=supermarket
"Kings Beach, CA",,retail,445110,Walmart Supercenter,"5260 West 7th Street, Reno, NV, 89523",+1 775-624-2000,https://www.walmart.com/store/3254-reno-nv/,39.5356363,-119.8677852,,,w_38063703,"shop=supermarket, brand=Walmart, operator=Walmart"
"Kings Beach, CA",,retail,446110,Walgreens,"3495 South Virginia Street, Reno, NV, 89502",,https://www.walgreens.com/locator/walgreens-3495+s+virginia+st-reno-nv-89502/id=4789,39.4917,-119.7976508,,,w_38408158,"shop=chemist, brand=Walgreens"
"Kings Beach, CA",,retail,445120,Aisle 1,"1690 Robb Drive, 89523",,https://www.gasbuddy.com/station/74831,39.5292911,-119.8816281,,,w_80501202,"shop=convenience, brand=Raley's"
"Kings Beach, CA",,retail,445110,Save Mart,,,,39.19088,-119.7754063,,,w_133632028,"shop=supermarket, brand=Save Mart"
"Kings Beach, CA",,retail,445110,Safeway,"212 Elk Point Drive, Zephyr Cove, NV, 89448",+1 775-586-8387,https://local.safeway.com/safeway/nv/zephyr-cove/212-elks-point-rd.html,38.9863921,-119.94371,,,w_144521111,"shop=supermarket, brand=Safeway"
"Kings Beach, CA",,retail,445120,Safeway Convenience Store,"5150 Mae Anne Avenue, Reno, NV, 89523",,https://local.safeway.com/nv/reno-4628.html,39.5309382,-119.8658369,,,w_144525376,shop=convenience
"Kings Beach, CA",,retail,445120,Valley Market,"505 Denslowe Drive, Reno, NV, 89512",,,39.5444288,-119.8070789,,,w_184769930,shop=convenience
"Kings Beach, CA",,retail,445120,Tramway Market,"235 Tramway Drive, Stateline, NV, 89448",+1 775 588 4969,https://tramwaymarket.com/,38.9705885,-119.8870121,,,w_186231220,shop=convenience
"Kings Beach, CA",,retail,446110,CVS Pharmacy,"1695 Robb Drive, Reno, NV, 89523",,https://www.cvs.com/store-locator/reno-nv-pharmacies/1695-robb-dr-reno-nv-89523/storeid=9841,39.5289182,-119.882845,,,w_193046011,"shop=chemist, amenity=pharmacy, brand=CVS Pharmacy"
"Kings Beach, CA",,retail,445110,Save Mart,"525 Keystone Ave, NV, 89503",,https://www.savemart.com/index.php?req=bins_view&id=43,39.5277927,-119.8299181,,,w_220515440,"shop=supermarket, brand=Save Mart"
"Kings Beach, CA",,retail,445110,,,,,38.9332706,-119.9763868,,,w_222695908,shop=supermarket
"Kings Beach, CA",,retail,445120,,,,,38.9254435,-119.9872788,,,w_222773120,"shop=convenience, brand=Food Mart"
"Kings Beach, CA",,retail,445110,Smart & Final Extra!,,,,38.9147321,-120.0031228,,,w_222773156,"shop=supermarket, brand=Smart & Final"
"Kings Beach, CA",,retail,453110,Enchanted Florist,,,,38.9109317,-120.0029945,,,w_222773173,shop=florist
"Kings Beach, CA",,retail,445120,7-Eleven,"2620 South Lake Tahoe Boulevard, South Lake Tahoe, CA, 96150-7709",+1 530-318-6773,https://www.7-eleven.com/locations/ca/south-lake-tahoe/2620-s-lake-tahoe-blvd-15047,38.9265759,-119.9835982,,,w_222773209,"shop=convenience, brand=7-Eleven"
"Kings Beach, CA",,retail,446110,CVS Pharmacy,,,https://www.cvs.com/store-locator/south-lake-tahoe-ca-pharmacies/1043-emerald-bay-rd-south-lake-tahoe-ca-96150/storeid=9713,38.9120298,-120.0026372,,,w_222773306,"shop=chemist, brand=CVS Pharmacy"
"Kings Beach, CA",,retail,445230,Grass Roots Natural Foods,,,,38.9142104,-120.0036524,,,w_222773319,shop=greengrocer
"Kings Beach, CA",,retail,445120,Swiss Mart Food and Gas,,,,38.9159959,-120.0068325,,,w_223413265,shop=convenience
"Kings Beach, CA",,retail,445310,BevMo!,,,,38.9150566,-120.0054353,,,w_223413282,"shop=alcohol, brand=BevMo!"
"Kings Beach, CA",,retail,445120,,,,,38.9263863,-120.0471814,,,w_234239625,shop=convenience
"Kings Beach, CA",,retail,445110,Safeway,"850 North Lake Boulevard, Tahoe City, CA, 96145",+1 530-583-2772,https://local.safeway.com/safeway/ca/tahoe-city/850-n-lake-blvd.html,39.1733013,-120.1367963,,,w_238693062,"shop=supermarket, brand=Safeway"
"Kings Beach, CA",,retail,445110,Walmart Supercenter,"3770 US Highway 395 South, Carson City, NV, 89705",+1 775-267-2158,https://www.walmart.com/store/1648-carson-city-nv,39.1115768,-119.7784513,,,w_242317234,"shop=supermarket, brand=Walmart, operator=Walmart"
"Kings Beach, CA",,retail,445110,Trader Joe's,"3790 US Highway 395 South, Carson City, NV, 89705",+1 775-267-2486,https://locations.traderjoes.com/nv/carson-city/281/,39.1130885,-119.7757076,,,w_242317240,"shop=supermarket, brand=Trader Joe's"
"Kings Beach, CA",,retail,452210,Burlington,,,,39.1094985,-119.7787533,,,w_242317260,"shop=department_store, brand=Burlington"
"Kings Beach, CA",,retail,452210,Marshalls,,,,39.1080898,-119.778682,,,w_242317265,"shop=department_store, brand=Marshalls"
"Kings Beach, CA",,retail,446120,Ulta Beauty,"911 Topsy Lane, Carson City, NV, 89705",+1 775-267-1176,https://www.ulta.com/stores/carson-city-nv-647,39.1071987,-119.7766131,,,w_242317271,"shop=beauty, brand=Ulta Beauty"
"Kings Beach, CA",,retail,452210,Target,"910 Jacks Valley Road, Carson City, NV, 89705-6936",+17752675151,https://www.target.com/sl/carson-city/1239,39.1000134,-119.7782903,,,w_242317276,"shop=department_store, brand=Target"
"Kings Beach, CA",,retail,445120,7-Eleven,"1665 North Virginia Street, Reno, NV, 89503",+1 775-323-7011,https://www.7-eleven.com/locations/nv/reno/1665-north-virginia-24461,39.5479348,-119.8216437,,,w_243612207,"shop=convenience, brand=7-Eleven"
"Kings Beach, CA",,retail,445110,Safeway,"7815 North Lake Boulevard, Kings Beach, CA, 96143",+1 530-546-0170,https://local.safeway.com/safeway/ca/kings-beach/7815-n-lake-blvd.html,39.2393472,-120.0339309,,,w_253008229,"shop=supermarket, brand=Safeway"
"Kings Beach, CA",,retail,445110,Raley's,"701 Keystone Avenue, Reno, NV, 89503",,,39.5313944,-119.8325134,,,w_282966027,"shop=supermarket, brand=Raley's"
"Kings Beach, CA",,retail,445120,Obexer's General Store & Deli,"5300 West Lake Boulevard, homewood, 96141",(530) 525-1300,http://www.obexersgeneralstore.com,39.0821668,-120.1582288,,,w_301083176,"shop=convenience, amenity=cafe"
"Kings Beach, CA",,retail,445120,7-Eleven,"690 East 2nd Street, Reno, NV, 89502-1017",+1 775-329-6502,https://www.7-eleven.com/locations/nv/reno/690-e-2nd-st-20736,39.5270243,-119.80342,,,w_303991435,"shop=convenience, brand=7-Eleven"
"Kings Beach, CA",,retail,445110,Save Mart,"4348 South Carson Street, Carson City, NV, 89701",,,39.127106,-119.7722415,,,w_309665220,"shop=supermarket, brand=Save Mart"
"Kings Beach, CA",,retail,452210,Kohl's,"70 Damonte Ranch Parkway, Reno, NV, 89521",+1 775-852-4444,https://www.kohls.com/stores/nv/reno-974.shtml,39.4182719,-119.7553124,,,w_344906554,"shop=department_store, brand=Kohl's"
"Kings Beach, CA",,retail,446110,Walgreens,"10370 North Mccarran Boulevard, Reno, NV, 89503",,https://www.walgreens.com/locator/walgreens-10370+n+mccarran+blvd-reno-nv-89503/id=2658,39.5331386,-119.8624978,,,w_366997225,"shop=chemist, brand=Walgreens"
"Kings Beach, CA",,retail,445110,Raley's,"3310 South Mccarran Boulevard, Reno, NV, 89502",,,39.4841245,-119.7465098,,,w_370379886,shop=supermarket
"Kings Beach, CA",,retail,445110,Walmart Supercenter,"155 Damonte Ranch Parkway, Reno, NV, 89521",+1 775-853-6400,https://www.walmart.com/store/3277-reno-nv,39.4227864,-119.7567363,,,w_372000667,"shop=supermarket, brand=Walmart, operator=Walmart"
"Kings Beach, CA",,retail,446110,CVS Pharmacy,"55 Damonte Ranch Parkway, Reno, NV, 89521",,https://www.cvs.com/store-locator/reno-nv-pharmacies/55-damonte-ranch-pkwy-reno-nv-89521/storeid=9586,39.419584,-119.7562609,,,w_372000675,"shop=chemist, brand=CVS Pharmacy"
"Kings Beach, CA",,retail,446120,Abby's of Fifth Hair & Nails,"419 West 5th Street, Reno, NV, 89503",,,39.5303945,-119.8205127,,,w_375623129,shop=beauty
"Kings Beach, CA",,retail,445110,Smith's,"599 East William Street, Carson City, NV, 89701",+1 775-885-9922,https://www.smithsfoodanddrug.com/stores/grocery/nv/carson-city/599-e-william-st-carson-city-nv/706/00356,39.1689914,-119.7627166,,,w_375780342,"shop=supermarket, brand=Smith's"
"Kings Beach, CA",,retail,445120,7-Eleven,"690 Booth Street, Reno, NV, 89509",+1 775-323-4711,https://www.7-eleven.com/locations/nv/reno/690-booth-st-25962,39.5158881,-119.8260254,,,w_376553158,"shop=convenience, brand=7-Eleven"
"Kings Beach, CA",,retail,445120,Chevron,"700 North Sierra Street, Reno, NV, 89503",,,39.5338408,-119.8162842,,,w_377056528,"shop=convenience, brand=Chevron"
"Kings Beach, CA",,retail,446110,Walgreens,"750 North Virginia Street, Reno, NV, 89501",,,39.534788,-119.8149361,,,w_382382219,"shop=chemist, brand=Walgreens"
"Kings Beach, CA",,retail,445120,Food Mart,"6190 South Virginia Street, Reno, NV, 89502",,,39.4698816,-119.7852556,,,w_385795202,shop=convenience
"Kings Beach, CA",,retail,445120,7-Eleven,"5105 Summit Ridge Court, Reno, NV, 89523",,https://www.7-eleven.com/locations/nv/reno/5105-summit-ridge-ct-32207,39.5209195,-119.8631668,,,w_396616381,"shop=convenience, brand=7-Eleven"
"Kings Beach, CA",,retail,445120,Maverik,"995 Ambassador Drive, Reno, NV, 89523",,,39.5184127,-119.8884488,,,w_396616556,"shop=convenience, brand=Maverik"
"Kings Beach, CA",,retail,445120,Chevron,"910 Robb Drive, Reno, NV, 89523",,,39.5178624,-119.8857163,,,w_396616643,"shop=convenience, amenity=fuel, brand=Chevron"
"Kings Beach, CA",,retail,445120,Fireside Market,"205 East 4th Street, Reno, NV, 89501",,,39.5306805,-119.8114664,,,w_402968305,shop=convenience
"Kings Beach, CA",,retail,445120,,,,,39.3519508,-120.2310751,,,w_427726825,shop=convenience
"Kings Beach, CA",,retail,445120,Maverik,"1651 Highway 88, Minden, NV, 89423",,,38.9581672,-119.7785179,,,w_444851640,shop=convenience
"Kings Beach, CA",,retail,445120,Citi Mart,"1000 South Virginia Street, Reno, NV, 89502",,,39.514667,-119.807104,,,w_447595640,shop=convenience
"Kings Beach, CA",,retail,445210,Ponderosa Meat Co,"1264 South Virginia Street, Reno, NV, 89502",,,39.5122885,-119.8060552,,,w_447595646,"shop=butcher, product=meat"
"Kings Beach, CA",,retail,445120,Wrightway Market,"330 Evans Avenue, Reno, NV, 89501",,,39.5301597,-119.8097796,,,w_458549925,shop=convenience
"Kings Beach, CA",,retail,445120,Midtown Liquor,"895 South Virginia Street, Reno, NV, 89502",,,39.5164465,-119.808661,,,w_462403352,shop=convenience
"Kings Beach, CA",,retail,445120,Food Mart,,,,39.1288784,-119.771125,,,w_464371473,shop=convenience
"Kings Beach, CA",,retail,445310,Craft Reno,"22 Martin Street, Reno, NV, 89502",,,39.5151232,-119.808293,,,w_467674238,shop=alcohol
"Kings Beach, CA",,retail,452210,Ross,"5120 Mae Anne Avenue, Reno, NV, 89523",+1 775-787-3500,,39.5299556,-119.867263,,,w_467676984,"shop=department_store, brand=Ross"
"Kings Beach, CA",,retail,452210,Kohl's,"5150 Mae Anne Avenue, Reno, NV, 89523",+1 775-787-8100,https://www.kohls.com/stores/nv/reno-1172.shtml,39.5325636,-119.8675994,,,w_467676987,"shop=department_store, brand=Kohl's"
"Kings Beach, CA",,retail,445120,7-Eleven,"3041 River Road, Olympic Valley, CA, 96146",+1 530-581-0463,https://www.7-eleven.com/locations/ca/olympic-valley/3041-river-rd-23009,39.2063213,-120.1994511,,,w_474486222,"shop=convenience, brand=7-Eleven"
"Kings Beach, CA",,retail,445120,Delight Food Mart,"507 East 4th Street, Reno, NV, 89512",,,39.5315341,-119.807394,,,w_484781814,shop=convenience
"Kings Beach, CA",,retail,445120,Zippy Mart,,,,39.5518069,-119.8115672,,,w_487566963,"shop=convenience, amenity=fuel"
"Kings Beach, CA",,retail,445120,7-Eleven,"770 Keystone Avenue, Reno, NV, 89503",+1 775-323-6712,https://www.7-eleven.com/locations/nv/reno/770-keystone-ave-14084,39.5316402,-119.8308581,,,w_489485697,"shop=convenience, brand=7-Eleven"
"Kings Beach, CA",,retail,445120,ampm,"1390 South Virginia Street, Reno, NV, 89502",,,39.511195,-119.8055551,,,w_497924231,"shop=convenience, brand=ampm"
"Kings Beach, CA",,retail,445110,US Foods Chef's Store,"115 Kietzke Lane, Reno, NV, 89502",,,39.5291659,-119.7897776,,,w_551736600,shop=supermarket
"Kings Beach, CA",,retail,445110,Walmart Supercenter,"2425 East 2nd Street, Reno, NV, 89502",+1 775-359-8200,https://www.walmart.com/store/2106-reno-nv,39.528931,-119.7816856,,,w_552204982,"shop=supermarket, brand=Walmart, operator=Walmart"
"Kings Beach, CA",,retail,445110,Sak 'N Save,"1901 Silverada Boulevard, Reno, NV, 89512",,,39.547305,-119.7838103,,,w_560865158,shop=supermarket
"Kings Beach, CA",,retail,445120,River Belle Market,"1705 Highway 40 West, Verdi, NV, 89439",,,39.5206962,-119.9792908,,,w_565498859,shop=convenience
"Kings Beach, CA",,retail,445120,Rainbow Market,"7590 Colbert Drive, Reno, NV, 89511",,,39.459287,-119.7747015,,,w_574568931,shop=convenience
"Kings Beach, CA",,retail,445120,,,,,39.3249803,-120.2236128,,,w_577593841,shop=convenience
"Kings Beach, CA",,retail,445110,Walmart Supercenter,"3200 Market Street, Carson City, NV, 89706",+1 775-883-6415,https://www.walmart.com/store/3408-carson-city-nv,39.1871872,-119.757545,,,w_641347951,"shop=supermarket, brand=Walmart"
"Kings Beach, CA",,retail,445120,7-Eleven,"4995 West 7th Street, Reno, NV, 89503",,https://www.7-eleven.com/locations/nv/reno/4995-west-7th-avenue-26797,39.5366891,-119.8637081,,,w_669590823,"shop=convenience, brand=7-Eleven"
"Kings Beach, CA",,retail,445120,Maverik,,,,39.5264983,-119.8266921,,,w_689948009,"shop=convenience, brand=Maverik"
"Kings Beach, CA",,retail,445120,Maverik,"1451 East College Parkway, Carson City, NV, 89706",,,39.1896285,-119.7521558,,,w_692913769,"shop=convenience, brand=Maverik"
"Kings Beach, CA",,retail,452210,Kohl's,"3871 South Carson Street, Carson City, NV, 89701",+1 775-883-0969,https://www.kohls.com/stores/nv/carsoncity-1407.shtml,39.1316631,-119.7677879,,,w_724856679,"shop=department_store, brand=Kohl's"
"Kings Beach, CA",,retail,445120,Carson Country Market,,,,39.0910465,-119.7779224,,,w_746823927,shop=convenience
"Kings Beach, CA",,retail,445120,Chevron,"915 Mica Drive, Carson City, NV, 89705",,,39.0918415,-119.7762025,,,w_746823934,"shop=convenience, brand=Chevron"
"Kings Beach, CA",,retail,445110,Whole Foods Market,"3600 Lake Tahoe Boulevard, South Lake Tahoe, CA, 96150",+1 530-578-4555,https://www.wholefoodsmarket.com/stores/southlaketahoe,38.9471282,-119.959266,,,w_769592312,"shop=supermarket, brand=Whole Foods Market"
"Kings Beach, CA",,retail,445120,Dino Mart,"1321 North Carson Street, Carson City, NV, 89701",,,39.1724635,-119.7665335,,,w_770741059,shop=convenience
"Kings Beach, CA",,retail,445120,Capital City Liquor & Food Mart,"1511 North Carson Street, Carson City, NV, 89701",,,39.1738223,-119.7664185,,,w_770804229,shop=convenience
"Kings Beach, CA",,retail,445120,,,,,39.170125,-119.7664904,,,w_770804268,shop=convenience
"Kings Beach, CA",,retail,446110,CVS Pharmacy,,,https://www.cvs.com/store-locator/carson-city-nv-pharmacies/1980-n-carson-st-carson-city-nv-89701/storeid=9842,39.1786845,-119.7675526,,,w_773015869,"shop=chemist, brand=CVS Pharmacy"
"Kings Beach, CA",,retail,445120,Food Mart,,,,39.1548158,-119.7676267,,,w_773055484,shop=convenience
"Kings Beach, CA",,retail,445120,ExtraMile,"1102 North Carson Street, Carson City, NV, 89701",,,39.1707007,-119.7676116,,,w_773084360,"shop=convenience, brand=ExtraMile"
"Kings Beach, CA",,retail,445120,QuickStop,,,,39.1865844,-119.7608431,,,w_775447571,shop=convenience
"Kings Beach, CA",,retail,445120,ampm,,,,39.1978037,-119.7782277,,,w_775464633,"shop=convenience, brand=ampm"
"Kings Beach, CA",,retail,445120,Raley's aisle 1,,,,38.9127926,-120.0048898,,,w_777761886,shop=convenience
"Kings Beach, CA",,retail,445120,ExtraMile,,,,39.1608367,-119.7504461,,,w_779411251,"shop=convenience, brand=ExtraMile"
"Kings Beach, CA",,retail,445120,Maverik,,,,39.1815585,-119.7230739,,,w_787297256,"shop=convenience, brand=Maverik"
"Kings Beach, CA",,retail,445310,Aloha Discount Wine & Liquors,,,,39.1259464,-119.7700755,,,w_788751730,shop=alcohol
"Kings Beach, CA",,retail,453991,Washoe Tribal Smoke Shop,,,,39.1399348,-119.7708078,,,w_788751784,shop=tobacco
"Kings Beach, CA",,retail,445110,Grocery Outlet,,,,39.3257573,-120.2054001,,,w_823665360,"shop=supermarket, brand=Grocery Outlet"
"Kings Beach, CA",,retail,445110,,"1251 South Virginia Street, Reno, NV, 89502",,,39.5119927,-119.8066204,,,w_851340028,shop=supermarket
"Kings Beach, CA",,retail,445120,Maverik,"480 South Meadows Parkway, Reno, NV, 89521",,,39.4376632,-119.7619866,,,w_888806208,"shop=convenience, brand=Maverik"
"Kings Beach, CA",,retail,445110,Smith's,"2200 US Highway 50 East, Dayton, NV, 89403",+1 775-246-0239,https://www.smithsfoodanddrug.com/stores/grocery/nv/dayton/2200-us-hwy-50-e-dayton-nv/706/00392,39.2640191,-119.5826301,,,w_893618568,"shop=supermarket, brand=Smith's"
"Kings Beach, CA",,retail,446110,CVS Pharmacy,"1081 Steamboat Parkway, Reno, NV, 89521",,https://www.cvs.com/store-locator/reno-nv-pharmacies/1081-steamboat-pkwy-reno-nv-89521/storeid=6625,39.4229598,-119.7410046,,,w_906890788,"shop=chemist, brand=CVS Pharmacy"
"Kings Beach, CA",,retail,445120,,,,,39.2340376,-119.5913163,,,w_910719813,shop=convenience
"Kings Beach, CA",,retail,445120,Dayton Valley Mini Mart,"35 Dayton Valley Road, Dayton, NV, 89403",,,39.2362242,-119.5886802,,,w_910719814,shop=convenience
"Kings Beach, CA",,retail,445120,,,,,38.9839957,-119.9421546,,,w_948366444,shop=convenience
"Kings Beach, CA",,retail,446120,Lash Lounge,"13915 South Virginia Street, Reno, NV, 89511",+1-775-318-5665,https://www.thelashlounge.com/nv-reno-summit/,39.4071005,-119.7497047,,,w_963491707,shop=beauty
"Kings Beach, CA",,retail,446110,Rite Aid,"8245 North Lake Boulevard, Kings Beach, CA, 96143",,https://www.riteaid.com/locations/ca/kings-beach/8245-north-lake-boulevard.html,39.237857,-120.0277093,,,w_1014226323,"shop=chemist, brand=Rite Aid"
"Kings Beach, CA",,retail,445120,Mi Pueblo Market,3885 Pioneer Way,+1 530 544 6860,,38.9515305,-119.9477324,,,w_1034870239,shop=convenience
"Kings Beach, CA",,retail,445310,Whispering Vine Wine Co.,"4201 West 4th Street, Reno, NV, 89523",,,39.5141014,-119.8545039,,,w_1063729910,shop=wine
"Kings Beach, CA",,retail,445120,West Shore Market & Deli,1780 West Lake Boulevard,+15305842475,https://www.westshoremarket.com,39.1405245,-120.1542483,,,w_1068628643,shop=convenience
"Kings Beach, CA",,retail,445120,7-Eleven,"800 Emerald Bay Road, South Lake Tahoe, CA, 96150",+1 530-541-0302,https://www.7-eleven.com/locations/ca/south-lake-tahoe/800-emerald-bay-rd-14078,38.9175235,-120.0110223,,,w_1069096549,"shop=convenience, brand=7-Eleven"
"Kings Beach, CA",,retail,445310,Whispering Vine Wine Co.,"772 South Virginia Street, Reno, NV, 89501",7754517681,,39.5182066,-119.809045,,,w_1070032577,shop=wine
"Kings Beach, CA",,retail,452319,,,,,39.5153493,-119.9642762,,,w_1080442981,"shop=general, operator=Reno KOA Journey"
"Kings Beach, CA",,retail,445120,Maverik,"1606 Glendale Avenue, Sparks, NV, 89431",,,39.5282188,-119.765889,,,w_1082384377,"shop=convenience, brand=Maverik"
"Kings Beach, CA",,retail,445120,,"1600 Victorian Avenue, Sparks, NV, 89431",,,39.5355759,-119.7642532,,,w_1112176024,shop=convenience
"Kings Beach, CA",,retail,452319,Family Dollar,,,,39.2419746,-119.5896962,,,w_1113224816,"shop=variety_store, brand=Family Dollar"
"Kings Beach, CA",,retail,445110,Safeway,"1031 Steamboat Parkway, Reno, NV, 89521",+1 775-332-0910,https://local.safeway.com/safeway/nv/reno/1031-steamboat-pkwy.html,39.4251405,-119.7382633,,,w_1118746004,"shop=supermarket, brand=Safeway"
"Kings Beach, CA",,retail,445120,7-Eleven,"1061 Steamboat Parkway, Reno, NV, 89521",,https://www.7-eleven.com/locations/nv/reno/1061-steamboat-pkwy-34129,39.4238531,-119.7425931,,,w_1118746007,"shop=convenience, brand=7-Eleven"
"Kings Beach, CA",,retail,446110,CVS Pharmacy,"8005 South Virginia Street, Reno, NV, 89511",,https://www.cvs.com/store-locator/reno-nv-pharmacies/8005-s-virginia-st-reno-nv-89511/storeid=9840,39.4555656,-119.7795784,,,w_1118752481,"shop=chemist, brand=CVS Pharmacy"
"Kings Beach, CA",,retail,452210,Target,"6845 Sierra Center Parkway, Reno, NV, 89511",+1 775-853-8900,https://www.target.com/sl/reno-south/1363,39.4630563,-119.7805355,,,w_1118765540,"shop=department_store, brand=Target"
"Kings Beach, CA",,retail,445120,M Food Mart,"500 Kietzke Lane, Reno, NV, 89502",,,39.5238216,-119.7885966,,,w_1176477121,shop=convenience
"Kings Beach, CA",,retail,445120,7-Eleven,"12605 South Virginia Street, Reno, NV, 89511",,,39.4181616,-119.7569711,,,w_1199362120,"shop=convenience, brand=7-Eleven"
"Kings Beach, CA",,retail,445120,Quick Stop,"2990 Mill Street, Reno, NV, 89502",,,39.5171006,-119.7779571,,,w_1201808189,"shop=convenience, brand=Quick Stop"
"Kings Beach, CA",,retail,445120,7-Eleven,"1401 East Peckham Lane, Reno, NV, 89502",+1 775-825-1977,https://www.7-eleven.com/locations/nv/reno/1401-e.-peckam-lane-22523,39.484064,-119.7797071,,,w_1204071849,"shop=convenience, brand=7-Eleven"
"Kings Beach, CA",,retail,446110,Walgreens,"12645 South Virginia Street, Reno, NV, 89511",,,39.4175286,-119.7565078,,,w_1210192382,"shop=chemist, brand=Walgreens"
"Kings Beach, CA",,retail,445120,Soda Springs General Store,"21784 Donner Pass Road, Soda Springs, CA, 95728",+1-530-426-3080,http://sodaspringsgeneralstore.com/,39.3250893,-120.3848419,,,w_1212107315,shop=convenience
"Kings Beach, CA",,retail,445120,Golden Gate,,,,39.1903925,-119.7574686,,,w_1219581677,shop=convenience
"Kings Beach, CA",,retail,446120,Salon Noir,"3960 Mayberry Drive, Reno, NV, 89519",,,39.5072789,-119.8593663,,,w_1229832019,shop=beauty
"Kings Beach, CA",,retail,445120,Shell,"3295 Kietzke Lane, Reno, NV, 89502",,,39.4933616,-119.7896423,,,w_1238964846,"shop=convenience, brand=Shell"
"Kings Beach, CA",,retail,445110,Asia Market,"2152 Prater Way, Sparks, NV, 89431",,,39.5367652,-119.7728666,,,w_1253438705,shop=supermarket
"Kings Beach, CA",,retail,445120,ampm,"2240 Victorian Avenue, Sparks, NV, 89431",,,39.5355565,-119.7742487,,,w_1293548063,"shop=convenience, brand=ampm"
"Kings Beach, CA",,retail,445120,Quick Mart,"2169 Prater Way, Sparks, NV, 89431",,,39.5361103,-119.7729932,,,w_1293548067,shop=convenience
"Kings Beach, CA",,retail,446120,Confessions Salon,"1145 West 1st Street, Reno, NV, 89503",,,39.523006,-119.82794,,,w_1318483113,shop=beauty
"Kings Beach, CA",,retail,445110,Safeway,"5150 Mae Anne Avenue, Reno, NV, 89523",+1 775-746-9000,https://local.safeway.com/safeway/nv/reno/5150-mae-anne-ave.html,39.530979,-119.8675393,,,w_1319367924,"shop=supermarket, brand=Safeway"
"Kings Beach, CA",,retail,452210,Dillard's,"13933 South Virginia Street, Reno, NV, 89511",+1 775-852-3080,https://www.dillards.com/stores/nevada/the-summit-reno-reno/0949,39.4049501,-119.7528918,,,w_1322770709,"shop=department_store, brand=Dillard's"
"Kings Beach, CA",,retail,445120,,,,,39.5312853,-119.830839,,,w_1322999951,shop=convenience
"Kings Beach, CA",,retail,445110,Trader Joe's,"5035 South McCarran Boulevard, Reno, NV, 89502",+1 775-826-1621,https://www.traderjoes.com/,39.4788551,-119.784002,,,w_1331450685,"shop=supermarket, brand=Trader Joe's"
"Kings Beach, CA",,retail,452210,Big Lots,"5017 South McCarran Boulevard, Reno, NV, 89502",+1 775-826-5565,https://local.biglots.com/nv/reno/5017-s-mccarran-blvd,39.4776432,-119.7837511,,,w_1331450687,"shop=department_store, brand=Big Lots"
"Kings Beach, CA",,retail,445120,Food Mart,"3880 Kietzke Lane, Reno, NV, 89502",,,39.4870894,-119.7887343,,,w_1331704923,shop=convenience
"Kings Beach, CA",,retail,446120,Sephora,"13915 South Virginia Street, Reno, NV, 89511",,,39.4070038,-119.7499753,,,w_1418177094,"shop=cosmetics, brand=Sephora"
