Location,Search Keyword,Segment,NAICS Code,Business Name,Address,Phone Number,Website,Latitude,Longitude,Rating,User Ratings,Place ID,Types
"Glen Ellen, CA",,wholesale,424490,Costco,,,,38.2508783,-122.2787871,,,n_12602861408,"shop=wholesale, brand=Costco"
"Glen Ellen, CA",,wholesale,424490,Costco,"198 Plaza Drive, Vallejo, CA, 94591",+1 707-553-6400,https://www.costco.com/warehouse-locations/vallejo-ca-132.html,38.1332241,-122.2133017,,,w_59441261,"shop=wholesale, brand=Costco, operator=Costco"
"Glen Ellen, CA",,wholesale,424490,Costco,"5101 Business Center Drive, Fairfield, CA, 94534-1624",+1 707-864-3816,https://www.costco.com/warehouse-locations/fairfield-ca-453.html,38.2152499,-122.1454834,,,w_106610242,"shop=wholesale, brand=Costco, operator=Costco"
"Glen Ellen, CA",,wholesale,424490,Costco,"5901 Redwood Drive, Rohnert Park, CA, 94928-2076",+1 707-540-9113,https://www.costco.com/warehouse-locations/rohnert-park-ca-659.html,38.3531431,-122.7174896,,,w_132688382,"shop=wholesale, brand=Costco, operator=Costco"
"Glen Ellen, CA",,wholesale,424490,Costco,"1900 Santa Rosa Avenue, Santa Rosa, CA, 95407-7621",+1 707-578-3775,https://www.costco.com/warehouse-locations/santa-rosa-ca-41.html,38.4201689,-122.7113404,,,w_383771707,"shop=wholesale, brand=Costco, operator=Costco"
"Glen Ellen, CA",,wholesale,424490,Costco,"300 Vintage Way, Novato, CA, 94945-5007",+1 415-899-1332,https://www.costco.com/warehouse-locations/novato-ca-141.html,38.0874429,-122.550489,,,w_721067069,"shop=wholesale, brand=Costco, operator=Costco"
