Location,Search Keyword,Segment,NAICS Code,Business Name,Address,Phone Number,Website,Latitude,Longitude,Rating,User Ratings,Place ID,Types
"Rouse, CA",,wholesale,424490,Costco,"26610 Ynez Road, Temecula, CA, 92591-4697",+1 951-719-2000,https://www.costco.com/warehouse-locations/temecula-ca-491.html,33.5213203,-117.1542296,,,w_55881990,"shop=wholesale, brand=Costco, operator=Costco"
"Rouse, CA",,wholesale,424490,Sam's Club,"40500 Murrieta Hot Springs Road, Murrieta, CA, 92563",+1 951-696-4500,https://www.samsclub.com/club/murrieta-ca-sams-club/4822,33.553129,-117.1777015,,,w_112262968,"shop=wholesale, brand=Sam's Club"
"Rouse, CA",,wholesale,424490,Sam's Club,"34220 Monterey Avenue, Palm Desert, CA, 92211",+1 760-770-7146,https://www.samsclub.com/club/6609-palm-desert-ca,33.8000436,-116.384433,,,w_298027294,"shop=wholesale, brand=Sam's Club"
"Rouse, CA",,wholesale,424490,Costco,"72800 Dinah Shore Drive, Palm Desert, CA, 92211-0817",+1 760-770-2810,https://www.costco.com/warehouse-locations/palm-desert-ca-441.html,33.8042726,-116.3895227,,,w_379034244,"shop=wholesale, brand=Costco, operator=Costco"
"Rouse, CA",,wholesale,424490,Costco,"35875 Warm Springs Parkway, Murrieta, CA, 92563",+1 951-223-4839,https://www.costco.com/warehouse-locations/murrieta-ca-1390.html,33.6004922,-117.1710332,,,w_1092008308,"shop=wholesale, brand=Costco"
