Location,Search Keyword,Segment,NAICS Code,Business Name,Address,Phone Number,Website,Latitude,Longitude,Rating,User Ratings,Place ID,Types
"Easton, CA",,wholesale,424490,Costco,"4500 West Shaw Avenue, Fresno, CA, 93722-6200",+1 559-271-6511,https://www.costco.com/warehouse-locations/fresno-ca-31.html,36.8099159,-119.8740744,,,w_164623690,"shop=wholesale, brand=Costco, operator=Costco"
"Easton, CA",,wholesale,424490,Sam's Club,"7663 North Blackstone Avenue, Fresno, CA, 93720",+1 559-446-0106,https://www.samsclub.com/club/fresno-ca-sams-club/4704,36.848666,-119.7941859,,,w_428427965,"shop=wholesale, wholesale=supermarket, brand=Sam's Club, operator=Walmart"
"Easton, CA",,wholesale,424490,Costco,"7100 North Abby Street, Fresno, CA, 93720",+1 559-437-3643,https://www.costco.com/warehouse-locations/n-fresno-fresno-ca-657.html,36.8389961,-119.7874082,,,w_485227169,"shop=wholesale, brand=Costco, operator=Costco"
"Easton, CA",,wholesale,424490,Costco,"2395 Lacey Boulevard, Hanford, CA, 93230-4740",+1 559-670-6008,https://www.costco.com/warehouse-locations/hanford-ca-1244.html,36.3254656,-119.6063022,,,w_700658703,"shop=wholesale, brand=Costco, operator=Costco"
"Easton, CA",,wholesale,424490,Costco,"2270 Clovis Avenue, Clovis, CA, 93612",+1 559-291-3377,https://www.costco.com/warehouse-locations/clovis-ca-1360.html,36.8062647,-119.7033069,,,w_1214864352,"shop=wholesale, brand=Costco"
