Location,Search Keyword,Segment,NAICS Code,Business Name,Address,Phone Number,Website,Latitude,Longitude,Rating,User Ratings,Place ID,Types
"Camp Pendleton South, CA",,wholesale,424490,San Diego Wholesale Florist,"1969 Kellogg Avenue, Carlsbad, CA, 92008",+18585050055,https://www.sandiegowholesaleflorist.com/,33.1229226,-117.2848508,,,n_9192052405,"shop=wholesale, wholesale=florist"
"Camp Pendleton South, CA",,wholesale,424490,Costco,"12350 Carmel Mountain Road, San Diego, CA, 92128",+1 858-675-0379,https://www.costco.com/warehouse-locations/carmel-mountain-san-diego-ca-452.html,32.9875671,-117.0782498,,,w_31816955,"shop=wholesale, brand=Costco, operator=Costco"
"Camp Pendleton South, CA",,wholesale,424490,Costco,"1755 Hacienda Drive, Vista, CA, 92081-4546",+1 760-631-7255,https://www.costco.com/warehouse-locations/vista-ca-124.html,33.1883233,-117.2765299,,,w_42235242,"shop=wholesale, wholesale=supermarket, brand=Costco"
"Camp Pendleton South, CA",,wholesale,424490,Costco,"26610 Ynez Road, Temecula, CA, 92591-4697",+1 951-719-2000,https://www.costco.com/warehouse-locations/temecula-ca-491.html,33.5213203,-117.1542296,,,w_55881990,"shop=wholesale, brand=Costco, operator=Costco"
"Camp Pendleton South, CA",,wholesale,424490,Costco Business Center,"150 South Bent Avenue, San Marcos, CA, 92069",+1 760-410-5681,https://www.costco.com/warehouse-locations/san-marcos-bus-ctr-san-marcos-ca-1581.html,33.1372042,-117.1834899,,,w_79795957,"shop=wholesale, brand=Costco"
"Camp Pendleton South, CA",,wholesale,424490,Costco,"33961 Doheny Park Road, San Juan Capistrano, CA, 92675",+1 949-240-3558,https://www.costco.com/warehouse-locations/san-juan-capistrano-ca-429.html,33.4697706,-117.678119,,,w_294743108,"shop=wholesale, brand=Costco"
"Camp Pendleton South, CA",,wholesale,424490,Costco,"725 Center Drive, San Marcos, CA, 92069",+1 760-871-6867,https://www.costco.com/warehouse-locations/san-marcos-ca-1080.html,33.13504,-117.1259193,,,w_402054700,"shop=wholesale, brand=Costco, operator=Costco"
"Camp Pendleton South, CA",,wholesale,424490,Costco,"951 Palomar Airport Road, Carlsbad, CA, 92011",+1 760-929-0963,https://www.costco.com/warehouse-locations/carlsbad-ca-462.html,33.1199995,-117.3166341,,,w_404647469,"shop=wholesale, brand=Costco"
