Location,Search Keyword,Segment,NAICS Code,Business Name,Address,Phone Number,Website,Latitude,Longitude,Rating,User Ratings,Place ID,Types
"Oakville, CA",,wholesale,424490,Costco,,,,38.2508783,-122.2787871,,,n_12602861408,"shop=wholesale, brand=Costco"
"Oakville, CA",,wholesale,424490,Sam's Club,"1500 Helen Power Drive, Vacaville, CA, 95687",+1 707-449-0290,https://www.samsclub.com/club/vacaville-ca-sams-club/6433,38.3636918,-121.9571355,,,w_32562102,"shop=wholesale, brand=Sam's Club, operator=Walmart"
"Oakville, CA",,wholesale,424490,Costco,"198 Plaza Drive, Vallejo, CA, 94591",+1 707-553-6400,https://www.costco.com/warehouse-locations/vallejo-ca-132.html,38.1332241,-122.2133017,,,w_59441261,"shop=wholesale, brand=Costco, operator=Costco"
"Oakville, CA",,wholesale,424490,Costco,"5101 Business Center Drive, Fairfield, CA, 94534-1624",+1 707-864-3816,https://www.costco.com/warehouse-locations/fairfield-ca-453.html,38.2152499,-122.1454834,,,w_106610242,"shop=wholesale, brand=Costco, operator=Costco"
"Oakville, CA",,wholesale,424490,Costco,"5901 Redwood Drive, Rohnert Park, CA, 94928-2076",+1 707-540-9113,https://www.costco.com/warehouse-locations/rohnert-park-ca-659.html,38.3531431,-122.7174896,,,w_132688382,"shop=wholesale, brand=Costco, operator=Costco"
"Oakville, CA",,wholesale,424490,Costco,"1051 Hume Way, Vacaville, CA, 95687",+1 707-453-7343,https://www.costco.com/warehouse-locations/vacaville-ca-694.html,38.3505689,-121.9802389,,,w_252995702,"shop=wholesale, brand=Costco, operator=Costco"
"Oakville, CA",,wholesale,424490,Costco,"1900 Santa Rosa Avenue, Santa Rosa, CA, 95407-7621",+1 707-578-3775,https://www.costco.com/warehouse-locations/santa-rosa-ca-41.html,38.4201689,-122.7113404,,,w_383771707,"shop=wholesale, brand=Costco, operator=Costco"
