Location,Search Keyword,Segment,NAICS Code,Business Name,Address,Phone Number,Website,Latitude,Longitude,Rating,User Ratings,Place ID,Types
"Shelton, CT",ethnic store,retail,445110,Deangely Market,"362 Oakville Ave, Waterbury, CT 06708, USA",(203) 597-9875,http://deangely-market.paqe.io/,41.58033349999999,-73.08163499999999,4.2,27.0,ChIJb2A_fiHA54kR_ACUMdw2eTM,"grocery_or_supermarket, food, point_of_interest, store, establishment"
"Shelton, CT",ethnic store,retail,445110,CTown Supermarkets,"45 North St, Danbury, CT 06810, USA",(203) 748-5466,https://locations.ctownsupermarkets.com/ctown-supermarkets-2aab27a3a18a?utm_source=Google&utm_medium=organic&utm_campaign=Yext,41.405118,-73.457636,4.2,1144.0,ChIJ05SJgV3_54kRtLPhIUsyUq4,"supermarket, grocery_or_supermarket, food, point_of_interest, store, establishment"
"Shelton, CT",ethnic store,retail,445110,49 Best Supermarket,"43 Willow St, Waterbury, CT 06710, USA",(203) 725-3584,,41.55906909999999,-73.0470383,4.0,50.0,ChIJH39hW1PA54kR2wm9yERipYQ,"grocery_or_supermarket, food, point_of_interest, store, establishment"
"Shelton, CT",ethnic store,retail,445110,Sophia Market,"1011 Hope St, Stamford, CT 06907, USA",(203) 883-8800,,41.0935581,-73.5174646,4.4,49.0,ChIJK5KBhRyhwokRgILcwew6sT8,"grocery_or_supermarket, food, point_of_interest, store, establishment"
"Shelton, CT",ethnic store,retail,445110,City Market Norwalk,"717 West Ave, Norwalk, CT 06850, USA",(203) 956-0241,,41.115929,-73.4146689,4.3,711.0,ChIJea7HfjIc6IkRIbmAzLNjMYA,"supermarket, grocery_or_supermarket, food, point_of_interest, store, establishment"
"Shelton, CT",ethnic store,retail,445110,Key Food Supermarkets,"325 Ferry St, New Haven, CT 06513, USA",(203) 777-3998,"https://keyfoodstores.keyfood.com/store/keyFood/en/store-locator?query=325%20Ferry%20Street,%20New%20Haven,%20Connecticut%2006513,%20United%20States&radius=5&services=",41.3084144,-72.8947396,4.0,171.0,ChIJY-4LGxnX54kRfnstnX9ofok,"supermarket, grocery_or_supermarket, food, point_of_interest, store, establishment"
"Shelton, CT",ethnic store,retail,445110,CTown Supermarkets,"360 Boston Ave, Stratford, CT 06614, USA",(203) 375-8987,https://locations.ctownsupermarkets.com/ctown-supermarkets-0676c5278d1a?utm_source=Google&utm_medium=organic&utm_campaign=Yext,41.1946124,-73.15370589999999,4.2,935.0,ChIJ-0yAw0gM6IkRWx8Ef1fUuK0,"supermarket, grocery_or_supermarket, food, point_of_interest, store, establishment"
"Shelton, CT",ethnic store,retail,445110,FOOD BAZAAR,"345 Huntington Turnpike, Bridgeport, CT 06610, USA",(203) 610-6995,https://www.foodbazaar.com/find-your-store/,41.2140482,-73.1759458,4.1,1278.0,ChIJR2KfghsM6IkRWWoInCW4kmM,"supermarket, grocery_or_supermarket, food, point_of_interest, store, establishment"
"Shelton, CT",ethnic store,retail,445110,FOOD BAZAAR,"500 Sylvan Ave, Bridgeport, CT 06606, USA",(203) 683-3740,https://www.foodbazaar.com/find-your-store/,41.2077318,-73.19156459999999,4.2,4377.0,ChIJ-4RNnpgO6IkRjCn2Iuo5ZZQ,"supermarket, grocery_or_supermarket, food, point_of_interest, store, establishment"
"Shelton, CT",ethnic store,retail,445110,CTown Supermarkets,"47 Main St, New Britain, CT 06051, USA",(860) 223-3800,https://locations.ctownsupermarkets.com/ctown-supermarkets-b13ca9a75be7?utm_source=Google&utm_medium=organic&utm_campaign=Yext,41.665201,-72.7807983,4.2,1275.0,ChIJc_omKsiz54kRyfh8BZyjGEI,"supermarket, grocery_or_supermarket, food, point_of_interest, store, establishment"
"Shelton, CT",ethnic store,retail,448140,Sadhna's Saris,"495 Union Street Suite 1118 And 1116, Waterbury, CT 06706, USA",(860) 960-1456,https://www.facebook.com/sadhnasllc,41.5478938,-73.0245711,4.4,20.0,ChIJFWb3vBvB54kRlaiytbYK1xs,"clothing_store, jewelry_store, home_goods_store, point_of_interest, store, establishment"
"Shelton, CT",ethnic store,retail,445110,Produce Market,"235 Main St, Norwalk, CT 06851, USA",(203) 642-4400,,41.1303819,-73.42376279999999,4.7,73.0,ChIJqUFrILQd6IkRiPa4w2uq0v4,"grocery_or_supermarket, food, point_of_interest, store, establishment"
"Shelton, CT",ethnic store,retail,,Mother Land Market,"897 Dixwell Ave, Hamden, CT 06514, USA",(203) 772-2993,,41.3377426,-72.93500519999999,4.3,116.0,ChIJS4L0RIXZ54kRfFOU_2E3uUQ,"point_of_interest, store, establishment"
"Shelton, CT",ethnic store,retail,445110,La Mexicana Market,"137 White St, Danbury, CT 06810, USA",(203) 790-9962,,41.3990362,-73.4486743,4.4,156.0,ChIJG29ztG7_54kRq0NleY_R5Wo,"grocery_or_supermarket, supermarket, food, point_of_interest, store, establishment"
"Shelton, CT",ethnic store,retail,445110,Adams Hometown Market,"311 Main St, Terryville, CT 06786, USA",(860) 583-9177,http://www.adamshometownmarkets.com/,41.6792987,-73.01886209999999,4.0,326.0,ChIJkRi-zCK854kR5xp-t0lFYWo,"supermarket, grocery_or_supermarket, food, point_of_interest, store, establishment"
"Shelton, CT",ethnic store,retail,445110,Thyme & Season,"3040 Whitney Ave, Hamden, CT 06518, USA",(203) 407-8128,https://www.thymeandseason.net/,41.4058416,-72.8996043,4.4,174.0,ChIJ6x_LQ6fa54kRQVaIPgy_W_c,"grocery_or_supermarket, health, food, point_of_interest, store, establishment"
"Shelton, CT",ethnic store,retail,448140,A.K.A.N. West Indian & American Variety Store,"64 Bank St, Waterbury, CT 06702, USA",(203) 753-7272,https://www.facebook.com/akanvariety,41.5549697,-73.04098499999999,5.0,4.0,ChIJS8ELhKrB54kRQgN0EN_HEYo,"clothing_store, point_of_interest, store, establishment"
"Shelton, CT",ethnic store,retail,445110,EXPRESS INTERNATIONAL LLC,"610 S Main St, Waterbury, CT 06706, USA",(203) 527-7633,,41.5474627,-73.0382738,5.0,1.0,ChIJoz0W7fbB54kRncxeuDnoHpQ,"home_goods_store, grocery_or_supermarket, food, point_of_interest, store, establishment"
"Shelton, CT",ethnic store,retail,722511,Checkers Food Store & Deli,"160 Elizabeth St, Derby, CT 06418, USA",(203) 751-9214,,41.323209,-73.08997049999999,4.3,275.0,ChIJb-n2T3jg54kREJ6Q7mb5JCU,"store, restaurant, food, point_of_interest, establishment"
"Shelton, CT",ethnic store,retail,445110,Price Rite Marketplace of Danbury,"29 Main St, Danbury, CT 06810, USA",(203) 743-2660,https://www.priceritemarketplace.com/,41.3885887,-73.4449996,4.2,1068.0,ChIJjZCbenT_54kRbzQ5N4i_xss,"grocery_or_supermarket, supermarket, bakery, food, point_of_interest, store, establishment"
"Shelton, CT",grocery store,retail,445110,ShopRite of Norwalk,"360 Connecticut Ave, Norwalk, CT 06854, USA",(203) 838-0504,https://www.shoprite.com/?utm_source=GMB&utm_medium=Local_Search&utm_campaign=dbaPlatform&utm_term=394,41.1024779,-73.44022629999999,4.3,2245.0,ChIJ1zlqG3Me6IkRQ1yxV9vbFCw,"grocery_or_supermarket, bakery, supermarket, store, point_of_interest, food, establishment"
"Shelton, CT",grocery store,retail,445110,Key Food Supermarkets,"2251 Main St, Bridgeport, CT 06606, USA",(203) 275-8485,http://www.keyfood.com/,41.1936111,-73.1986111,4.0,527.0,ChIJs9uOZ4kO6IkRQtTZp7aK_wk,"grocery_or_supermarket, supermarket, store, point_of_interest, food, establishment"
"Shelton, CT",grocery store,retail,445110,Stop & Shop,"380 Main Ave, Norwalk, CT 06851, USA",(203) 840-1001,https://stores.stopandshop.com/ct/norwalk/380-main-avenue?y_source=1_NDE5NTYyNi03MTUtbG9jYXRpb24ud2Vic2l0ZQ%3D%3D,41.1410688,-73.4236895,4.2,668.0,ChIJdaRDpq4d6IkRJBh3zNb3Q-U,"grocery_or_supermarket, store, point_of_interest, food, establishment"
"Shelton, CT",grocery store,retail,445110,CTown Supermarkets,"5/7 Washington St, Norwalk, CT 06854, USA",(203) 838-0888,https://locations.ctownsupermarkets.com/ctown-supermarkets-81f504b8f0f3?utm_source=Google&utm_medium=organic&utm_campaign=Yext,41.0993087,-73.4211081,4.1,516.0,ChIJucQD93we6IkRSzC4_zU8pBs,"supermarket, grocery_or_supermarket, store, point_of_interest, food, establishment"
"Shelton, CT",grocery store,retail,445110,ShopRite of Wallingford,"846 N Colony Rd, Wallingford, CT 06492, USA",(203) 626-7760,https://www.shoprite.com/?utm_source=GMB&utm_medium=Local_Search&utm_campaign=dbaPlatform&utm_term=321,41.4791771,-72.80890289999999,4.3,1474.0,ChIJT6F47qvO54kRkdGHK6sLhwI,"grocery_or_supermarket, bakery, supermarket, store, point_of_interest, food, establishment"
"Shelton, CT",grocery store,retail,445110,Stop & Shop,"150 Whalley Ave, New Haven, CT 06515, USA",(203) 503-0105,https://stores.stopandshop.com/ct/new-haven/150-whalley-avenue?y_source=1_NDE5NTM4Ni03MTUtbG9jYXRpb24ud2Vic2l0ZQ%3D%3D,41.3143951,-72.9378033,3.9,1977.0,ChIJoQ4v-q7Z54kRV4gylndSk3c,"grocery_or_supermarket, store, point_of_interest, food, establishment"
"Shelton, CT",grocery store,retail,445110,"ShopRite of Milford, CT","935 Boston Post Rd, Milford, CT 06460, USA",(203) 876-7868,https://www.shoprite.com/?utm_source=GMB&utm_medium=Local_Search&utm_campaign=dbaPlatform&utm_term=327,41.2310291,-73.0500595,4.3,2104.0,ChIJj3qbSPJ06IkRwgHG2_srbAg,"grocery_or_supermarket, bakery, supermarket, store, point_of_interest, food, establishment"
"Shelton, CT",grocery store,retail,445110,Stop & Shop,"930 N Colony Rd, Wallingford, CT 06492, USA",(203) 265-6972,https://stores.stopandshop.com/ct/wallingford/930-north-colony-road?y_source=1_NDE5NTg1NC03MTUtbG9jYXRpb24ud2Vic2l0ZQ%3D%3D,41.4842163,-72.8069445,4.1,1201.0,ChIJKavtOqvO54kRam6htlpp_Xk,"grocery_or_supermarket, store, point_of_interest, food, establishment"
"Shelton, CT",grocery store,retail,445110,Stop & Shop,"485 Broad St, Meriden, CT 06450, USA",(203) 238-1235,https://stores.stopandshop.com/ct/meriden/485-broad-street?y_source=1_NDE5NTY5NS03MTUtbG9jYXRpb24ud2Vic2l0ZQ%3D%3D,41.5330775,-72.7913386,4.0,1093.0,ChIJ4UNiQzvK54kR-pruB8nlmDw,"grocery_or_supermarket, store, point_of_interest, food, establishment"
"Shelton, CT",grocery store,retail,445110,Stop & Shop,"460 Elm St, West Haven, CT 06516, USA",(203) 931-8843,https://stores.stopandshop.com/ct/west-haven/460-elm-street?y_source=1_NDE5NTY4MC03MTUtbG9jYXRpb24ud2Vic2l0ZQ%3D%3D,41.2717449,-72.9565197,4.1,1579.0,ChIJ_VnAsYLY54kRXvGwKeV3l54,"grocery_or_supermarket, store, point_of_interest, food, establishment"
"Shelton, CT",grocery store,retail,445110,ShopRite of Southington,"750 Queen St, Southington, CT 06489, USA",(860) 736-0044,https://www.shoprite.com/?utm_source=GMB&utm_medium=Local_Search&utm_campaign=dbaPlatform&utm_term=315,41.6368048,-72.874994,4.1,914.0,ChIJtyECazi354kRNuhLMvH99ho,"grocery_or_supermarket, bakery, supermarket, store, point_of_interest, food, establishment"
"Shelton, CT",grocery store,retail,445110,Stop & Shop,"180 Danbury Rd, New Milford, CT 06776, USA",(860) 355-3234,https://stores.stopandshop.com/ct/new-milford/180-danbury-road?y_source=1_NDE5NTQzMy03MTUtbG9jYXRpb24ud2Vic2l0ZQ%3D%3D,41.5503726,-73.419202,4.1,488.0,ChIJ88UgrFj254kRLgdV6s6yChw,"grocery_or_supermarket, store, point_of_interest, food, establishment"
"Shelton, CT",grocery store,retail,445110,Stop & Shop,"1160 Kings Hwy Cutoff, Fairfield, CT 06824, USA",(203) 254-8478,https://stores.stopandshop.com/ct/fairfield/1160-kings-highway-cut-off?y_source=1_NDE5NTMyNi03MTUtbG9jYXRpb24ud2Vic2l0ZQ%3D%3D,41.1511482,-73.2457316,4.1,660.0,ChIJEzfYadEP6IkRmgJUIXXEAqM,"grocery_or_supermarket, store, point_of_interest, food, establishment"
"Shelton, CT",grocery store,retail,445110,Price Rite Marketplace of New Britain,"150 Columbus Blvd, New Britain, CT 06051, USA",(860) 826-0588,https://www.priceritemarketplace.com/,41.6672652,-72.7753829,4.1,1669.0,ChIJadV8BrSz54kRVKuOqKBlYQ4,"grocery_or_supermarket, bakery, supermarket, store, point_of_interest, food, establishment"
"Shelton, CT",grocery store,retail,445110,ShopRite Brookfield,"143 Federal Rd, Brookfield, CT 06804, USA",(203) 775-7078,https://www.shoprite.com/?utm_source=GMB&utm_medium=Local_Search&utm_campaign=dbaPlatform&utm_term=392,41.4371439,-73.4062774,4.3,1680.0,ChIJuSuEGhj554kRA19gYCAxnBQ,"grocery_or_supermarket, bakery, supermarket, store, point_of_interest, food, establishment"
"Shelton, CT",grocery store,retail,445110,The Fresh Market,"605 Post Rd E, Westport, CT 06888, USA",(203) 227-2910,https://stores.thefreshmarket.com/ct/westport/117,41.139302,-73.34443399999999,4.3,281.0,ChIJ3ZCueAsb6IkRHknm331REh8,"grocery_or_supermarket, bakery, supermarket, store, point_of_interest, food, establishment"
"Shelton, CT",grocery store,retail,445110,CTown Supermarkets,"160 Colony St, Meriden, CT 06451, USA",(203) 235-7000,https://www.ctownsupermarkets.com/weekly-circular/store_code/u41_463,41.5423099,-72.8002822,4.1,1226.0,ChIJfenIHh_K54kRL4k7gI_uKVU,"supermarket, grocery_or_supermarket, store, point_of_interest, food, establishment"
"Shelton, CT",grocery store,retail,445110,ShopRite of Shelton,"875 Bridgeport Ave, Shelton, CT 06484, USA",(203) 225-9224,https://www.shoprite.com/?utm_source=GMB&utm_medium=Local_Search&utm_campaign=dbaPlatform&utm_term=398,41.2648651,-73.1347605,4.4,1328.0,ChIJvUMR4vgK6IkRdWrLgwyu4QY,"grocery_or_supermarket, bakery, supermarket, store, point_of_interest, food, establishment"
"Shelton, CT",grocery store,retail,445110,Stop & Shop,"22 Leetes Island Rd, Branford, CT 06405, USA",(203) 488-1325,https://stores.stopandshop.com/ct/branford/22-leetes-island-rd?y_source=1_NDE5NTQ4OS03MTUtbG9jYXRpb24ud2Vic2l0ZQ%3D%3D,41.2977403,-72.76284,4.1,627.0,ChIJG5XDRVzU54kRi-6s-Ec0diU,"grocery_or_supermarket, store, point_of_interest, food, establishment"
"Shelton, CT",grocery store,retail,445110,Stop & Shop,"5 River Rd, Wilton, CT 06897, USA",(203) 834-9735,https://stores.stopandshop.com/ct/wilton/5-river-road?y_source=1_NDE5NTI3NC03MTUtbG9jYXRpb24ud2Vic2l0ZQ%3D%3D,41.1909009,-73.4319816,4.1,168.0,ChIJbUb2380C6IkRzP7gUy6rRYk,"grocery_or_supermarket, store, point_of_interest, food, establishment"
"Shelton, CT",grocery store,retail,445110,T & J IGA Supermarket,"875 N High St, East Haven, CT 06512, USA",(203) 467-6438,http://www.tandjsupermarket.com/,41.3040972,-72.8539955,4.5,243.0,ChIJY6dO0ALX54kReZpRe-0C7fs,"grocery_or_supermarket, supermarket, store, point_of_interest, food, establishment"
"Shelton, CT",grocery store,retail,445110,ShopRite of Southbury,"775 Main St S, Southbury, CT 06488, USA",(203) 262-1477,https://www.shoprite.com/?utm_source=GMB&utm_medium=Local_Search&utm_campaign=dbaPlatform&utm_term=389,41.4630921,-73.22953849999999,4.4,782.0,ChIJ4_OT3Xjl54kRsmNrLzuZODs,"grocery_or_supermarket, bakery, supermarket, store, point_of_interest, food, establishment"
"Shelton, CT",grocery store,retail,445110,Stop & Shop,"505 N Main St, Southington, CT 06489, USA",(860) 620-9161,https://stores.stopandshop.com/ct/southington/505-north-main-street?y_source=1_NDE5NTcxMC03MTUtbG9jYXRpb24ud2Vic2l0ZQ%3D%3D,41.6139263,-72.8725103,4.0,739.0,ChIJyaqNRAu354kRrq4wV6eFllE,"grocery_or_supermarket, store, point_of_interest, food, establishment"
"Shelton, CT",grocery store,retail,445110,Big Y,"345 Washington Ave, North Haven, CT 06473, USA",(203) 234-2103,https://www.bigy.com/rs/store-locator/345-washington-ave/77?utm_source=google&utm_medium=googlemybusiness&utm_campaign=organicsearch&utm_term=sr-dec-06-23&utm_content=awareness-gmbprofile-77,41.40773189999999,-72.8458418,4.5,886.0,ChIJKadsIdTR54kRGC9GoIV1j94,"grocery_or_supermarket, supermarket, store, point_of_interest, food, establishment"
"Shelton, CT",grocery store,retail,445110,Stop & Shop,"1309 Corbin Ave, New Britain, CT 06053, USA",(860) 348-9856,https://stores.stopandshop.com/ct/new-britain/1309-corbin-avenue?y_source=1_NDE5NTM1My03MTUtbG9jYXRpb24ud2Vic2l0ZQ%3D%3D,41.6688005,-72.8049722,4.1,1411.0,ChIJfRSNCn2x54kRHbZvFluaybY,"grocery_or_supermarket, store, point_of_interest, food, establishment"
"Shelton, CT",grocery store,retail,445110,East Center Market,"816 E Center St, Wallingford, CT 06492, USA",(203) 269-5926,https://www.eastcentermarket.com/,41.4481715,-72.8036598,4.7,333.0,ChIJ_TVkHSrM54kR26Tuz0Vn8KI,"grocery_or_supermarket, supermarket, store, point_of_interest, food, establishment"
"Shelton, CT",grocery store,retail,445110,Big Y World Class Market,"401 Bridgeport Ave, Shelton, CT 06484, USA",(203) 447-3003,https://www.bigy.com/rs/store-locator/401-bridgeport-ave/90?utm_source=google&utm_medium=googlemybusiness&utm_campaign=organicsearch&utm_term=sr-dec-06-23&utm_content=awareness-gmbprofile-90,41.2944602,-73.1111983,4.5,984.0,ChIJjT4s2x_g54kRQ2meTiUnWy8,"grocery_or_supermarket, supermarket, store, point_of_interest, food, establishment"
"Shelton, CT",grocery store,retail,445110,KeyFood Supermarket,"60 E Main St, New Britain, CT 06051, USA",(860) 505-0718,http://keyfood.com/,41.671579,-72.7802272,4.0,258.0,ChIJi80VtPSz54kRFXebfkLPyFQ,"grocery_or_supermarket, store, point_of_interest, food, establishment"
"Shelton, CT",grocery store,retail,445110,Stop & Shop,"370 Hemingway Ave, East Haven, CT 06512, USA",(203) 468-7012,https://stores.stopandshop.com/ct/east-haven/370-hemingway-avenue?y_source=1_NDE5NTI1Ny03MTUtbG9jYXRpb24ud2Vic2l0ZQ%3D%3D,41.2782015,-72.86928619999999,3.9,1109.0,ChIJZaN9XMfX54kRmi-Y_HVg3BI,"grocery_or_supermarket, store, point_of_interest, food, establishment"
"Shelton, CT",grocery store,retail,445110,Stop & Shop,"100 Main St N, Southbury, CT 06488, USA",(203) 262-4555,https://stores.stopandshop.com/ct/southbury/100-main-street-north?y_source=1_NDE5NTI4Ny03MTUtbG9jYXRpb24ud2Vic2l0ZQ%3D%3D,41.4789876,-73.2092631,4.0,459.0,ChIJ3QuR527v54kR5aL1tIGKbJ8,"grocery_or_supermarket, store, point_of_interest, food, establishment"
"Shelton, CT",grocery store,retail,445110,ShopRite of Derby,"49 Pershing Dr, Derby, CT 06418, USA",(203) 736-1001,https://www.shoprite.com/?utm_source=GMB&utm_medium=Local_Search&utm_campaign=dbaPlatform&utm_term=396,41.3303499,-73.0866423,4.4,1311.0,ChIJ_8zeyCre54kRoNvwi4QtrCI,"grocery_or_supermarket, bakery, supermarket, store, point_of_interest, food, establishment"
"Shelton, CT",grocery store,retail,445110,Good Nature Market,"15 Broadway, New Haven, CT 06511, USA",(203) 787-4533,http://theshopsatyale.com/good-nature-market/,41.3110918,-72.9302933,3.4,303.0,ChIJESJOw7PZ54kRWmRjqNCUJ2I,"grocery_or_supermarket, store, point_of_interest, food, establishment"
"Shelton, CT",grocery store,retail,445110,Stop & Shop,"100 Quality St, Trumbull, CT 06611, USA",(203) 445-1006,https://stores.stopandshop.com/ct/trumbull/100-quality-street?y_source=1_NDE5NTI4OS03MTUtbG9jYXRpb24ud2Vic2l0ZQ%3D%3D,41.2553886,-73.2167996,3.9,486.0,ChIJWUtoyhkJ6IkRstVwRHPA4-o,"grocery_or_supermarket, store, point_of_interest, food, establishment"
"Shelton, CT",grocery store,retail,445110,Big Y,"1060 W Main St, Branford, CT 06405, USA",(203) 481-9671,https://www.bigy.com/rs/store-locator/1060-west-main-street/12?utm_source=google&utm_medium=googlemybusiness&utm_campaign=organicsearch&utm_term=sr-dec-06-23&utm_content=awareness-gmbprofile-12,41.27438799999999,-72.8318587,4.2,761.0,ChIJsVCRu0HW54kRXxHnBnBj4Ic,"grocery_or_supermarket, supermarket, store, point_of_interest, food, establishment"
"Shelton, CT",grocery store,retail,445110,Market 32,"140 Main St, Oxford, CT 06478, USA",(203) 463-7990,https://www.pricechopper.com/stores/ct/oxford/market-32-248.html,41.4233457,-73.1058534,4.3,409.0,ChIJMWi3_5bn54kREWunMGEnuRo,"supermarket, atm, bakery, grocery_or_supermarket, finance, store, point_of_interest, food, establishment"
"Shelton, CT",grocery store,retail,445110,Stew Leonard's,"100 Westport Ave, Norwalk, CT 06851, USA",(203) 847-7214,https://stewleonards.com/,41.1224617,-73.40177059999999,4.5,2266.0,ChIJcw-ToTgc6IkRFs_ZOn2zF-U,"grocery_or_supermarket, supermarket, bakery, cafe, food, point_of_interest, store, establishment"
"Shelton, CT",grocery store,retail,445110,Stop & Shop,"760 Villa Ave, Fairfield, CT 06825, USA",(203) 333-8715,https://stores.stopandshop.com/ct/fairfield/760-villa-avenue?y_source=1_NDE5NTgwNC03MTUtbG9jYXRpb24ud2Vic2l0ZQ%3D%3D,41.1760238,-73.2291175,4.2,1244.0,ChIJe6NdRjUO6IkR2hK5edWdTcE,"grocery_or_supermarket, food, point_of_interest, store, establishment"
"Shelton, CT",grocery store,retail,445110,Stop & Shop,"1135 Farmington Ave, Berlin, CT 06037, USA",(860) 828-0276,https://stores.stopandshop.com/ct/berlin/1135-farmington-avenue?y_source=1_NDE5NTMyMC03MTUtbG9jYXRpb24ud2Vic2l0ZQ%3D%3D,41.6303634,-72.75602719999999,4.0,793.0,ChIJp34x4n-z54kRBLiO_uSAhjw,"grocery_or_supermarket, food, point_of_interest, store, establishment"
"Shelton, CT",grocery store,retail,445110,Stop & Shop,"25 Old Kings Hwy N, Darien, CT 06820, USA",(203) 662-1227,https://stores.stopandshop.com/ct/darien/25-old-king's-highway-n?y_source=1_NDE5NTUyOS03MTUtbG9jYXRpb24ud2Vic2l0ZQ%3D%3D,41.0786316,-73.4649495,4.1,188.0,ChIJY06y9YGgwokRcGiyTU3Naqc,"grocery_or_supermarket, food, point_of_interest, store, establishment"
"Shelton, CT",grocery store,retail,445110,ShopRite of Waterbury,"943 Wolcott St, Waterbury, CT 06705, USA",(203) 756-5614,https://www.shoprite.com/?utm_source=GMB&utm_medium=Local_Search&utm_campaign=dbaPlatform&utm_term=314,41.56784,-73.00934170000001,4.3,2117.0,ChIJQ-DY1cXA54kR8eilDqUdXVs,"grocery_or_supermarket, supermarket, bakery, food, point_of_interest, store, establishment"
"Shelton, CT",grocery store,retail,452210,Walmart Supercenter,"844 N Colony Rd, Wallingford, CT 06492, USA",(203) 269-6622,https://www.walmart.com/store/2371-wallingford-ct/?veh=seo_loc,41.477496,-72.8105442,4.0,5519.0,ChIJe0xIya7O54kRL8O_Hbh9sW4,"department_store, bakery, hardware_store, furniture_store, home_goods_store, clothing_store, grocery_or_supermarket, food, point_of_interest, electronics_store, store, establishment"
"Shelton, CT",grocery store,retail,445110,Bravo Supermarkets,"1954 Baldwin St, Waterbury, CT 06706, USA",(203) 753-4931,http://www.bravosupermarkets.com/,41.5274702,-73.0386185,4.2,442.0,ChIJxQh_OXjB54kRnefkibjRubs,"grocery_or_supermarket, supermarket, liquor_store, food, point_of_interest, store, establishment"
"Shelton, CT",grocery store,retail,445110,ShopRite of Hamden,"2100 Dixwell Ave, Hamden, CT 06514, USA",(203) 230-5000,https://www.shoprite.com/?utm_source=GMB&utm_medium=Local_Search&utm_campaign=dbaPlatform&utm_term=324,41.3697258,-72.9223061,4.1,1172.0,ChIJE79FBGna54kRcpt4dI7v0-0,"grocery_or_supermarket, supermarket, bakery, food, point_of_interest, store, establishment"
"Shelton, CT",grocery store,retail,445110,Stop & Shop,"2335 Dixwell Ave, Hamden, CT 06514, USA",(203) 248-9615,https://stores.stopandshop.com/ct/hamden/2335-dixwell-avenue?y_source=1_NDE5NTUwNC03MTUtbG9jYXRpb24ud2Vic2l0ZQ%3D%3D,41.3722929,-72.9141683,4.2,1158.0,ChIJyc85nWXa54kRj2DMuJQJ0HQ,"grocery_or_supermarket, food, point_of_interest, store, establishment"
"Shelton, CT",grocery store,retail,445110,Stop & Shop,"112 Amity Rd, New Haven, CT 06515, USA",(203) 389-8600,https://stores.stopandshop.com/ct/new-haven/112-amity-road?y_source=1_NDE5NTMxNi03MTUtbG9jYXRpb24ud2Vic2l0ZQ%3D%3D,41.336279,-72.9820544,4.1,758.0,ChIJmxTDXEbZ54kRxitfCx37ypQ,"grocery_or_supermarket, food, point_of_interest, store, establishment"
"Shelton, CT",grocery store,retail,445110,Stop & Shop,"727 Rubber Ave, Naugatuck, CT 06770, USA",(203) 729-4182,https://stores.stopandshop.com/ct/naugatuck/727-rubber-avenue?y_source=1_NDE5NTc5Ni03MTUtbG9jYXRpb24ud2Vic2l0ZQ%3D%3D,41.4939147,-73.0793243,4.0,609.0,ChIJGyAQVXrC54kRurODqW2aCNw,"grocery_or_supermarket, food, point_of_interest, store, establishment"
"Shelton, CT",grocery store,retail,445110,Shop N Save Grocery & Deli,"287 Dixwell Ave, New Haven, CT 06511, USA",,,41.320989,-72.93430330000001,4.3,36.0,ChIJ1ddWtaTZ54kRJbi-4LDHGYI,"grocery_or_supermarket, food, point_of_interest, store, establishment"
"Shelton, CT",grocery store,retail,445110,ALDI,"1151 W Main St Unit 1, Branford, CT 06405, USA",(855) 955-2534,https://stores.aldi.us/ct/branford/1151-west-main-st?utm_source=google&utm_medium=local&utm_campaign=brand&utm_content=storepage_webclick,41.2758663,-72.8274939,4.3,191.0,ChIJXx4XUi3X54kRlvncRfKWEIY,"supermarket, grocery_or_supermarket, food, point_of_interest, store, establishment"
"Shelton, CT",grocery store,retail,445110,Pueblo Supermarket,"420 Pembroke St, Bridgeport, CT 06608, USA",(203) 335-1073,,41.1799328,-73.17912230000002,4.6,88.0,ChIJbfV_oNcN6IkRsOdlOk1HcZI,"grocery_or_supermarket, supermarket, food, point_of_interest, store, establishment"
"Shelton, CT",grocery store,retail,445110,Price Chopper,"410 Queen St, Southington, CT 06489, USA",(860) 621-2128,https://www.pricechopper.com/stores/ct/southington/price-chopper-203.html,41.6276109,-72.8752026,4.2,650.0,ChIJT_O8ahW354kRGo9cyII_jRc,"supermarket, atm, bakery, grocery_or_supermarket, food, point_of_interest, store, finance, establishment"
"Shelton, CT",grocery store,retail,445110,Big Y World Class Market,"83 Stony Hill Rd, Bethel, CT 06801, USA",(203) 791-8589,https://www.bigy.com/rs/store-locator/83-stony-hill-road/82?utm_source=google&utm_medium=googlemybusiness&utm_campaign=organicsearch&utm_term=sr-dec-06-23&utm_content=awareness-gmbprofile-82,41.4125797,-73.3789658,4.4,815.0,ChIJ4eOc6lL554kRGqtkoPXwdgo,"grocery_or_supermarket, supermarket, food, point_of_interest, store, establishment"
"Shelton, CT",grocery store,retail,445110,ShopRite of Fairfield,"1975 Black Rock Tpke, Fairfield, CT 06825, USA",(203) 615-0140,https://www.shoprite.com/?utm_source=GMB&utm_medium=Local_Search&utm_campaign=dbaPlatform&utm_term=399,41.1800347,-73.2499228,4.2,858.0,ChIJS7l8p78P6IkR3xByViFK90U,"grocery_or_supermarket, supermarket, bakery, food, point_of_interest, store, establishment"
"Shelton, CT",grocery store,retail,445110,ALDI,"72 Pershing Dr, Derby, CT 06418, USA",(855) 955-2534,https://stores.aldi.us/ct/derby/72-pershing-drive?utm_source=google&utm_medium=local&utm_campaign=brand&utm_content=storepage_webclick,41.3290848,-73.084373,4.5,797.0,ChIJMdNU59Tf54kRnIuXHzmGheE,"supermarket, grocery_or_supermarket, food, point_of_interest, store, establishment"
"Shelton, CT",grocery store,retail,445110,Gala Foods Supermarket,"1457 Fairfield Ave, Bridgeport, CT 06605, USA",(203) 330-1094,http://www.galasupermarkets.com/,41.1721012,-73.2109739,4.3,530.0,ChIJtwjKOT8O6IkR-xt41ChBX9E,"supermarket, grocery_or_supermarket, food, point_of_interest, store, establishment"
"Shelton, CT",grocery store,retail,445110,Gala Foods Supermarket,"1050 E Main St, Bridgeport, CT 06608, USA",(203) 366-9060,http://www.galasupermarkets.com/,41.1884881,-73.1799645,4.0,789.0,ChIJIW9fzSoM6IkRVyMCIe3hO_Y,"supermarket, atm, grocery_or_supermarket, food, point_of_interest, store, finance, establishment"
"Shelton, CT",indian grocery,retail,445110,Suzy's West Indian & American,"1348 Baldwin St #1, Waterbury, CT 06706, USA",(203) 596-0658,,41.534461,-73.0345493,4.4,45.0,ChIJxW7XgXPB54kRvGQjm6qrL7M,"grocery_or_supermarket, point_of_interest, store, food, establishment"
"Shelton, CT",indian grocery,retail,445110,MarsD Lanka,"9 Sandtrap Ln, Middletown, CT 06457, USA",(860) 834-9158,https://www.marsdlanka.com/,41.5942133,-72.6839999,5.0,10.0,ChIJHe262lFL5okRPgLXBW6TtZs,"grocery_or_supermarket, point_of_interest, store, food, establishment"
"Shelton, CT",indian grocery,retail,445110,The New Brookfield Market and Deli,"277 Whisconier Rd, Brookfield, CT 06804, USA",(203) 885-0010,,41.4826038,-73.4082198,4.6,92.0,ChIJp5BU3Jf554kR1m5CxxvtM4A,"grocery_or_supermarket, meal_takeaway, restaurant, point_of_interest, store, food, establishment"
"Shelton, CT",indian grocery,retail,445120,Tarrar Grocery,"315 N Colony St, Wallingford, CT 06492, USA",(203) 265-5939,http://www.gulfoil.com/,41.4616961,-72.8209632,4.4,15.0,ChIJk9psvJbO54kRurPQOZRiC_Q,"convenience_store, point_of_interest, store, food, establishment"
"Shelton, CT",indian grocery,retail,445110,Caribbean West Indian Market,"75 Arch St, New Britain, CT 06051, USA",(860) 224-2811,,41.6647668,-72.7822443,4.6,16.0,ChIJk0zIQMiz54kRkbcYVkPiDc4,"grocery_or_supermarket, point_of_interest, store, food, establishment"
"Shelton, CT",indian grocery,retail,445110,Maribel Grocery,"235 Madison Ave, Bridgeport, CT 06604, USA",(203) 333-6220,http://maribel-grocery.jany.io/,41.1869228,-73.1973003,4.2,46.0,ChIJoV0EnGMO6IkR6t1te272W-c,"grocery_or_supermarket, point_of_interest, store, food, establishment"
"Shelton, CT",indian grocery,retail,445110,Sai Foods,"2122 Silas Deane Hwy, Rocky Hill, CT 06067, USA",(860) 563-5000,,41.67038429999999,-72.6429406,3.8,408.0,ChIJT-JiI75N5okRc2WJelBIqbw,"supermarket, grocery_or_supermarket, point_of_interest, store, food, establishment"
"Shelton, CT",indian grocery,retail,445110,Saray Market & Deli LLC.,"179 Kelsey St, New Britain, CT 06051, USA",(860) 357-3946,,41.6624783,-72.762293,4.2,37.0,ChIJO5XI0Kiz54kRCOSTKpPdcFk,"grocery_or_supermarket, point_of_interest, store, food, establishment"
"Shelton, CT",indian grocery,retail,445110,Mist Convenience,"340 Orange St, New Haven, CT 06511, USA",(203) 691-7966,,41.3101069,-72.92090859999999,5.0,8.0,ChIJAa0p2vTZ54kRv_uB1y8EzD0,"grocery_or_supermarket, convenience_store, point_of_interest, store, food, establishment"
"Shelton, CT",indian grocery,retail,445310,Bharat Bazaar Farmer’s Market,"81 Boston Post Rd, Orange, CT 06477, USA",(203) 298-4050,https://www.facebook.com/bharatbazaarct?mibextid=LQQJ4d,41.277925,-72.9894028,4.1,878.0,ChIJjWD8dKrY54kRO_jz-0JuBdw,"liquor_store, supermarket, grocery_or_supermarket, point_of_interest, store, food, establishment"
"Shelton, CT",indian grocery,retail,445110,Farmer's India Market,"100 Boston Post Rd, Orange, CT 06477, USA",(203) 577-5438,http://indiamarket.co/,41.2764628,-72.9888316,4.4,1618.0,ChIJldWyEKXY54kRarhIyzUjPhA,"supermarket, grocery_or_supermarket, point_of_interest, store, food, establishment"
"Shelton, CT",indian grocery,retail,445110,Asia Grocers,"540 Main St Unit B, Cromwell, CT 06416, USA",(860) 632-2262,http://asiagrocers.com/,41.6178752,-72.6523424,4.2,567.0,ChIJP6m1JrP-5okRBnlpERn3JMo,"supermarket, grocery_or_supermarket, point_of_interest, store, food, establishment"
"Shelton, CT",indian grocery,retail,445110,India Foods (Indian Grocery Store in CT),"279 Berlin Tpke, Berlin, CT 06037, USA",(860) 828-8286,,41.6426027,-72.73036019999999,4.5,179.0,ChIJUd8DUjez54kRPjmm2IboFO8,"grocery_or_supermarket, point_of_interest, store, food, establishment"
"Shelton, CT",indian grocery,retail,445110,Aapnar Bazar,"151 Spruce St, Stamford, CT 06902, USA",(203) 324-7100,http://aapnarbazar.com/,41.052983,-73.5501676,4.3,50.0,ChIJ95IUsFShwokRnp5sab8_obE,"grocery_or_supermarket, supermarket, point_of_interest, store, food, establishment"
"Shelton, CT",indian grocery,retail,445110,Nur Grocery INC,"545 Ferry St, New Haven, CT 06513, USA",,,41.3147458,-72.8967627,3.7,7.0,ChIJW1b9RGLX54kRInQvomDjfIc,"grocery_or_supermarket, point_of_interest, store, food, establishment"
"Shelton, CT",indian grocery,retail,445110,India Bazar,"151 Queen St B, Southington, CT 06489, USA",(860) 863-5244,,41.6208448,-72.87247049999999,4.1,307.0,ChIJ7bKO9hK354kRhN6IZxot2Cs,"grocery_or_supermarket, restaurant, point_of_interest, store, food, establishment"
"Shelton, CT",indian grocery,retail,445110,Jay Nez Groceries,"227 Ferry St, New Haven, CT 06513, USA",(203) 789-8763,,41.3060185,-72.8947172,3.7,24.0,ChIJOf3Bm37X54kR0A3hasTOYlM,"grocery_or_supermarket, point_of_interest, store, food, establishment"
"Shelton, CT",indian grocery,retail,445110,Titi Groceries,"351 Lexington Ave, Bridgeport, CT 06604, USA",(203) 540-9040,,41.1847621,-73.2003853,3.5,2.0,ChIJg8Esm2YO6IkRiLaylEuJuik,"grocery_or_supermarket, point_of_interest, store, food, establishment"
"Shelton, CT",indian grocery,retail,445110,Bombay Sweet & Spices,"5 Padanaram Rd, Danbury, CT 06811, USA",(203) 791-2944,http://shopbombay.square.site/,41.4146856,-73.4583962,4.4,114.0,ChIJLWFn9Vn_54kRnnnATrW34a4,"grocery_or_supermarket, point_of_interest, store, food, establishment"
"Shelton, CT",indian grocery,retail,445110,Susie’s West Indian Grocery,"1338 Baldwin St, Waterbury, CT 06706, USA",,,41.53460889999999,-73.0344434,,,ChIJCT2nOQDB54kRvQCoAs9zZ9Q,"grocery_or_supermarket, food, point_of_interest, store, establishment"
"Shelton, CT",indian grocery,retail,445120,Caribbean Grocery,"159 W Cedar St, Norwalk, CT 06854, USA",,,41.1042776,-73.4352585,4.7,3.0,ChIJ8R0ZrHYe6IkRn15nbUcU65M,"convenience_store, food, point_of_interest, store, establishment"
"Shelton, CT",indian grocery,retail,445110,Indian Grocery Store,"749 Saybrook Rd, Middletown, CT 06457, USA",(860) 343-7799,,41.5365838,-72.6168405,4.3,39.0,ChIJX_1IFQJK5okRnNpcXzhQG90,"grocery_or_supermarket, food, point_of_interest, store, establishment"
"Shelton, CT",indian grocery,retail,445110,Indian Food & Spice,"39 Padanaram Rd A, Danbury, CT 06811, USA",(203) 730-0076,https://www.ctcurrypot.com/product,41.4182883,-73.46409020000002,4.0,140.0,ChIJJ3KDyFf_54kRVPH-izVQgjs,"grocery_or_supermarket, restaurant, food, point_of_interest, store, establishment"
"Shelton, CT",indian grocery,retail,445110,"Yeti & Yak Supermarket Nepali, Indian and Asian Grocery & Fresh produce","220 E Main St, Branford, CT 06405, USA",(203) 530-5828,,41.2901469,-72.7987502,5.0,7.0,ChIJYVaNSsfV54kRRCh9hiftufA,"grocery_or_supermarket, food, point_of_interest, store, establishment"
"Shelton, CT",indian grocery,retail,445110,Asia Supermarket Indian Grocery & Halal Meat,"2103 N Broad St, Meriden, CT 06450, USA",(203) 440-9660,https://asia-halal-meat-meriden.edan.io/,41.5744812,-72.76918119999999,3.8,38.0,ChIJD1LWU72154kRvnq-34Db0-I,"grocery_or_supermarket, supermarket, food, point_of_interest, store, establishment"
"Shelton, CT",indian grocery,retail,445110,Superstar Market,"96 Sylvan Ave, New Haven, CT 06519, USA",(203) 773-1286,,41.3042336,-72.9427899,4.8,17.0,ChIJ63HCLlTY54kRRsfarsUe2fg,"grocery_or_supermarket, food, point_of_interest, store, establishment"
"Shelton, CT",indian grocery,retail,445110,A & W Grocery Store,"436 Baldwin St, Waterbury, CT 06706, USA",(203) 527-5263,,41.546782,-73.0339286,4.4,32.0,ChIJswdd9wXB54kRkDKyOqpvRC8,"grocery_or_supermarket, food, point_of_interest, store, establishment"
"Shelton, CT",indian grocery,retail,445110,Patel Brothers,"330 Connecticut Ave #3, Norwalk, CT 06854, USA",(203) 939-1777,https://www.patelbros.com/specials/330-connecticut-ave-norwalk,41.10293730000001,-73.4367956,4.3,1932.0,ChIJ5YrNw3Me6IkRaLHvMr36eaQ,"grocery_or_supermarket, supermarket, food, point_of_interest, store, establishment"
"Shelton, CT",indian grocery,retail,445110,Bangla Bazar,"1218 State St, Bridgeport, CT 06605, USA",(203) 338-0623,https://www.facebook.com/share/19vmsj26Ke/?mibextid=wwXIfr,41.1713475,-73.2068769,4.3,50.0,ChIJn0rKxj8O6IkRc2JxvwCkPM0,"grocery_or_supermarket, food, point_of_interest, store, establishment"
"Shelton, CT",indian grocery,retail,445110,Amin Mini Mart,"Hamden, CT 06514, USA",(203) 889-2108,,41.3446603,-72.9345759,4.0,34.0,ChIJvfxBvTnZ54kRQLcn7iCSysg,"grocery_or_supermarket, food, point_of_interest, store, establishment"
"Shelton, CT",indian grocery,retail,445110,Food Bazaar Fairfield,"2145 Fairfield Ave, Bridgeport, CT 06606, USA",(475) 225-8262,https://shop.foodbazaar.com/,41.1638741,-73.21785790000001,4.2,145.0,ChIJC1UQGa4P6IkR7h-xozxtNho,"supermarket, grocery_or_supermarket, food, point_of_interest, store, establishment"
"Shelton, CT",indian grocery,retail,445110,Al Haramain Market,"254 Bull Hill Ln, Orange, CT 06477, USA",(203) 553-9646,,41.2738642,-72.98837759999999,4.5,128.0,ChIJAekqbAF26IkRVzCKUizdrcs,"grocery_or_supermarket, food, point_of_interest, store, establishment"
"Shelton, CT",indian grocery,retail,445110,Swadesh Supermarket & Halal Meat,"1919 N Broad St, Meriden, CT 06450, USA",(475) 775-5863,,41.5694236,-72.771739,4.5,43.0,ChIJCRocrlS154kRPelIvQhY-MI,"grocery_or_supermarket, food, point_of_interest, store, establishment"
"Shelton, CT",indian grocery,retail,445110,K & J Grocery Store,"1012 Grand St, Bridgeport, CT 06604, USA",(203) 330-5735,,41.1823293,-73.202721,3.6,31.0,ChIJxzlDLGYO6IkRCU3DIt-S5z0,"grocery_or_supermarket, food, point_of_interest, store, establishment"
"Shelton, CT",indian grocery,retail,445110,Edge of the Woods Market,"379 Whalley Ave, New Haven, CT 06511, USA",(203) 787-1055,http://www.eotwm.com/,41.3179634,-72.9454432,4.5,397.0,ChIJE0PeGajZ54kRRV54mmt-lVY,"grocery_or_supermarket, bakery, clothing_store, health, restaurant, food, point_of_interest, store, establishment"
"Shelton, CT",retail food,retail,445110,New Morning Market & Vitality Center,"129 Main St N, Woodbury, CT 06798, USA",(203) 263-4868,http://www.newmorn.com/,41.554837,-73.203762,4.6,694.0,ChIJQREsXb7u54kR7DLsITaOWME,"grocery_or_supermarket, cafe, supermarket, spa, health, food, point_of_interest, store, establishment"
"Shelton, CT",retail food,retail,445110,New Britain Market Place,"37 Broad St, New Britain, CT 06053, USA",(860) 612-0200,,41.6735289,-72.7847972,4.5,44.0,ChIJeQp1yzSy54kR-GEpxx50QAs,"grocery_or_supermarket, food, point_of_interest, store, establishment"
"Shelton, CT",retail food,retail,445110,"Grade A Markets- Newfield Ave.- Stamford, CT","563 Newfield Ave, Stamford, CT 06905, USA",(203) 356-1662,https://www.shoprite.com/?utm_source=GMB&utm_medium=Local_Search&utm_campaign=dbaPlatform&utm_term=391,41.0799107,-73.53300759999999,4.4,587.0,ChIJ_wQ7O6KhwokRV0T_E-8dZn8,"grocery_or_supermarket, supermarket, bakery, food, point_of_interest, store, establishment"
"Shelton, CT",retail food,retail,445110,Whitneyville Food Center,"1248 Whitney Ave, Hamden, CT 06517, USA",(203) 248-4471,https://www.whitneyvillefood.com/,41.3465052,-72.9128755,4.6,203.0,ChIJw9HZ8Rza54kRaau4B-cQBRo,"grocery_or_supermarket, food, point_of_interest, store, establishment"
"Shelton, CT",retail food,retail,445110,Big Y World Class Market,"85 Bridge St, Naugatuck, CT 06770, USA",(203) 729-4124,https://www.bigy.com/rs/store-locator/85-bridge-street-rt-68/32?utm_source=google&utm_medium=googlemybusiness&utm_campaign=organicsearch&utm_term=sr-dec-06-23&utm_content=awareness-gmbprofile-32,41.50016859999999,-73.053158,4.3,1507.0,ChIJawE5ATjC54kRpXKSPj1smJc,"grocery_or_supermarket, supermarket, food, point_of_interest, store, establishment"
"Shelton, CT",retail food,retail,445110,Tops Marketplace,"887 Meriden-Waterbury Turnpike, Plantsville, CT 06479, USA",(860) 621-5837,http://www.topsmarketplace.com/,41.5633182,-72.8745323,4.4,206.0,ChIJvxH_hyLI54kR7iBTE6KktR8,"supermarket, meal_takeaway, grocery_or_supermarket, bakery, restaurant, food, point_of_interest, store, establishment"
"Shelton, CT",retail food,retail,445110,Connecticut Fresh Food & Produce Market,"920 S Colony Rd, Wallingford, CT 06492, USA",(203) 234-2162,http://ctfreshfoodandproduce.com/,41.4353453,-72.8326587,4.5,677.0,ChIJlTga8S_O54kRZ8uEknEq9L4,"supermarket, grocery_or_supermarket, food, point_of_interest, store, establishment"
"Shelton, CT",retail food,retail,445110,IGA Westside Marketplace,"887 Cromwell Ave, Rocky Hill, CT 06067, USA",(860) 529-2200,https://www.west-side-market.com/,41.6464798,-72.6789943,4.6,743.0,ChIJLe_ZQ-9M5okRkbVgcZgd5uc,"grocery_or_supermarket, supermarket, food, point_of_interest, store, establishment"
"Shelton, CT",retail food,retail,445110,LC Cash & Carry,"301 Food Terminal Plaza, New Haven, CT 06511, USA",(203) 773-3486,http://lcfinefoods.com/,41.2941818,-72.9218215,4.7,54.0,ChIJ5XIjZTjY54kRbNVE0Wim_Wo,"grocery_or_supermarket, food, point_of_interest, store, establishment"
"Shelton, CT",retail food,retail,445110,Angelo's Market,"349 W Main St, New Britain, CT 06052, USA",(860) 223-7340,https://www.angelosmarket.com/,41.6658098,-72.7932999,4.7,410.0,ChIJeytdENCz54kRSNI_aY3-7kI,"grocery_or_supermarket, bakery, food, point_of_interest, store, establishment"
"Shelton, CT",retail food,retail,445110,Southbury Green,"775 Main St S, Southbury, CT 06488, USA",(203) 635-5560,https://www.southburygreenct.com/,41.4628515,-73.2300326,4.5,1003.0,ChIJ4_OT3Xjl54kRC-_YsjXAg3o,"shopping_mall, grocery_or_supermarket, restaurant, food, point_of_interest, store, establishment"
"Shelton, CT",retail food,retail,,Restaurant Depot,"181 Marsh Hill Rd, Orange, CT 06477, USA",(203) 795-9900,https://www.restaurantdepot.com/?utm_source=listings&utm_medium=search&utm_campaign=traffic-tracking&utm_content=East-Coast&utm_term=571-NEW-ENGLAND,41.2595878,-72.99863119999999,3.8,485.0,ChIJeb0hFtx16IkRN5jlWkBBUIk,"food, point_of_interest, establishment"
"Shelton, CT",retail food,retail,445110,Atticus Market,"771 Orange St, New Haven, CT 06511, USA",(475) 261-4133,https://atticusnhv.com/,41.3213321,-72.9118526,4.6,232.0,ChIJRZYMvJXZ54kRncwBqoEk9jk,"cafe, meal_takeaway, grocery_or_supermarket, bakery, restaurant, food, point_of_interest, store, establishment"
"Shelton, CT",retail food,retail,445110,Trader Joe's,"400 Post Rd E, Westport, CT 06880, USA",(203) 226-8966,https://locations.traderjoes.com/ct/westport/521/?utm_source=gmb&utm_medium=organic&utm_campaign=local,41.1398314,-73.3519089,4.7,533.0,ChIJo4K4DXQb6IkRcl_TeIhV6cs,"grocery_or_supermarket, supermarket, health, food, point_of_interest, store, establishment"
"Shelton, CT",retail food,retail,445110,Old Kings Market,"25 Old Kings Hwy S, Darien, CT 06820, USA",(203) 863-8200,https://www.regencycenters.com/property/detail/70002/Old-Kings-Market,41.0785816,-73.4654845,4.3,288.0,ChIJv2K7BpKhwokRRmxnN-lcsng,"shopping_mall, grocery_or_supermarket, store, restaurant, point_of_interest, food, establishment"
"Shelton, CT",retail food,retail,445110,Good Nature Market,"44 Whitney Ave, New Haven, CT 06510, USA",(203) 776-0400,https://theshopsatyale.com/listings/good-nature-market/,41.3117719,-72.9223037,3.2,81.0,ChIJHZryH7bZ54kRj7kOqaxaeBs,"grocery_or_supermarket, store, point_of_interest, food, establishment"
"Shelton, CT",retail food,retail,445110,Liuzzi Gourmet Food Market,"322 State St, North Haven, CT 06473, USA",(203) 248-4356,https://www.liuzzimarket.com/,41.3718462,-72.88623299999999,4.8,1027.0,ChIJW08lcI_Q54kRoFBF9lf1NQM,"grocery_or_supermarket, store, point_of_interest, food, establishment"
"Shelton, CT",retail food,retail,445110,C & S Grocery,"81 Woodward Ave, Norwalk, CT 06854, USA",(203) 838-6198,,41.0896311,-73.41596489999999,4.6,122.0,ChIJ0_aaT4oe6IkRuuo4vjr2HUw,"grocery_or_supermarket, supermarket, store, point_of_interest, food, establishment"
"Shelton, CT",retail food,retail,445110,Trader Joe's,"1041 High Ridge Rd, Stamford, CT 06905, USA",(203) 321-8440,https://locations.traderjoes.com/ct/stamford/529/?utm_source=gmb&utm_medium=organic&utm_campaign=local,41.1068964,-73.5473117,4.6,1522.0,ChIJxScXtUKhwokR2Zj6bw9e0mg,"grocery_or_supermarket, supermarket, health, store, point_of_interest, food, establishment"
"Shelton, CT",retail food,retail,445120,Food Market Inc,"538 Whalley Ave, New Haven, CT 06511, USA",(203) 397-1485,,41.3200769,-72.9510481,4.2,40.0,ChIJ7QbspgjZ54kRvkO9szmz6YY,"convenience_store, grocery_or_supermarket, store, point_of_interest, food, establishment"
"Shelton, CT",retail food,retail,445110,Trader Joe's,"436 Boston Post Rd, Darien, CT 06820, USA",(203) 656-1414,https://locations.traderjoes.com/ct/darien/522/?utm_source=gmb&utm_medium=organic&utm_campaign=local,41.084439,-73.46172949999999,4.7,1019.0,ChIJVRHytSce6IkRbekYVex3kEc,"grocery_or_supermarket, supermarket, health, store, point_of_interest, food, establishment"
"Shelton, CT",retail food,retail,445110,Price Rite Marketplace of Hamden,"1869 Dixwell Ave, Hamden, CT 06514, USA",(203) 281-0036,https://www.priceritemarketplace.com/,41.3627855,-72.9219588,4.3,986.0,ChIJaW51YhXa54kR4KNmHCFrfqA,"grocery_or_supermarket, bakery, supermarket, store, point_of_interest, food, establishment"
"Shelton, CT",retail food,retail,445120,Shops Smart Food Market,"284 Putnam St, New Haven, CT 06519, USA",(203) 498-2382,,41.2947804,-72.937902,4.5,12.0,ChIJG5C0olvY54kRmxirNodAIFw,"convenience_store, grocery_or_supermarket, store, point_of_interest, food, establishment"
"Shelton, CT",retail food,retail,445110,The Northford Store,"1405 Middletown Ave, Northford, CT 06472, USA",(203) 484-1175,,41.3931058,-72.7912055,4.4,96.0,ChIJZ5g94Q_S54kRy0Bp2eriU-M,"grocery_or_supermarket, store, point_of_interest, food, establishment"
"Shelton, CT",retail food,retail,,Hamden Mart,"2340 Dixwell Ave &, Skiff St, Hamden, CT 06514, USA",(833) 800-4343,https://www.kimcorealty.com/properties/grove-gate-sc/101290/view,41.3730518,-72.9179149,4.2,2557.0,ChIJVUWYxGXa54kRh6iBhL9z6rI,"shopping_mall, point_of_interest, establishment"
"Shelton, CT",retail food,retail,445120,Eddy's Food Center,"276 Howard Ave, New Haven, CT 06519, USA",(203) 787-2339,,41.288776,-72.9320777,4.0,30.0,ChIJOzvli0LY54kR2ThgrTnxKBg,"convenience_store, store, point_of_interest, food, establishment"
"Shelton, CT",retail food,retail,445110,Country Food Market,"2215 State St, Hamden, CT 06517, USA",(203) 865-8834,,41.3416229,-72.89533759999999,4.6,204.0,ChIJL-haIavQ54kRnk2aUFxm_yA,"grocery_or_supermarket, store, point_of_interest, food, establishment"
"Shelton, CT",retail food,retail,,Food Fare & Market,"1064 E Broadway, Milford, CT 06460, USA",(203) 878-1551,,41.2109439,-73.0556514,4.8,30.0,ChIJhSZwqZ106IkREXFJSoVPPIo,"point_of_interest, establishment"
"Shelton, CT",retail food,retail,445110,Stop & Shop,"25 CT-39, New Fairfield, CT 06812, USA",(203) 312-0482,https://stores.stopandshop.com/ct/new-fairfield/25-state-route-39?y_source=1_NDE5NTUzMC03MTUtbG9jYXRpb24ud2Vic2l0ZQ%3D%3D,41.4685598,-73.4845176,4.0,408.0,ChIJ8wYH5-lY3YkRFLhK-m3OaoA,"grocery_or_supermarket, store, point_of_interest, food, establishment"
"Shelton, CT",retail food,retail,445110,Copps Hill Plaza,"125 Danbury Rd, Ridgefield, CT 06877, USA",(203) 635-5560,https://www.regencycenters.com/property/detail/80033/Copps-Hill-Plaza,41.2950982,-73.4941315,4.3,434.0,ChIJb20LmnurwokRXtJbV0chJy0,"shopping_mall, grocery_or_supermarket, store, restaurant, point_of_interest, food, establishment"
"Shelton, CT",retail food,retail,445110,Fairfield Center,"1499 Post Rd, Fairfield, CT 06825, USA",(203) 635-5560,https://www.regencycenters.com/property/detail/60712/fairfield-center,41.1407159,-73.25810729999999,4.5,253.0,ChIJbQIAUWsQ6IkRRZ_VkjAL_x0,"shopping_mall, grocery_or_supermarket, store, restaurant, point_of_interest, food, establishment"
"Shelton, CT",retail food,retail,,Sam's Food Stores,"665 Campbell Ave, West Haven, CT 06516, USA",(203) 937-5107,https://samsfoodstores.com/,41.27625889999999,-72.95279630000002,3.5,53.0,ChIJkdBE9oPY54kRVV5Oe_S97PE,"point_of_interest, store, establishment"
"Shelton, CT",retail food,retail,445110,Shelton Square,"858 Bridgeport Ave, Shelton, CT 06484, USA",(203) 863-8200,https://www.regencycenters.com/property/detail/70021/Shelton-Square,41.26407529999999,-73.1310534,4.7,10.0,ChIJry4DaYQL6IkRPx8pXix_rkg,"shopping_mall, grocery_or_supermarket, restaurant, food, point_of_interest, store, establishment"
"Shelton, CT",retail food,retail,445120,Dux Market,"1361 Chapel St, New Haven, CT 06511, USA",(203) 776-8496,,41.3105285,-72.9404053,3.8,39.0,ChIJkUutfavZ54kRmAKiDBFnyvg,"convenience_store, food, point_of_interest, store, establishment"
"Shelton, CT",retail food,retail,445110,Orange Meadows,"550-560 Boston Post Rd, Orange, CT 06477, USA",(203) 863-8200,https://www.regencycenters.com/property/detail/70017/Orange-Meadows,41.25104779999999,-73.01928889999999,4.3,80.0,ChIJj5EQLJx16IkRYIej7T1ERKc,"shopping_mall, grocery_or_supermarket, restaurant, food, point_of_interest, store, establishment"
"Shelton, CT",retail food,retail,445120,Quinnipiac food mart & deli,"1653 Quinnipiac Ave, New Haven, CT 06513, USA",(203) 903-5407,,41.3310346,-72.86751,5.0,42.0,ChIJqeGLOQHX54kRxc_p_1TWxLU,"convenience_store, food, point_of_interest, store, establishment"
"Shelton, CT",retail food,retail,445110,Corner Market,"177 Ferry St, New Haven, CT 06513, USA",,,41.3046852,-72.89445409999999,4.0,13.0,ChIJU1Qy6H7X54kR-XZb41k2s-E,"grocery_or_supermarket, food, point_of_interest, store, establishment"
"Shelton, CT",retail food,retail,445110,Veterans Plaza,"1 Kent Rd, New Milford, CT 06776, USA",(203) 863-8200,https://www.regencycenters.com/property/detail/70016/Veterans-Plaza,41.5743164,-73.4198373,4.5,75.0,ChIJ-am4bJ_354kRIa36_-5rEhI,"shopping_mall, grocery_or_supermarket, restaurant, food, point_of_interest, store, establishment"
"Shelton, CT",retail food,retail,445110,Post Road Plaza,"430 Boston Post Rd, Darien, CT 06820, USA",(203) 635-5560,https://www.regencycenters.com/property/detail/80064/Post-Road-Plaza,41.0845288,-73.46165739999999,4.3,294.0,ChIJp-GH6mMf6IkRfPIMfolzRVU,"shopping_mall, grocery_or_supermarket, restaurant, food, point_of_interest, store, establishment"
"Shelton, CT",retail food,retail,,Big Josh Retail Store,"449 W Main St, Waterbury, CT 06702, USA",(203) 527-4679,,41.55788709999999,-73.0486215,4.1,13.0,ChIJ6zqDhv_B54kR5kpLs076vaU,"point_of_interest, store, establishment"
"Shelton, CT",retail food,retail,445110,New Milford Plaza,"164-168 Danbury Rd, New Milford, CT 06776, USA",(203) 863-8200,https://www.regencycenters.com/property/detail/70015/New-Milford-Plaza,41.5510159,-73.4180092,4.2,1008.0,ChIJkZ5LT1_254kRF_cDTkb6DHA,"shopping_mall, grocery_or_supermarket, restaurant, food, point_of_interest, store, establishment"
"Shelton, CT",retail food,retail,445110,Sunny Valley Shops,"116-124 Danbury Rd, New Milford, CT 06776, USA",(203) 863-8200,https://www.regencycenters.com/property/detail/70014/Sunny-Valley-Shops,41.5573829,-73.418376,4.5,4.0,ChIJ2VtNMdz354kRHzzLEAFqNXM,"shopping_mall, grocery_or_supermarket, restaurant, food, point_of_interest, store, establishment"
"Shelton, CT",retail food,retail,445110,High Ridge Center,"1041-1145 High Ridge Rd, Stamford, CT 06905, USA",(203) 863-8200,https://www.regencycenters.com/property/detail/70200/High-Ridge-Center,41.1068964,-73.5473117,4.7,40.0,ChIJseZx9rShwokRwOz-rPME8kU,"shopping_mall, grocery_or_supermarket, restaurant, food, point_of_interest, store, establishment"
"Shelton, CT",retail food,retail,445110,Minute Mart,"280 Circular Ave, Hamden, CT 06514, USA",(203) 288-9512,,41.3538009,-72.9365455,4.1,58.0,ChIJA_WgBS_a54kRLJpYqJRI00M,"supermarket, atm, grocery_or_supermarket, finance, food, point_of_interest, store, establishment"
"Shelton, CT",retail food,retail,445120,SQUARE NEWS & CONVENIENCE,"97 Atlantic St, Stamford, CT 06901, USA",(203) 428-6020,http://harmanparhar87.wixsite.com/square-news,41.0539276,-73.53957609999999,4.9,10.0,ChIJtTU8T-ahwokRw2GhSKcup2I,"convenience_store, food, point_of_interest, store, establishment"
"Shelton, CT",retail food,retail,445110,New Haven Grocery & More,"New Haven, CT 06511, USA",,,41.3191794,-72.89916579999999,3.9,44.0,ChIJH44xf9_Z54kRdSu-zvr19CU,"grocery_or_supermarket, food, point_of_interest, store, establishment"
"Shelton, CT",retail food,retail,,Berkshire Shopping Center,"67 Newtown Rd, Danbury, CT 06810, USA",,,41.4071249,-73.4158751,4.2,1953.0,ChIJPfuiudn-54kRgsS7Qm17vF0,"shopping_mall, point_of_interest, establishment"
"Shelton, CT",retail food,retail,445110,Orange Mart & Deli,"661 Orange Center Rd, Orange, CT 06477, USA",(203) 298-4702,,41.28182109999999,-73.0278436,4.4,38.0,ChIJ1xqFEYh16IkRai92SE9ML2g,"grocery_or_supermarket, food, point_of_interest, store, establishment"
"Shelton, CT",retail food,retail,445110,Nino's Market,"521 Ferry St, New Haven, CT 06513, USA",(203) 907-0096,,41.3139672,-72.8965549,4.2,31.0,ChIJE3Ib-GLX54kR3KzmEIQxQ_s,"grocery_or_supermarket, food, point_of_interest, store, establishment"
"Shelton, CT",retail food,retail,445110,Valley Mart LLC,"589 Valley St, New Haven, CT 06515, USA",(203) 691-8201,,41.33863059999999,-72.9733028,4.3,51.0,ChIJdyF6z0PZ54kRKy9sE9rPoDg,"supermarket, grocery_or_supermarket, food, point_of_interest, store, establishment"
"Shelton, CT",retail food,retail,445110,Gateway Food Store,"55 Church St, New Haven, CT 06510, USA",(475) 238-8766,,41.3051931,-72.9260567,3.8,20.0,ChIJ-7D_EkvY54kRpT-T1Ubi7C4,"grocery_or_supermarket, food, point_of_interest, store, establishment"
"Shelton, CT",clothing store,retail,448140,Burlington,"800 Barnum Avenue Cutoff, Stratford, CT 06614, USA",(203) 377-1166,https://stores.burlington.com/ct/stratford/22/?utm_source=google&utm_medium=organic&utm_campaign=maps,41.1995562,-73.12814089999999,4.0,1097.0,ChIJY-X_ZvMM6IkRnHwKnfoHzv0,"clothing_store, department_store, home_goods_store, point_of_interest, jewelry_store, store, establishment"
"Shelton, CT",clothing store,retail,448140,Old Navy,"2175 Summer St, Stamford, CT 06905, USA",(203) 325-4088,https://oldnavy.gap.com/stores/ct/stamford/oldnavy-5899.html,41.0673142,-73.5451023,4.0,281.0,ChIJY0T6xpKhwokRRN9WrDzoV2Q,"clothing_store, point_of_interest, store, establishment"
"Shelton, CT",clothing store,retail,448140,Citi Trends,"1245 Dixwell Ave, Hamden, CT 06514, USA",(475) 282-0881,https://locations.cititrends.com/ct/hamden/1245-dixwell-avenue.html,41.34652,-72.9318898,4.4,224.0,ChIJhWFQkCfa54kRHFYGKL_YlHQ,"clothing_store, shoe_store, point_of_interest, store, establishment"
"Shelton, CT",clothing store,retail,452210,Marshalls,"4487 Main St, Bridgeport, CT 06606, USA",(203) 374-9651,https://www.marshalls.com/,41.219984,-73.21878699999999,4.3,718.0,ChIJwxPF08QO6IkREtwfCIOlmj8,"department_store, clothing_store, point_of_interest, store, establishment"
"Shelton, CT",clothing store,retail,448140,Burlington,"2135-2715 Summer St, Stamford, CT 06905, USA",(203) 363-0450,https://stores.burlington.com/ct/stamford/445/?utm_source=google&utm_medium=organic&utm_campaign=maps,41.0668959,-73.5453782,3.7,623.0,ChIJsWzvH-ahwokR9R-4RAlCauA,"clothing_store, department_store, home_goods_store, point_of_interest, jewelry_store, store, establishment"
"Shelton, CT",clothing store,retail,452210,Marshalls,"2235 Summer St, Stamford, CT 06905, USA",(203) 356-9667,https://www.marshalls.com/,41.0678999,-73.5453508,4.2,613.0,ChIJY0T6xpKhwokRMpk9XfGxZy0,"department_store, clothing_store, point_of_interest, store, establishment"
"Shelton, CT",clothing store,retail,448140,Old Navy,"100 Main St N, Southbury, CT 06488, USA",(203) 267-9135,https://oldnavy.gap.com/stores/ct/southbury/oldnavy-1408.html,41.4783518,-73.2110098,3.7,68.0,ChIJD3Xi3nvv54kRcr__GJuGB68,"clothing_store, point_of_interest, store, establishment"
"Shelton, CT",clothing store,retail,448140,Citi Trends,"650 Wolcott St Unit# 60, Waterbury, CT 06705, USA",(475) 282-1889,https://locations.cititrends.com/ct/waterbury/650-wolcott-street.html,41.5586586,-73.0104708,4.2,125.0,ChIJ0RSHDNzA54kRwQYjuydNmAU,"clothing_store, shoe_store, point_of_interest, store, establishment"
"Shelton, CT",clothing store,retail,452210,Marshalls,"282 New Britain Ave, Plainville, CT 06062, USA",(860) 747-5222,https://www.marshalls.com/,41.6730656,-72.838262,4.3,573.0,ChIJ6Vuq8gWx54kR-VkuSbbtTFE,"department_store, clothing_store, point_of_interest, store, establishment"
"Shelton, CT",clothing store,retail,448140,Old Navy,"2215 Black Rock Tpke, Fairfield, CT 06825, USA",(203) 338-9663,https://oldnavy.gap.com/stores/ct/fairfield/oldnavy-6181.html,41.18137189999999,-73.2539601,4.1,152.0,ChIJkwrKf5UP6IkRR5wKXPCJvCU,"clothing_store, point_of_interest, store, establishment"
"Shelton, CT",clothing store,retail,452210,Marshalls,"2100 Dixwell Ave, Hamden, CT 06514, USA",(203) 281-7580,https://www.marshalls.com/,41.370239,-72.92184999999999,4.3,514.0,ChIJh2xM62na54kRfdffqKpyy2M,"department_store, clothing_store, point_of_interest, store, establishment"
"Shelton, CT",clothing store,retail,448140,Burlington,"1 Padanaram Rd, Danbury, CT 06811, USA",(203) 748-8583,https://stores.burlington.com/ct/danbury/126/?utm_source=google&utm_medium=organic&utm_campaign=maps,41.41346360000001,-73.4563675,4.0,351.0,ChIJKanJrlv_54kRzp5d5v-rjb4,"clothing_store, department_store, home_goods_store, point_of_interest, jewelry_store, store, establishment"
"Shelton, CT",clothing store,retail,448140,Burlington,"533 S Broad St, Meriden, CT 06450, USA",(203) 630-0647,https://stores.burlington.com/ct/meriden/379/?utm_source=google&utm_medium=organic&utm_campaign=maps,41.5084877,-72.80588530000001,4.2,358.0,ChIJ15d2uWPJ54kRRLS0y4y0OHU,"clothing_store, department_store, home_goods_store, point_of_interest, jewelry_store, store, establishment"
"Shelton, CT",clothing store,retail,452210,Marshalls,"416 E Main St, Middletown, CT 06457, USA",(860) 638-1237,https://www.marshalls.com/,41.5464016,-72.63727659999999,4.2,562.0,ChIJ_1HJyhJK5okRms53Iv5HVhM,"department_store, clothing_store, point_of_interest, store, establishment"
"Shelton, CT",clothing store,retail,452210,Marshalls,"1141 Main St, Watertown, CT 06795, USA",(860) 274-5481,https://www.marshalls.com/,41.59492710000001,-73.1089872,4.2,653.0,ChIJR1F_7Ljq54kR0-3EyjhcdZ8,"department_store, clothing_store, point_of_interest, store, establishment"
"Shelton, CT",clothing store,retail,448140,K&G Fashion Superstore,"80 Boston Post Rd #19, Orange, CT 06477, USA",(203) 795-3757,https://www.kgstores.com/kg/store/get/216?utm_source=google&utm_medium=listing&utm_content=216&utm_campaign=CT,41.2771568,-72.9869918,4.2,313.0,ChIJ9wHADarY54kRBXdvvu52Noc,"clothing_store, shoe_store, point_of_interest, store, establishment"
"Shelton, CT",clothing store,retail,452210,Marshalls,"700 Post Rd, Fairfield, CT 06824, USA",(203) 319-1044,https://www.marshalls.com/,41.1490819,-73.24772229999999,4.4,622.0,ChIJFVTLqzwQ6IkRrQhm5m6DAU4,"department_store, clothing_store, point_of_interest, store, establishment"
"Shelton, CT",clothing store,retail,448140,Old Navy,"1212 Boston Post Rd, Milford, CT 06460, USA",(203) 951-6711,https://oldnavy.gap.com/stores/ct/milford/oldnavy-5312.html,41.2370364,-73.0392979,4.2,375.0,ChIJd1RL61d06IkRDp0ie0agUY8,"clothing_store, point_of_interest, store, establishment"
"Shelton, CT",clothing store,retail,448210,Rainbow Shops,"220 E Main St, New Britain, CT 06051, USA",(860) 200-4435,https://stores.rainbowshops.com/ct/new-britain/858/?utm_source=G&utm_medium=lpm&utm_campaign=RainbowShops,41.6714509,-72.7772464,4.1,132.0,ChIJX1spgMqz54kRNwhIgV5sqQQ,"shoe_store, clothing_store, point_of_interest, jewelry_store, store, establishment"
"Shelton, CT",clothing store,retail,448140,Primark,"Fair Mall, 7 Backus Ave, Danbury, CT 06810, USA",(203) 730-6642,https://www.primark.com/en-us/stores/danbury-ct/danbury-fair-mall?y_source=1_ODU3OTU5MC03MTUtbG9jYXRpb24ud2Vic2l0ZQ==,41.379313,-73.482799,4.6,2516.0,ChIJRyfKwnFV3YkRDS8gBRGIJtM,"clothing_store, department_store, point_of_interest, store, establishment"
"Shelton, CT",clothing store,retail,452210,T.J. Maxx,"425 Tunxis Hill Cut Off, Fairfield, CT 06825, USA",(203) 334-3341,https://tjmaxx.tjx.com/store/index.jsp,41.1778697,-73.2397797,4.3,729.0,ChIJ6879YLUP6IkRUIwOcGE2lo0,"department_store, clothing_store, point_of_interest, jewelry_store, store, establishment"
"Shelton, CT",clothing store,retail,448140,J.Crew,"29 Broadway, New Haven, CT 06511, USA",(203) 624-7101,https://stores.jcrew.com/us/ct/new-haven/29-broadway,41.3113232,-72.9304641,4.0,58.0,ChIJD9a12rPZ54kRS-y_v-CUIGs,"clothing_store, shoe_store, point_of_interest, store, establishment"
"Shelton, CT",clothing store,retail,448140,Burlington,"2300 Dixwell Ave Unit BC, Hamden, CT 06514, USA",(203) 230-0706,https://stores.burlington.com/ct/hamden/1036/?utm_source=google&utm_medium=organic&utm_campaign=maps,41.3722222,-72.91982810000002,4.0,254.0,ChIJuSPPWGja54kRHKNQ9D7UVRA,"clothing_store, department_store, home_goods_store, point_of_interest, jewelry_store, store, establishment"
"Shelton, CT",clothing store,retail,452210,T.J. Maxx,"875 Queen St, Southington, CT 06489, USA",(860) 621-7424,https://tjmaxx.tjx.com/store/index.jsp,41.6406965,-72.8725863,4.2,556.0,ChIJP8j2IEi354kR1V36TCI9Sq8,"department_store, clothing_store, point_of_interest, jewelry_store, store, establishment"
"Shelton, CT",clothing store,retail,448140,Gap Factory,"2165 Dixwell Ave, Hamden, CT 06514, USA",(203) 587-7758,https://www.gap.com/stores/ct/hamden/gap-3066.html,41.3689994,-72.9181976,3.9,56.0,ChIJfXNAaGna54kRG2TW1pnaJVA,"clothing_store, point_of_interest, store, establishment"
"Shelton, CT",clothing store,retail,448140,Urban Outfitters,"43 Broadway, New Haven, CT 06511, USA",(203) 776-7444,https://www.urbanoutfitters.com/stores/new-haven?utm_medium=organic&utm_source=google&utm_campaign=local&utm_content=44,41.3114896,-72.93069129999999,4.1,136.0,ChIJbajy0LPZ54kRcaNvT9bZsZ0,"clothing_store, shoe_store, home_goods_store, point_of_interest, store, establishment"
"Shelton, CT",clothing store,retail,452210,Marshalls,"79 Newtown Rd, Danbury, CT 06810, USA",(203) 794-1211,https://www.marshalls.com/,41.409111,-73.41296,4.3,598.0,ChIJO_BEFdf-54kRW9W5BsWfvWk,"department_store, clothing_store, point_of_interest, store, establishment"
"Shelton, CT",clothing store,retail,452210,T.J. Maxx,"169 Danbury Rd, New Milford, CT 06776, USA",(860) 350-0506,https://tjmaxx.tjx.com/store/index.jsp,41.550761,-73.41489109999999,4.3,308.0,ChIJ7esppYr254kRN2ToEXU0-nY,"department_store, clothing_store, point_of_interest, jewelry_store, store, establishment"
"Shelton, CT",clothing store,retail,448140,Windsor,"5065 Main St #2111, Trumbull, CT 06611, USA",(888) 495-4957,https://www.windsorstore.com/pages/ct-trumbull-westfield-trumbull,41.2292919,-73.2273482,3.8,51.0,ChIJq_F7edYO6IkRe4GCbNLX3xA,"clothing_store, shoe_store, point_of_interest, jewelry_store, store, establishment"
"Shelton, CT",clothing store,retail,448210,Rainbow Shops,"1201 Boston Post Rd, Milford, CT 06460, USA",(203) 767-9445,https://stores.rainbowshops.com/ct/milford/544/?utm_source=G&utm_medium=lpm&utm_campaign=RainbowShops,41.2354865,-73.03649589999999,4.2,84.0,ChIJveLDRFd06IkRl14SN4IP-WM,"shoe_store, clothing_store, point_of_interest, jewelry_store, store, establishment"
"Shelton, CT",clothing store,retail,448140,Express,"7 Backus Ave F104, Danbury, CT 06810, USA",(203) 790-6513,https://stores.express.com/us/ct/danbury/7-backus-ave?CID=Yext,41.38074599999999,-73.4801635,3.9,47.0,ChIJo8UwlXpV3YkRcl-0rdkxZ6o,"clothing_store, point_of_interest, store, establishment"
"Shelton, CT",clothing store,retail,452210,T.J. Maxx,"330 Connecticut Ave, Norwalk, CT 06854, USA",(203) 854-9890,https://tjmaxx.tjx.com/store/index.jsp,41.1030344,-73.4383465,4.3,789.0,ChIJAalatHMe6IkRMvFXiy2GdMU,"department_store, clothing_store, point_of_interest, jewelry_store, store, establishment"
"Shelton, CT",clothing store,retail,448140,Fred,"30 Post Rd E 2nd floor, Westport, CT 06880, USA",(203) 349-5167,http://www.thefredshop.com/,41.1410815,-73.3615916,3.5,11.0,ChIJxYU1mXkb6IkRp8cAGMQEdoU,"clothing_store, point_of_interest, jewelry_store, store, establishment"
"Shelton, CT",clothing store,retail,448140,Mitchells,"670 Post Rd E, Westport, CT 06880, USA",(203) 227-5165,http://www.mitchells.com/,41.1378183,-73.3433223,4.5,92.0,ChIJm7KtwQsb6IkRpPymXTYs8jE,"clothing_store, department_store, point_of_interest, jewelry_store, store, establishment"
"Shelton, CT",clothing store,retail,448140,J.Crew,"27 Main St, Westport, CT 06880, USA",(203) 226-6502,https://stores.jcrew.com/us/ct/westport/27-main-street,41.1417468,-73.3617494,4.1,50.0,ChIJKZIPS3ob6IkRbVv5D2orNFQ,"clothing_store, shoe_store, point_of_interest, store, establishment"
"Shelton, CT",clothing store,retail,448140,H&M,"100 N Water St, Norwalk, CT 06854, USA",(855) 466-7467,https://www2.hm.com/en_us/customer-service/shopping-at-hm/store-locator/usa/norwalk/hm-the-sono-collection/US0717.html?utm_source=google_location&utm_medium=organic&utm_content=US0717&utm_campaign=pi_USQ00AAU0AA004,41.1044388,-73.4186503,3.9,33.0,ChIJD9GFIkQf6IkR8U0HRIqyEsg,"clothing_store, point_of_interest, store, establishment"
"Shelton, CT",clothing store,retail,452210,T.J. Maxx,"943 Wolcott St U Ste 2, Waterbury, CT 06705, USA",(203) 756-0003,https://tjmaxx.tjx.com/store/index.jsp,41.5672961,-73.0094159,4.2,780.0,ChIJh9Q71MXA54kR6SD1qSRbGo0,"department_store, clothing_store, point_of_interest, jewelry_store, store, establishment"
"Shelton, CT",clothing store,retail,452210,Nordstrom,"100 N Water St Suite A, Norwalk, CT 06854, USA",(203) 642-2634,https://www.nordstrom.com/c/norwalk?utm_source=google&utm_medium=organic&utm_campaign=fls&utm_content=538&utm_channel=low_nd_seo_local&sp_source=google&sp_campaign=fls,41.1040939,-73.41875619999999,4.3,728.0,ChIJayYL6O0f6IkRZntz5EJRgSU,"department_store, shoe_store, clothing_store, point_of_interest, store, establishment"
"Shelton, CT",clothing store,retail,452210,Marshalls,"199 Highland Ave, Cheshire, CT 06410, USA",(203) 272-7248,https://www.marshalls.com/,41.5045166,-72.90183929999999,4.2,459.0,ChIJe5wN9ALG54kRNvABr_v3M64,"department_store, clothing_store, point_of_interest, store, establishment"
"Shelton, CT",clothing store,retail,448140,Saks OFF 5TH,"110 High Ridge Rd, Stamford, CT 06905, USA",(203) 388-0492,http://locations.saksoff5th.com/en/stamford,41.0752295,-73.55037469999999,3.9,242.0,ChIJC9xXVuahwokRyy38vXRAjbs,"clothing_store, shoe_store, point_of_interest, store, establishment"
"Shelton, CT",clothing store,retail,452210,Marshalls,"396 Westport Ave, Norwalk, CT 06851, USA",(203) 750-9660,https://www.marshalls.com/,41.125809,-73.3900949,4.3,594.0,ChIJbVbzwWsc6IkRsQV6Tr4pvMs,"department_store, clothing_store, point_of_interest, store, establishment"
"Shelton, CT",clothing store,retail,452210,T.J. Maxx,"2335 Dixwell Ave, Hamden, CT 06514, USA",(203) 288-8157,https://tjmaxx.tjx.com/store/index.jsp,41.3708931,-72.9152823,4.3,435.0,ChIJOxbzbG_a54kRV_GbH3vpVmw,"department_store, jewelry_store, clothing_store, point_of_interest, store, establishment"
"Shelton, CT",clothing store,retail,448140,Old Navy,"2335 Dixwell Ave Space D, Hamden, CT 06514, USA",(203) 230-1991,https://oldnavy.gap.com/stores/ct/hamden/oldnavy-5696.html,41.3717605,-72.9149108,4.0,227.0,ChIJOxbzbG_a54kRO5MMffqrwiY,"clothing_store, point_of_interest, store, establishment"
"Shelton, CT",clothing store,retail,452210,Marshalls,"1413 Boston Post Rd, Milford, CT 06460, USA",(203) 878-2382,https://www.marshalls.com/,41.238876,-73.02902499999999,4.3,525.0,ChIJd3LDAVN06IkRLz3nbcNmHe0,"department_store, clothing_store, point_of_interest, store, establishment"
"Shelton, CT",clothing store,retail,452210,Macy's,"5065 Main St Ste C, Trumbull, CT 06611, USA",(203) 374-7200,https://www.macys.com/stores/ct/trumbull/trumbull-mall_51.html,41.2293342,-73.22673530000002,4.2,1526.0,ChIJo6FI1dUO6IkRcTYCJJGvmrE,"department_store, clothing_store, point_of_interest, store, establishment"
"Shelton, CT",clothing store,retail,448140,Raggs,"1020 Chapel St, New Haven, CT 06510, USA",(203) 865-3824,https://raggsnewhaven.com/,41.3073509,-72.929216,4.4,25.0,ChIJG8drRbPZ54kRDekqOTFUu5Q,"clothing_store, shoe_store, point_of_interest, store, establishment"
"Shelton, CT",clothing store,retail,448140,Gap,"7 Backus Ave Suite H - 106, Danbury, CT 06810, USA",(203) 792-0650,https://www.gap.com/stores/ct/danbury/gap-9793.html,41.3805245,-73.4792472,4.1,90.0,ChIJ50saVmVV3YkRSAquKU1yq1o,"clothing_store, point_of_interest, store, establishment"
"Shelton, CT",clothing store,retail,448140,Madrag,"148 Boston Ave, Bridgeport, CT 06610, USA",(203) 335-0416,http://www.madrag.com/,41.20067299999999,-73.1877853,4.0,144.0,ChIJH1DEepwO6IkRT5S2pSL9uR0,"clothing_store, point_of_interest, store, establishment"
"Shelton, CT",clothing store,retail,448140,The Busted Tank® An Affordable Post Mastectomy Clothing Shop,"37 Main St, New Milford, CT 06776, USA",(860) 248-0010,http://bustedtank.com/?utm_source=google&utm_medium=wix_google_business_profile&utm_campaign=4473972198625936793,41.5781702,-73.41188319999999,4.8,52.0,ChIJofxndkn154kRM1nvoDiuPlQ,"clothing_store, point_of_interest, store, establishment"
"Shelton, CT",clothing store,retail,448210,JD Sports,"7 Backus Ave, Danbury, CT 06810, USA",(203) 744-6346,https://www.jdsports.com/?utm_source=googlemybusiness&utm_medium=organic,41.3797286,-73.482405,4.0,85.0,ChIJ4WdF-G9V3YkRkmRdHq-Q8i4,"shoe_store, clothing_store, point_of_interest, store, establishment"
"Shelton, CT",clothing store,retail,452210,Macy's,"1201 Boston Post Rd, Milford, CT 06460, USA",(203) 877-9393,https://www.macys.com/stores/ct/milford/connecticut-post-mall_116.html,41.2365484,-73.0361331,4.2,1827.0,ChIJZcvbLVh06IkRcarOzp3r5qg,"department_store, clothing_store, point_of_interest, store, establishment"
"Shelton, CT",clothing store,retail,448140,un·known,"18 Main St, New Britain, CT 06051, USA",(860) 357-2345,http://www.unknownclothing.us/,41.6646721,-72.7804495,4.9,26.0,ChIJf0OJBYaz54kR5tQdStMT6WI,"clothing_store, point_of_interest, store, establishment"
"Shelton, CT",clothing store,retail,448140,Old Navy,"500 Connecticut Ave, Norwalk, CT 06854, USA",(203) 842-5686,https://oldnavy.gap.com/stores/ct/norwalk/oldnavy-5685.html,41.0985519,-73.44474570000001,3.9,169.0,ChIJNQvW7hIe6IkRgiTz2a1_TFw,"clothing_store, point_of_interest, store, establishment"
"Shelton, CT",clothing store,retail,448140,Aéropostale,"495 Union St #1128, Waterbury, CT 06706, USA",(203) 759-1796,https://stores.aeropostale.com/ct/waterbury/495-union-street?utm_source=google&utm_medium=organic&utm_campaign=local,41.5488643,-73.0249851,4.5,59.0,ChIJw4ApjBrB54kRO_Uw5PjSJuw,"clothing_store, point_of_interest, store, establishment"
"Shelton, CT",clothing store,retail,452210,T.J. Maxx,"100 Main St N, Southbury, CT 06488, USA",(203) 267-3187,https://tjmaxx.tjx.com/store/index.jsp,41.4783518,-73.2110098,4.3,352.0,ChIJsQ6R527v54kR5K0f1zvFGok,"department_store, jewelry_store, clothing_store, point_of_interest, store, establishment"
"Shelton, CT",clothing store,retail,452210,T.J. Maxx,"14 Danbury Rd, Wilton, CT 06897, USA",(203) 834-7630,https://tjmaxx.tjx.com/store/index.jsp,41.1623159,-73.4176102,4.2,246.0,ChIJYT-1MR4d6IkRz9vZsajkveI,"department_store, jewelry_store, clothing_store, point_of_interest, store, establishment"
"Shelton, CT",clothing store,retail,448140,American Eagle,"7 Backus Ave G-210, Danbury, CT 06810, USA",(203) 791-0457,https://storelocations.ae.com/us/ct/danbury/00774-7-backus-avenue.html,41.380319,-73.480009,4.1,89.0,ChIJA5WA13FV3YkR-L8T1L321vk,"clothing_store, point_of_interest, store, establishment"
"Shelton, CT",clothing store,retail,448140,Old Navy,"282 New Britain Ave, Plainville, CT 06062, USA",(860) 517-8107,https://oldnavy.gap.com/stores/ct/plainville/oldnavy-6187.html,41.6730678,-72.8389734,4.2,285.0,ChIJ4xEfjQWx54kRqXbX2Fp6Ljc,"clothing_store, point_of_interest, store, establishment"
"Shelton, CT",clothing store,retail,448140,Kings Clothing,"1741 E Main St, Waterbury, CT 06705, USA",(203) 419-5209,,41.5456621,-73.0131035,4.4,8.0,ChIJ1VJQCCPB54kRK19SQXIQehM,"clothing_store, point_of_interest, store, establishment"
"Shelton, CT",clothing store,retail,448140,Burlington,"80 Boston Post Rd, Orange, CT 06477, USA",(203) 795-4634,https://stores.burlington.com/ct/orange/362/?utm_source=google&utm_medium=organic&utm_campaign=maps,41.2767677,-72.9871749,3.8,457.0,ChIJ9wHADarY54kRNk4N__T8zns,"clothing_store, department_store, jewelry_store, home_goods_store, point_of_interest, store, establishment"
"Shelton, CT",convenience store,retail,445120,Super 6 Convenience,"357 Richard St, Newington, CT 06111, USA",(860) 594-4023,,41.6613352,-72.7237057,5.0,35.0,ChIJqdbMcACz54kRy9BKQCE_TWs,"convenience_store, food, point_of_interest, store, establishment"
"Shelton, CT",convenience store,retail,445120,Berlin Convenience & Deli,"831 Mill St, East Berlin, CT 06023, USA",(860) 829-1937,,41.6164286,-72.7279229,4.7,24.0,ChIJDxSnUqO054kRO0ulS2y8lF0,"convenience_store, food, point_of_interest, store, establishment"
"Shelton, CT",convenience store,retail,445120,10-TWENTY CONVENIENCE,"10-TWENTY CONVENIENCE, 126 S Main St #10, New Britain, CT 06051, USA",(860) 224-2230,,41.6609188,-72.7791333,5.0,9.0,ChIJK9g9XHGz54kREnFYpNvntrM,"convenience_store, food, point_of_interest, store, establishment"
"Shelton, CT",convenience store,retail,445120,"My Mart, convenience store, smoke shop, vape shop","373 W Main St, New Britain, CT 06052, USA",(860) 356-7001,,41.6656836,-72.7942315,5.0,10.0,ChIJ9xm9wQ6z54kRjrqrRY6bhYU,"convenience_store, food, point_of_interest, store, establishment"
"Shelton, CT",convenience store,retail,445120,One-Stop Convenience Store,"914 S Main St, Cheshire, CT 06410, USA",(203) 272-7707,,41.4798061,-72.9054555,5.0,11.0,ChIJzxlFbvPF54kRt8sfRQTs24A,"convenience_store, food, point_of_interest, store, establishment"
"Shelton, CT",convenience store,retail,445120,Highland Convenience,"575 Highland Ave UNIT 1, Waterbury, CT 06708, USA",(203) 527-6361,,41.5421461,-73.0542284,2.5,11.0,ChIJ-xAzHL3B54kRp---QrfKpzk,"convenience_store, food, point_of_interest, store, establishment"
"Shelton, CT",convenience store,retail,445110,MOE convenience & vape,"662 East St, New Britain, CT 06051, USA",(860) 505-8296,,41.6710065,-72.7645264,4.5,91.0,ChIJE29_1aCz54kRpgX6csniAcQ,"grocery_or_supermarket, convenience_store, food, point_of_interest, store, establishment"
"Shelton, CT",convenience store,retail,445120,State St Food Mart,"900 State St, Bridgeport, CT 06605, USA",,,41.1730972,-73.2014658,4.0,6.0,ChIJBcAysVEP6IkRrrMfnAMKvN4,"convenience_store, food, point_of_interest, store, establishment"
"Shelton, CT",convenience store,retail,445120,Neighborhood Convenience,"130 Scott Rd # 4, Waterbury, CT 06705, USA",(203) 596-7644,,41.5390166,-72.9928345,5.0,1.0,ChIJu-AcS83G54kRV8zhrQ24qCA,"convenience_store, food, point_of_interest, store, establishment"
"Shelton, CT",convenience store,retail,445120,Food Bag Market,"109 Berlin Tpke, Berlin, CT 06037, USA",(860) 829-5002,,41.6465579,-72.72957029999999,4.5,19.0,ChIJR4odCz-z54kR1QdC9vY0WX8,"convenience_store, gas_station, food, point_of_interest, store, establishment"
"Shelton, CT",convenience store,retail,445120,Woodbury Shell Food Mart,"24 Main St N, Woodbury, CT 06798, USA",(203) 263-2726,https://find.shell.com/us/fuel/10008535-24-main-st-n,41.5513048,-73.20432749999999,4.0,12.0,ChIJKWiGBSLs54kRnWuhp8zvO2o,"convenience_store, food, point_of_interest, store, establishment"
"Shelton, CT",convenience store,retail,445120,Newtown Convenience,"22 Church Hill Rd, Newtown, CT 06470, USA",(203) 270-3428,,41.4141837,-73.3027056,4.0,3.0,ChIJQZLMtmn754kRxQPXqbiZtbU,"convenience_store, food, point_of_interest, store, establishment"
"Shelton, CT",convenience store,retail,445120,NEIGHBORHOOD CONVENIENCE,"20 Westchester Dr, Stratford, CT 06614, USA",,,41.2138992,-73.15119729999999,3.6,5.0,ChIJwwSH3XEM6IkRQkKDawhx9mQ,"convenience_store, food, point_of_interest, store, establishment"
"Shelton, CT",convenience store,retail,445120,"city Fresh mart , Exxon gas station","500 Grasmere Ave, Fairfield, CT 06824, USA",(475) 999-8717,,41.1587943,-73.2432631,5.0,5.0,ChIJUzqlspsP6IkRAIQvoSQa13M,"convenience_store, food, point_of_interest, store, establishment"
"Shelton, CT",convenience store,retail,445120,North End Variety,"1482 Reservoir Ave, Bridgeport, CT 06606, USA",(203) 296-1416,,41.2207906,-73.1927213,4.6,43.0,ChIJqRie6a8O6IkRq_7D16bh1Dw,"convenience_store, food, point_of_interest, store, establishment"
"Shelton, CT",convenience store,retail,445120,Cumberland Farms,"136 Main St, Norwalk, CT 06851, USA",(203) 847-2604,https://www.cumberlandfarms.com/,41.1245006,-73.41603599999999,3.6,25.0,ChIJw0TvEzUc6IkR76ZhwtigX-4,"convenience_store, atm, gas_station, cafe, food, point_of_interest, store, finance, establishment"
"Shelton, CT",convenience store,retail,445120,Sunshine Convenience Store,"539 W Main St, Cheshire, CT 06410, USA",(203) 699-1000,,41.50805159999999,-72.91436089999999,3.6,17.0,ChIJ3RfOPA7G54kRml9u08Ht8E8,"convenience_store, food, point_of_interest, store, establishment"
"Shelton, CT",convenience store,retail,445120,Southbury Convenience,"997 Main St S, Southbury, CT 06488, USA",(203) 262-6637,https://www.exxon.com/en/find-station/southbury-ct-southburyconvenience-200316123,41.4584437,-73.23641119999999,3.6,11.0,ChIJ_3dK73Dl54kR2sA1-y7kNdU,"convenience_store, gas_station, food, point_of_interest, store, establishment"
"Shelton, CT",convenience store,retail,445120,7-Eleven,"517 Boston Post Rd, Milford, CT 06460, USA",(203) 878-7271,https://www.7-eleven.com/locations/ct/milford/517-boston-post-rd-24840?utm_source=G&utm_medium=local&utm_campaign=google-local,41.229101,-73.06649279999999,3.3,41.0,ChIJmQbPmb906IkR8mXNL48Vh28,"convenience_store, cafe, liquor_store, restaurant, food, point_of_interest, store, establishment"
"Shelton, CT",convenience store,retail,445120,Milford Quick Mart,"320 Old Gate Ln, Milford, CT 06460, USA",(203) 878-1660,,41.2346539,-73.0275292,4.5,2.0,ChIJOzE17E906IkRrTejtzaBzE8,"convenience_store, food, point_of_interest, store, establishment"
"Shelton, CT",convenience store,retail,445120,North Main Convenience,"48 N Main St, Norwalk, CT 06854, USA",(203) 899-9822,,41.1001611,-73.41909009999999,5.0,4.0,ChIJFwek7H0e6IkRfhlfhzu4a6o,"convenience_store, food, point_of_interest, store, establishment"
"Shelton, CT",convenience store,retail,445120,COLLEGE CONVENIENCE,"258 College St, New Haven, CT 06510, USA",(203) 785-0104,https://www.pointy.com/shops/usa/connecticut/new-haven/college-convenience,41.306879,-72.92916629999999,3.3,7.0,ChIJ54H_9mHZ54kRibxeFSHvc-g,"convenience_store, grocery_or_supermarket, food, point_of_interest, store, establishment"
"Shelton, CT",convenience store,retail,445120,Super 7 Food Market,"109 New Canaan Ave, Norwalk, CT 06850, USA",(203) 845-0333,,41.1273083,-73.43398739999999,4.1,15.0,ChIJ9d-xQscd6IkRNhv26VuTcpU,"convenience_store, food, point_of_interest, store, establishment"
"Shelton, CT",convenience store,retail,445120,Stop & Go Convenience Store,"526 Main St, East Haven, CT 06512, USA",(203) 468-7515,https://stopandgoconveniencestore.dine.online/,41.2830464,-72.8807565,4.1,38.0,ChIJLSJkdpTX54kRxSbcIHpKMyg,"convenience_store, food, point_of_interest, store, establishment"
"Shelton, CT",convenience store,retail,445120,AAA smoke shop & Convenience,"168 Main St, Norwalk, CT 06851, USA",(203) 857-1088,,41.1257855,-73.419297,4.9,14.0,ChIJ8y3fmXkd6IkR9TIvJznWbXc,"convenience_store, food, point_of_interest, store, establishment"
"Shelton, CT",convenience store,retail,445120,Krauszer's Food Stores & Deli,"2008 Whitney Ave, Hamden, CT 06517, USA",(203) 287-1381,https://order.online/store/krauszer's-hamden-356179/?hideModal=true&pickup=true,41.371739,-72.9063858,3.8,97.0,ChIJQYw0dXra54kRzbZiRiiv-Js,"convenience_store, food, point_of_interest, store, establishment"
"Shelton, CT",convenience store,retail,445120,Zaza City Convenience,"855 Foxon Rd, East Haven, CT 06513, USA",(475) 308-7175,,41.3219248,-72.8607656,4.0,4.0,ChIJUyrntH7X54kRWxzjIIBMtIo,"convenience_store, food, point_of_interest, store, establishment"
"Shelton, CT",convenience store,retail,445120,Krauszer's Food Stores,"3300 Whitney Ave, Hamden, CT 06518, USA",(203) 248-5667,,41.4144097,-72.90312039999999,4.0,115.0,ChIJZbS7Zqna54kRqgWCe0XzLoM,"convenience_store, grocery_or_supermarket, food, point_of_interest, store, establishment"
"Shelton, CT",convenience store,retail,445120,Country Convenience,"303 Newtown Ave, Norwalk, CT 06851, USA",(203) 846-4430,http://www.countryconvenience.com/,41.1437176,-73.3952371,4.2,32.0,ChIJPZoeOvUc6IkRD4E3gsX7ngI,"food, convenience_store, point_of_interest, store, establishment"
"Shelton, CT",convenience store,retail,445120,7-Eleven,"461 New Britain Ave, Newington, CT 06111, USA",(860) 594-8555,https://www.7-eleven.com/locations/ct/newington/461-new-britain-av-11479?utm_source=G&utm_medium=local&utm_campaign=google-local,41.6733169,-72.74161980000001,3.4,28.0,ChIJw0QuUuSy54kRFUGv8_P7AYs,"convenience_store, liquor_store, cafe, restaurant, food, point_of_interest, store, establishment"
"Shelton, CT",convenience store,retail,445120,Oasis Market Inc,"629 Connecticut Ave, Bridgeport, CT 06607, USA",(203) 336-8967,http://oasis-market-inc.poi.place/,41.1804148,-73.16588689999999,3.9,111.0,ChIJr4Hsvs4N6IkR5qNvAufvPc4,"convenience_store, food, point_of_interest, store, establishment"
"Shelton, CT",convenience store,retail,445120,Quik Mart,"Stratford, CT 06615, USA",,,41.1926992,-73.14855840000001,,,ChIJq9-Sl08M6IkRQVOP5jv2xWg,"convenience_store, food, point_of_interest, store, establishment"
"Shelton, CT",convenience store,retail,445120,Chapel Mini Mart,"1182 Chapel St, New Haven, CT 06511, USA",(203) 772-0566,,41.3088651,-72.9338403,4.4,18.0,ChIJG48TmbLZ54kRAZa-BM5CQfk,"convenience_store, grocery_or_supermarket, food, point_of_interest, store, establishment"
"Shelton, CT",convenience store,retail,445120,Cumberland Farms,"975 Kings Hwy E, Fairfield, CT 06825, USA",(203) 336-5674,https://www.cumberlandfarms.com/,41.1663503,-73.2338333,3.4,57.0,ChIJaT6jdNIP6IkRE9TfmfR1RSs,"convenience_store, gas_station, food, point_of_interest, store, establishment"
"Shelton, CT",convenience store,retail,445120,Circle K,"2120 Black Rock Tpke, Fairfield, CT 06825, USA",(203) 336-1266,https://www.circlek.com/store-locator/US/fairfield/2120-black-rock-tpke/2656057?utm_source=google&utm_medium=local&utm_campaign=google-local,41.1818451,-73.2512358,4.0,11.0,ChIJHThWKcoP6IkRdJbrInMny0w,"convenience_store, gas_station, atm, cafe, meal_takeaway, finance, restaurant, food, point_of_interest, store, establishment"
"Shelton, CT",convenience store,retail,445120,Krauszer's Food Stores,"631 Milford Point Rd, Milford, CT 06460, USA",(203) 877-4978,,41.1957809,-73.094749,4.3,28.0,ChIJJSoDF7YM6IkR2KP9rKRLP7Q,"convenience_store, food, point_of_interest, store, establishment"
"Shelton, CT",convenience store,retail,445120,Bridgewater Convenience Store,"11 New Milford Rd W, Bridgewater, CT 06752, USA",(860) 354-8203,https://www.exxon.com/,41.5465356,-73.3696543,4.1,20.0,ChIJtVpGIzXx54kRE20ibMBPqM8,"gas_station, convenience_store, food, point_of_interest, store, establishment"
"Shelton, CT",convenience store,retail,445120,Woodbury Convenience Store,"167 Main St S, Woodbury, CT 06798, USA",(203) 586-1090,,41.5453417,-73.208272,3.0,4.0,ChIJwxSP7Dbt54kRgxIIj_XLUD0,"convenience_store, food, point_of_interest, store, establishment"
"Shelton, CT",convenience store,retail,445120,Cumberland Farms,"1101 Post Rd, Fairfield, CT 06824, USA",(203) 256-2713,https://www.cumberlandfarms.com/,41.1444647,-73.2526748,3.1,35.0,ChIJtaxgHT4Q6IkRUcx-jWVeKsU,"convenience_store, gas_station, food, point_of_interest, store, establishment"
"Shelton, CT",convenience store,retail,445120,Grab N Go Mart,"784 Chapel St, New Haven, CT 06510, USA",(203) 907-2100,,41.3050842,-72.9238764,4.6,57.0,ChIJx0DqsGHZ54kRk7RIyXpYMoM,"convenience_store, cafe, food, point_of_interest, store, establishment"
"Shelton, CT",convenience store,retail,445120,123 Convenience Store,"766 Park Ave, Bridgeport, CT 06604, USA",,,41.1722913,-73.1963227,3.2,5.0,ChIJIfi7I20O6IkRT_68IMi1ays,"convenience_store, food, point_of_interest, store, establishment"
"Shelton, CT",convenience store,retail,445120,Main Street Convenience,"280 Main St S, Southbury, CT 06488, USA",(203) 586-1616,https://facebook.com/Mainstreetconvenience1,41.4738859,-73.22099159999999,5.0,6.0,ChIJFwxsonvv54kReU8ZV5FvKlY,"convenience_store, food, point_of_interest, store, establishment"
"Shelton, CT",convenience store,retail,445120,24/7 Express,"1607 Barnum Ave, Stratford, CT 06614, USA",(475) 422-9873,,41.1947591,-73.1412599,4.9,29.0,ChIJ2Tv_fmEN6IkRaJvmbIUmpng,"convenience_store, food, point_of_interest, store, establishment"
"Shelton, CT",convenience store,retail,445120,Blake Street,"295 Blake St, New Haven, CT 06515, USA",(203) 691-9064,,41.327844,-72.9531504,4.1,14.0,ChIJYQ5T9QzZ54kRuLzOU9fn4hY,"convenience_store, food, point_of_interest, store, establishment"
"Shelton, CT",convenience store,retail,445120,24/7 Express,"73 Center St, Shelton, CT 06484, USA",(203) 513-8097,,41.31611669999999,-73.0942337,4.0,22.0,ChIJ2eDfLFoM6IkRGcpQyUqfdDM,"convenience_store, food, point_of_interest, store, establishment"
"Shelton, CT",convenience store,retail,445120,One Stop Convenience Stores,"64 E Main St, Meriden, CT 06450, USA",(203) 237-1110,,41.5375139,-72.80033259999999,3.5,8.0,ChIJj4_DCCHK54kRbfpBCZRpojo,"convenience_store, food, point_of_interest, store, establishment"
"Shelton, CT",convenience store,retail,445120,A B Convenience Store,"269 Main St, Meriden, CT 06451, USA",(203) 238-3584,,41.5198739,-72.83501389999999,4.0,6.0,ChIJF2Aivg7J54kR9u50_G0aCz4,"convenience_store, food, point_of_interest, store, establishment"
"Shelton, CT",convenience store,retail,445120,Henny Penny,"77 N Turnpike Rd, Wallingford, CT 06492, USA",(203) 949-9948,http://henny-penny.com/,41.4735821,-72.8312162,3.3,9.0,ChIJD5RG5MbO54kR4l-M20M09sw,"convenience_store, gas_station, atm, finance, food, point_of_interest, store, establishment"
"Shelton, CT",convenience store,retail,445120,Seven Haven,"129 Sylvan Ave, New Haven, CT 06519, USA",(203) 891-7621,,41.3042933,-72.9442512,4.0,32.0,ChIJg1wkdlbY54kRofNrl0D3cBk,"convenience_store, food, point_of_interest, store, establishment"
"Shelton, CT",convenience store,retail,445120,Daily Mart,"131 N Main St, Ansonia, CT 06401, USA",(203) 734-1836,https://nrsgo.com/dailymart,41.3516518,-73.0812553,3.8,17.0,ChIJ3e0Q2Rje54kRIiSpvUfA12s,"convenience_store, food, point_of_interest, store, establishment"
"Shelton, CT",convenience store,retail,445120,Dixwell Mini Market,"284 Dixwell Ave, New Haven, CT 06511, USA",(203) 777-7609,,41.320467,-72.9344236,4.3,26.0,ChIJqwILtKTZ54kRjLvlfNR_84Y,"convenience_store, grocery_or_supermarket, food, point_of_interest, store, establishment"
"Shelton, CT",convenience store,retail,445120,Corner Stop,"82 Hemingway Ave, East Haven, CT 06512, USA",(203) 469-3361,http://cornerstopct.com/,41.2695528,-72.8721667,4.3,23.0,ChIJsceGKMPX54kRqY2Mztv8RpU,"convenience_store, atm, finance, food, point_of_interest, store, establishment"
"Shelton, CT",convenience store,retail,445120,Howe Ave Convenience Store Inc,"65 Howe Ave, Shelton, CT 06484, USA",,,41.3087919,-73.082458,3.4,5.0,ChIJMwC7z-Df54kRhCajjkejDh0,"convenience_store, food, point_of_interest, store, establishment"
"Shelton, CT",convenience store,retail,445120,Sunoco,"240 Riverside Ave, Westport, CT 06880, USA",(203) 227-8539,https://www.sunoco.com/locations/store/240-riverside-ave-westport-ct-0005502003,41.1323962,-73.3678008,3.5,18.0,ChIJA-RX14Yb6IkRhrvqHzOiZD8,"gas_station, convenience_store, food, point_of_interest, store, establishment"
"Shelton, CT",convenience store,retail,445120,Shop Smart,"43 New Haven Rd, Seymour, CT 06483, USA",(203) 888-3774,,41.3971956,-73.0616659,4.4,22.0,ChIJBcQT8qLd54kRbMbvJElFM4c,"convenience_store, food, point_of_interest, store, establishment"
"Shelton, CT",convenience store,retail,445120,7-Eleven,"400 Foxon Blvd, New Haven, CT 06513, USA",(203) 467-1505,https://www.7-eleven.com/locations/ct/new-haven/400-foxon-blvd-33306?utm_source=G&utm_medium=local&utm_campaign=google-local,41.320705,-72.8718365,3.1,46.0,ChIJJ4dz_D7X54kRqRGEKvjss0M,"convenience_store, liquor_store, cafe, restaurant, food, point_of_interest, store, establishment"
"Shelton, CT",convenience store,retail,445120,Sunoco,"355-357 Oxford Rd, Oxford, CT 06478, USA",(203) 881-1527,https://www.sunoco.com/,41.428089,-73.11037979999999,4.1,77.0,ChIJ7ZkQkZXn54kRSA2IzOh5mBk,"gas_station, convenience_store, food, point_of_interest, store, establishment"
"Shelton, CT",convenience store,retail,445120,WESTVIEW CONVENIENCE,"662 West St, Southington, CT 06489, USA",(860) 276-2023,http://www.citgo.com/,41.60626449999999,-72.8991029,1.0,1.0,ChIJCViPfYe354kRU7u9tocZ2tg,"convenience_store, gas_station, food, point_of_interest, store, establishment"
"Shelton, CT",convenience store,retail,445120,7-Eleven,"1331 State St, New Haven, CT 06511, USA",(203) 891-7428,https://www.7-eleven.com/locations/ct/new-haven/1331-state-st-39154?utm_source=G&utm_medium=local&utm_campaign=google-local,41.3195305,-72.8981532,3.5,24.0,ChIJI0kcskrX54kRvFc_OAL0qes,"convenience_store, liquor_store, cafe, restaurant, food, point_of_interest, store, establishment"
"Shelton, CT",wholesale,retail,,Restaurant Depot,"3580 E Main St, Waterbury, CT 06705, USA",(203) 596-0040,https://www.restaurantdepot.com/?utm_source=listings&utm_medium=search&utm_campaign=traffic-tracking&utm_content=East-Coast&utm_term=820-NEW-ENGLAND,41.54078,-72.9709697,4.0,328.0,ChIJ54Yp-93G54kR1mbRLOsP5-I,"point_of_interest, food, establishment"
"Shelton, CT",wholesale,retail,,Casertano's Greenhouse & Farms,"1030 S Meriden Rd, Cheshire, CT 06410, USA",(203) 272-4563,http://www.casertanosfarms.com/,41.5224646,-72.86463719999999,4.1,13.0,ChIJ3xzP_vDI54kR7OZ5zQHD5iQ,"point_of_interest, establishment"
"Shelton, CT",wholesale,retail,,Restaurant Depot,"3711 Danbury Rd, Brewster, NY 10509, USA",(845) 230-6007,https://www.restaurantdepot.com/?utm_source=listings&utm_medium=search&utm_campaign=traffic-tracking&utm_content=East-Coast&utm_term=821-NEW-YORK,41.38490669999999,-73.5691909,3.9,88.0,ChIJ6W9jr7BT3YkRGaAOd_IMaqk,"point_of_interest, food, establishment"
"Shelton, CT",wholesale,retail,,Master G Cash and Carry Corp,"1625 Berlin Tpke, Berlin, CT 06037, USA",(860) 829-2929,https://mastergcc.com/,41.606898,-72.7489391,4.7,20.0,ChIJ4-u29lK154kR2hSLZw6utJE,"point_of_interest, food, establishment"
"Shelton, CT",wholesale,retail,,Countryside Farms,"2031 NY-22, Brewster, NY 10509, USA",(845) 363-1570,https://countrysidefarmsny.com/,41.4489927,-73.57742340000001,4.2,5.0,ChIJEXz5hVtR3YkR4_8_eG1t3jE,"point_of_interest, food, establishment"
"Shelton, CT",wholesale,retail,,Bargain Enterprise,"2785 State St, Hamden, CT 06517, USA",(203) 931-8585,,41.3566651,-72.8901168,4.4,7.0,ChIJlQp6FqTQ54kRDLkkXc_GpiI,"point_of_interest, establishment"
"Shelton, CT",wholesale,retail,,CTC Distribution LLC,"400 N Frontage Rd, North Haven, CT 06473, USA",(203) 752-9300,,41.3591022,-72.8616661,3.8,16.0,ChIJHzRyssPQ54kRJUgbpfev4gE,"point_of_interest, food, establishment"
"Shelton, CT",wholesale,retail,,Los Muchachos,"1325 Pembroke St, Bridgeport, CT 06608, USA",(203) 382-1328,,41.1922957,-73.1771918,3.7,6.0,ChIJw3Jn5SsM6IkRzIplMKPPjs4,"point_of_interest, food, establishment"
"Shelton, CT",wholesale,retail,,American Liquidations,"204 Austin Rd, Waterbury, CT 06705, USA",(203) 587-4132,https://www.americanliquidations.com/,41.538663,-72.9766752,4.4,174.0,ChIJx1UW8x3D54kRQ_rp--6Va5Y,"point_of_interest, establishment"
"Shelton, CT",wholesale,retail,,Joy Susan,"1 Hartford Square, New Britain, CT 06052, USA",(860) 612-0439,https://www.joysusan.com/,41.6654281,-72.8104934,4.5,28.0,ChIJy_5V7WSx54kRDAERTAI240M,"point_of_interest, store, establishment"
"Shelton, CT",wholesale,retail,,A.M.I. Corporation,"12 Baer Cir, East Haven, CT 06512, USA",(203) 466-5534,,41.25027679999999,-72.88098049999999,4.0,4.0,ChIJ2QuTBRJ46IkRSiqs7a2FVRc,"food, point_of_interest, establishment"
"Shelton, CT",wholesale,retail,,Omaha Beef Company,"9 Maple Ave, Danbury, CT 06810, USA",(203) 748-2651,http://www.omahabeefcompany.com/,41.398179,-73.45171599999999,4.8,19.0,ChIJNdfAa2__54kR6FRqqxAgMaM,"food, point_of_interest, establishment"
"Shelton, CT",wholesale,retail,,Connecticut Flower Collective,"725 Main St, Middletown, CT 06457, USA",,http://www.ctflowercollective.com/,41.5655447,-72.6546066,5.0,1.0,ChIJpZBWZsTL54kRWq8H29DOcbY,"point_of_interest, establishment"
"Shelton, CT",wholesale,retail,,GoFast Solutions,"699 Middle St, Middletown, CT 06457, USA",(203) 641-0272,https://gofst.com/,41.5888626,-72.7218738,5.0,11.0,ChIJZRtdmOgr5okRjTFwnQg_lRQ,"point_of_interest, establishment"
"Shelton, CT",distributor,retail,,Beverage Express Inc,"310 Avon St, Stratford, CT 06615, USA",(203) 520-7123,https://www.beverageexpressct.com/,41.1823073,-73.1449366,4.3,15.0,ChIJixjrr7IN6IkR10gnCHfRJIY,"point_of_interest, establishment"
"Shelton, CT",distributor,retail,,Northeast Beverage CT,"32 Robinson Blvd #3647, Orange, CT 06477, USA",(203) 795-4945,http://www.ridistributing.com/,41.2481976,-72.99333589999999,4.5,66.0,ChIJS9T5dNd16IkRWpzEsVEtxik,"point_of_interest, establishment"
"Shelton, CT",distributor,retail,,Martignetti Companies (formerly Hartley & Parker),"100 Browning St, Stratford, CT 06615, USA",(203) 375-5671,http://www.martignetti.com/,41.1768349,-73.1484018,3.5,22.0,ChIJ1dDKs7EN6IkRIb7rUw2ylzk,"point_of_interest, food, establishment"
"Shelton, CT",distributor,retail,,Dandy Foods,"80 Mill Plain Rd, Danbury, CT 06811, USA",(203) 792-7000,https://dandyfoods.com/,41.391473,-73.507618,4.1,13.0,ChIJWRGENwdV3YkRHIfeaaXjOdc,"point_of_interest, food, establishment"
"Shelton, CT",distributor,retail,,Ace Distributing LLC,"93 W Main St, Plainville, CT 06062, USA",(860) 793-1400,https://www.aceofct.com/,41.6704097,-72.8711649,3.1,13.0,ChIJUQh4ueuw54kRopMs6731rFU,"point_of_interest, food, establishment"
"Shelton, CT",distributor,retail,,Brescome Barton,"69 Defco Park Rd, North Haven, CT 06473, USA",(203) 239-4901,http://www.brescomebarton.com/,41.4191757,-72.8475386,3.7,17.0,ChIJye3RyS3O54kRA7fFVPYFv2s,"point_of_interest, establishment"
"Shelton, CT",distributor,retail,,"Drinx Unlimited, Inc.","372 Ely Ave, Norwalk, CT 06854, USA",(800) 861-7632,http://www.drinxunlimited.com/,41.0774688,-73.42704920000001,3.6,10.0,ChIJz1StgFAe6IkRJcpX0hGnJC4,"point_of_interest, establishment"
"Shelton, CT",distributor,retail,,G & G Bev Dist,"207 Church St, Wallingford, CT 06492, USA",(203) 284-9511,http://www.ggbeverage.com/,41.4889123,-72.81667999999999,3.5,34.0,ChIJd6Ha2lHJ54kR-ntjvkzgb2I,"point_of_interest, establishment"
"Shelton, CT",distributor,retail,,Farmer Brothers,"54 Great Hill Rd, Naugatuck, CT 06770, USA",(203) 723-0477,http://www.farmerbros.com/blog/branches/naugatuck/?utm_source=googlemybusiness&utm_medium=organic&utm_content=NAUGATUCK,41.5084341,-73.0236912,,,ChIJwfJhEpLD54kREdEgWxFkibE,"point_of_interest, food, establishment"
"Shelton, CT",distributor,retail,,East Coast Food Distribution Boar's,"64 Raton Dr, Milford, CT 06461, USA",(203) 876-4745,,41.23017919999999,-73.0949012,5.0,5.0,ChIJ9aHuWkkL6IkRjPBz5GqH2q0,"point_of_interest, food, establishment"
"Shelton, CT",distributor,retail,,"Coca-Cola Beverages Northeast- Naugatuck, CT","80 Rado Dr, Naugatuck, CT 06770, USA",(203) 721-8173,https://www.cokenortheast.com/,41.5144424,-73.0237661,2.5,2.0,ChIJcR3yhTbB54kR4bJmRKNITQc,"point_of_interest, establishment"
"Shelton, CT",distributor,retail,,Crystal Rock,"313 Long Ridge Rd, Stamford, CT 06902, USA",,https://www.crystalrock.com/,41.0815693,-73.55330959999999,2.5,2.0,ChIJsYT1CgChwokRr6bwDryTxgE,"point_of_interest, establishment"
"Shelton, CT",distributor,retail,,Freshbev,"3 Sterling Dr, Wallingford, CT 06492, USA",(475) 227-3446,http://www.ripebarjuice.com/,41.2933782,-72.89963759999999,4.5,8.0,ChIJZ97uECjY54kR_5R3khriFic,"point_of_interest, food, establishment"
"Shelton, CT",distributor,retail,,Pepsi Beverages Co,"355 Benton St, Stratford, CT 06615, USA",(203) 551-3900,http://www.pepsico.com/,41.1715587,-73.1418813,4.1,24.0,ChIJORgE_6UN6IkRWv3sE4fTx7Y,"point_of_interest, establishment"
"Shelton, CT",distributor,retail,,Soda Service,"261 Pascone Pl, Newington, CT 06111, USA",(860) 666-7845,http://www.sodaservice.net/,41.6686621,-72.72311239999999,2.9,10.0,ChIJe5KRG9qy54kRtog3pTEmz9M,"point_of_interest, establishment"
"Shelton, CT",distributor,retail,,B. United International,"7 Fox Hollow Road, Oxford, CT 06478, USA",(203) 938-0713,http://www.bunitedint.com/,41.4702186,-73.1208724,4.9,7.0,ChIJNRW_mkLo54kR96rW98TCp24,"point_of_interest, establishment"
"Shelton, CT",distributor,retail,,"Chef K, Inc.","108 Edwin Ave, Waterbury, CT 06708, USA",(646) 778-8396,https://www.chefkproduct.com/,41.5697952,-73.0599893,5.0,9.0,ChIJvyHKn0jA54kRDjyx-yamMak,"point_of_interest, establishment"
"Shelton, CT",distributor,retail,,Schrafel Paperboard Converting Corp,"82 W Clark St, West Haven, CT 06516, USA",(203) 931-1700,http://www.schrafelpaper.com/,41.2730255,-72.9595013,4.0,3.0,ChIJUaDgkZ3Y54kREIYg2Vuk5o8,"storage, point_of_interest, establishment"
"Shelton, CT",distributor,retail,,Tropicana Products Inc,"615 W Johnson Ave # 219, Cheshire, CT 06410, USA",(203) 250-7186,,41.5541246,-72.9097809,1.0,2.0,ChIJ5w0ansLH54kR-R71XIUqz6A,"point_of_interest, establishment"
"Shelton, CT",distributor,retail,,Amtec International of NY Corporation,"1 Hartford Square, New Britain, CT 06052, USA",(860) 827-8379,,41.6659495,-72.8118398,,,ChIJJRDIjmSx54kRGUjNcDaTxVU,"point_of_interest, establishment"
"Shelton, CT",distributor,retail,,Highland Imports,"74 Linwood Ave, Fairfield, CT 06824, USA",(203) 538-6818,http://www.highlandimportsct.co/,41.1416721,-73.2699488,5.0,3.0,ChIJPwkrVvnf54kRFu4OMnMEHRA,"food, point_of_interest, establishment"
"Shelton, CT",distributor,retail,,Yarde Metals,"45 Newell St, Southington, CT 06489, USA",(860) 406-6061,https://www.yarde.com/,41.6427158,-72.8756803,3.8,39.0,ChIJDW_NyEm354kR_kf_li_4G5I,"point_of_interest, store, establishment"
"Shelton, CT",distributor,retail,,Light Rock Spring Water Co.,"9 Balmforth Ave, Danbury, CT 06810, USA",(203) 743-3410,,41.39901589999999,-73.45128439999999,5.0,5.0,ChIJqzIhPG__54kRFG4MxLzdyF8,"point_of_interest, establishment"
"Shelton, CT",food distributor,retail,,Thurston Foods Inc,"30 Thurston Dr, Wallingford, CT 06492, USA",(203) 265-1525,https://www.thurstonfoods.com/,41.4799286,-72.7993578,4.1,88.0,ChIJf3hMawHM54kRBotzUtOTmWY,"food, point_of_interest, establishment"
"Shelton, CT",food distributor,retail,,"Napoli Foods, Inc","10 Knotter Dr, Cheshire, CT 06410, USA",(860) 276-4000,http://www.napolifoodsinc.com/,41.5602192,-72.9078212,3.0,93.0,ChIJs5hIQ-jH54kR4WSs1b-5WCc,"food, point_of_interest, establishment"
"Shelton, CT",food distributor,retail,445110,Jordan Paige Food Enterprise,"78 Rebeschi Dr # 2, North Haven, CT 06473, USA",(203) 483-6456,http://www.jordanpaige.com/,41.3430116,-72.86765319999999,4.0,12.0,ChIJw-2rss7Q54kRJrcFRH89bMc,"grocery_or_supermarket, food, point_of_interest, store, establishment"
"Shelton, CT",food distributor,retail,,Naugatuck Valley Food Distribution,"85 S Leonard St, Waterbury, CT 06708, USA",(203) 757-3353,,41.54345,-73.0439945,2.8,5.0,ChIJ243SL6HB54kRGDd-zr0Yxzs,"food, point_of_interest, establishment"
"Shelton, CT",food distributor,retail,,Ragozzino Foods Inc,"71 Chamberlain Hwy, Meriden, CT 06451, USA",(800) 348-1240,http://www.ragozzino.com/,41.5409441,-72.8151657,4.2,27.0,ChIJFS1UF_PJ54kRhedE-scptAk,"food, point_of_interest, establishment"
"Shelton, CT",food distributor,retail,,New Haven Provision,"850 Foxon Rd, East Haven, CT 06513, USA",(203) 468-7825,,41.321379,-72.8599328,4.6,10.0,ChIJ1_o5YSTX54kRjFuLYzrfMR0,"point_of_interest, food, establishment"
"Shelton, CT",food distributor,retail,445110,GMI European Food Distrs,"27 Woodlawn Rd, Berlin, CT 06037, USA",(860) 828-9744,http://gmifoods.com/,41.6323602,-72.7389999,4.5,8.0,ChIJA2xuVGGz54kRMWW1oZOO_kU,"grocery_or_supermarket, point_of_interest, store, food, establishment"
"Shelton, CT",food distributor,retail,,"NECS, Inc.","322 E Main St, Branford, CT 06405, USA",(475) 221-8200,http://www.necs.com/,41.2933807,-72.7868312,3.7,3.0,ChIJXyK1h-kr5okR2n5yWZbbQ68,"point_of_interest, food, establishment"
"Shelton, CT",food distributor,retail,,"Little's Specialty Foods, Inc.","18 Locust Ave #1606, New Canaan, CT 06840, USA",(203) 228-4440,http://www.littlescuisine.com/,41.1489845,-73.4927053,5.0,3.0,ChIJuwUBAg2nwokRM-AOdGdDzTs,"point_of_interest, food, establishment"
"Shelton, CT",food distributor,retail,,LC Fine Foods,"305 Food Terminal Plaza, New Haven, CT 06511, USA",(203) 773-3486,https://lcthefinefood.com/,41.2941216,-72.9218913,3.7,3.0,ChIJ5XIjZTjY54kRSxcTYOAlhis,"point_of_interest, food, establishment"
"Shelton, CT",food distributor,retail,,Carbonella & Desarbo Inc,"50 E Industrial Rd, Branford, CT 06405, USA",(203) 787-1241,https://carbonellaanddesarbo.com/,41.299328,-72.7548489,3.2,73.0,ChIJ5XIjZTjY54kRH7_Qz-YiOMQ,"point_of_interest, food, establishment"
"Shelton, CT",food distributor,retail,,Wade's Dairy Inc,"1316 Barnum Ave, Bridgeport, CT 06610, USA",(203) 579-9233,http://www.wadesdairy.com/,41.1864414,-73.1648604,4.3,39.0,ChIJmwP_UzMM6IkRT5zBbN2bBaE,"point_of_interest, food, establishment"
"Shelton, CT",food distributor,retail,,Noack's Meat Products,"1112 E Main St, Meriden, CT 06450, USA",(203) 235-7384,http://www.noacks.com/,41.5262074,-72.7660966,4.9,121.0,ChIJ0c1aiVrK54kRsIeTN6mnAhA,"point_of_interest, store, food, establishment"
"Shelton, CT",food distributor,retail,445110,Whole Foods Distribution Center,"400 E Johnson Ave, Cheshire, CT 06410, USA",(203) 272-8150,http://www.wholefoodsmarket.com/,41.5528792,-72.873902,3.8,581.0,ChIJ-dl-vmrI54kRmBGQ5ORumio,"florist, supermarket, bakery, grocery_or_supermarket, health, point_of_interest, store, food, establishment"
"Shelton, CT",food distributor,retail,445110,Fresh Halal Meat & International Foods,"866 North Ave, Bridgeport, CT 06606, USA",(203) 333-3702,http://www.freshhalalbridgeport.com/,41.1926093,-73.1965058,4.3,62.0,ChIJ5fC_weQO6IkR40mO5MEaX9s,"grocery_or_supermarket, point_of_interest, store, food, establishment"
