Location,Search Keyword,Segment,NAICS Code,Business Name,Address,Phone Number,Website,Latitude,Longitude,Rating,User Ratings,Place ID,Types
"Shelton, CT",ethnic store,retail,448140,Sadhna's Saris,"495 Union Street Suite 1118 And 1116, Waterbury, CT 06706, USA",(860) 960-1456,https://www.facebook.com/sadhnasllc,41.5478938,-73.0245711,4.4,20.0,ChIJFWb3vBvB54kRlaiytbYK1xs,"clothing_store, jewelry_store, home_goods_store, point_of_interest, store, establishment"
"Shelton, CT",ethnic store,retail,445110,Deangely Market,"362 Oakville Ave, Waterbury, CT 06708, USA",(203) 597-9875,http://deangely-market.paqe.io/,41.58033349999999,-73.08163499999999,4.2,27.0,ChIJb2A_fiHA54kR_ACUMdw2eTM,"grocery_or_supermarket, food, point_of_interest, store, establishment"
"Shelton, CT",grocery store,retail,445110,Good Nature Market,"15 Broadway, New Haven, CT 06511, USA",(203) 787-4533,http://theshopsatyale.com/good-nature-market/,41.3110918,-72.9302933,3.4,303.0,ChIJESJOw7PZ54kRWmRjqNCUJ2I,"grocery_or_supermarket, store, food, point_of_interest, establishment"
"Shelton, CT",grocery store,retail,445310,"SAVOR - Deli, Grocery & Beer Store","597 Washington Ave, Bridgeport, CT 06604, USA",(203) 916-1200,,41.1827104,-73.19469339999999,3.7,39.0,ChIJt61rNyoP6IkRdZ1pcmkOOVo,"liquor_store, meal_takeaway, grocery_or_supermarket, store, restaurant, food, point_of_interest, establishment"
"Shelton, CT",grocery store,retail,445120,Krauszers Food Stores,"911 Campbell Ave, West Haven, CT 06516, USA",(203) 932-1416,http://krauszers-store-west-haven.poi.place/,41.2841466,-72.9568816,3.9,252.0,ChIJGfP4zo_Y54kRS0Wz4Lppzl8,"convenience_store, grocery_or_supermarket, store, food, point_of_interest, establishment"
"Shelton, CT",grocery store,retail,445110,The Guys Deli Grocery Store.,"649 E Main St, Waterbury, CT 06702, USA",(203) 527-6815,,41.5540024,-73.0294001,4.7,14.0,ChIJKxklVmTB54kRMPFWw5jtPs4,"grocery_or_supermarket, store, food, point_of_interest, establishment"
"Shelton, CT",grocery store,retail,452210,Walmart Supercenter,"315 Foxon Blvd, New Haven, CT 06513, USA",(203) 467-7509,https://www.walmart.com/store/5439-new-haven-ct/?veh=seo_loc,41.320042,-72.877175,3.9,5482.0,ChIJO-jOlUDX54kRBU-4MMN35TA,"department_store, bakery, furniture_store, electronics_store, grocery_or_supermarket, hardware_store, clothing_store, home_goods_store, store, food, point_of_interest, establishment"
"Shelton, CT",grocery store,retail,,Sam's Food Stores,"665 Campbell Ave, West Haven, CT 06516, USA",(203) 937-5107,https://samsfoodstores.com/,41.27625889999999,-72.95279630000002,3.5,53.0,ChIJkdBE9oPY54kRVV5Oe_S97PE,"store, point_of_interest, establishment"
"Shelton, CT",grocery store,retail,445110,Price Chopper,"410 Queen St, Southington, CT 06489, USA",(860) 621-2128,https://www.pricechopper.com/stores/ct/southington/price-chopper-203.html,41.6276109,-72.8752026,4.2,650.0,ChIJT_O8ahW354kRGo9cyII_jRc,"supermarket, atm, bakery, grocery_or_supermarket, finance, store, food, point_of_interest, establishment"
"Shelton, CT",grocery store,retail,452210,Walmart Supercenter,"844 N Colony Rd, Wallingford, CT 06492, USA",(203) 269-6622,https://www.walmart.com/store/2371-wallingford-ct/?veh=seo_loc,41.477496,-72.8105442,4.0,5519.0,ChIJe0xIya7O54kRL8O_Hbh9sW4,"department_store, bakery, furniture_store, electronics_store, grocery_or_supermarket, hardware_store, clothing_store, home_goods_store, store, food, point_of_interest, establishment"
"Shelton, CT",grocery store,retail,452210,Walmart,"150 Barnum Avenue Cutoff, Stratford, CT 06614, USA",(203) 502-7631,https://www.walmart.com/store/2585-stratford-ct?veh=seo_loc,41.201065,-73.11874379999999,4.0,5985.0,ChIJjQVIDJMM6IkRv1ZBnC16PK8,"department_store, furniture_store, electronics_store, grocery_or_supermarket, hardware_store, clothing_store, home_goods_store, store, food, point_of_interest, establishment"
"Shelton, CT",grocery store,retail,452210,Walmart,"1365 Boston Post Rd, Milford, CT 06460, USA",(203) 301-0559,https://www.walmart.com/store/5294-milford-ct?veh=seo_loc,41.237986,-73.0315518,4.1,3964.0,ChIJg1Gq_VN06IkRMw88pNum7is,"department_store, furniture_store, electronics_store, grocery_or_supermarket, hardware_store, clothing_store, home_goods_store, store, food, point_of_interest, establishment"
"Shelton, CT",grocery store,retail,445110,Price Rite Marketplace of New Britain,"150 Columbus Blvd, New Britain, CT 06051, USA",(860) 826-0588,https://www.priceritemarketplace.com/,41.6672652,-72.7753829,4.1,1669.0,ChIJadV8BrSz54kRVKuOqKBlYQ4,"grocery_or_supermarket, bakery, supermarket, store, food, point_of_interest, establishment"
"Shelton, CT",grocery store,retail,452210,Walmart,"2300 Dixwell Ave, Hamden, CT 06514, USA",(203) 230-0285,https://www.walmart.com/store/3545-hamden-ct?veh=seo_loc,41.3736477,-72.91900799999999,3.9,2356.0,ChIJEaBUm2ja54kRSMfUC5RBEDc,"department_store, furniture_store, electronics_store, grocery_or_supermarket, hardware_store, clothing_store, home_goods_store, store, food, point_of_interest, establishment"
"Shelton, CT",grocery store,retail,445120,Krauszer's Food Stores & Deli,"2008 Whitney Ave, Hamden, CT 06517, USA",(203) 287-1381,https://order.online/store/krauszer's-hamden-356179/?hideModal=true&pickup=true,41.371739,-72.9063858,3.8,97.0,ChIJQYw0dXra54kRzbZiRiiv-Js,"convenience_store, store, food, point_of_interest, establishment"
"Shelton, CT",grocery store,retail,445110,Price Rite Marketplace of Danbury,"29 Main St, Danbury, CT 06810, USA",(203) 743-2660,https://www.priceritemarketplace.com/,41.3885887,-73.4449996,4.2,1068.0,ChIJjZCbenT_54kRbzQ5N4i_xss,"grocery_or_supermarket, bakery, supermarket, store, food, point_of_interest, establishment"
"Shelton, CT",grocery store,retail,445110,ShopRite of Norwalk,"360 Connecticut Ave, Norwalk, CT 06854, USA",(203) 838-0504,https://www.shoprite.com/?utm_source=GMB&utm_medium=Local_Search&utm_campaign=dbaPlatform&utm_term=394,41.1024779,-73.44022629999999,4.3,2245.0,ChIJ1zlqG3Me6IkRQ1yxV9vbFCw,"grocery_or_supermarket, bakery, supermarket, store, food, point_of_interest, establishment"
"Shelton, CT",grocery store,retail,445110,Whole Foods Market,"1686 Boston Post Rd, Milford, CT 06460, USA",(203) 874-0883,https://www.wholefoodsmarket.com/stores/milford?utm_source=google&utm_medium=organic&utm_campaign=listings,41.2482781,-73.0253079,4.3,1200.0,ChIJq4YHYbF16IkRYPW7Oinx7_o,"grocery_or_supermarket, liquor_store, supermarket, health, store, food, point_of_interest, establishment"
"Shelton, CT",grocery store,retail,445110,Stop & Shop,"930 N Colony Rd, Wallingford, CT 06492, USA",(203) 265-6972,https://stores.stopandshop.com/ct/wallingford/930-north-colony-road?y_source=1_NDE5NTg1NC03MTUtbG9jYXRpb24ud2Vic2l0ZQ%3D%3D,41.4842163,-72.8069445,4.1,1201.0,ChIJKavtOqvO54kRam6htlpp_Xk,"grocery_or_supermarket, store, food, point_of_interest, establishment"
"Shelton, CT",grocery store,retail,445110,Stop & Shop,"150 Whalley Ave, New Haven, CT 06515, USA",(203) 503-0105,https://stores.stopandshop.com/ct/new-haven/150-whalley-avenue?y_source=1_NDE5NTM4Ni03MTUtbG9jYXRpb24ud2Vic2l0ZQ%3D%3D,41.3143951,-72.9378033,3.9,1977.0,ChIJoQ4v-q7Z54kRV4gylndSk3c,"grocery_or_supermarket, store, food, point_of_interest, establishment"
"Shelton, CT",grocery store,retail,445110,Stop & Shop,"460 Elm St, West Haven, CT 06516, USA",(203) 931-8843,https://stores.stopandshop.com/ct/west-haven/460-elm-street?y_source=1_NDE5NTY4MC03MTUtbG9jYXRpb24ud2Vic2l0ZQ%3D%3D,41.2717449,-72.9565197,4.1,1579.0,ChIJ_VnAsYLY54kRXvGwKeV3l54,"grocery_or_supermarket, store, food, point_of_interest, establishment"
"Shelton, CT",grocery store,retail,452210,Walmart,"515 Saw Mill Rd, West Haven, CT 06516, USA",(203) 931-2081,https://www.walmart.com/store/3803-west-haven-ct?veh=seo_loc,41.2705853,-72.97750549999999,4.0,5026.0,ChIJm7o_uR526IkRGZ8NRIUF1tc,"department_store, furniture_store, electronics_store, grocery_or_supermarket, hardware_store, clothing_store, home_goods_store, store, food, point_of_interest, establishment"
"Shelton, CT",grocery store,retail,445110,Stop & Shop,"485 Broad St, Meriden, CT 06450, USA",(203) 238-1235,https://stores.stopandshop.com/ct/meriden/485-broad-street?y_source=1_NDE5NTY5NS03MTUtbG9jYXRpb24ud2Vic2l0ZQ%3D%3D,41.5330775,-72.7913386,4.0,1093.0,ChIJ4UNiQzvK54kR-pruB8nlmDw,"grocery_or_supermarket, store, point_of_interest, food, establishment"
"Shelton, CT",grocery store,retail,445110,Hamden Grocery LLC,"1978 state st State &, Ridge Rd, Hamden, CT 06517, USA",(203) 535-0145,,41.3358547,-72.90017329999999,4.5,2.0,ChIJB9CucRzZ54kRSG7I-mM7sQA,"grocery_or_supermarket, store, point_of_interest, food, establishment"
"Shelton, CT",grocery store,retail,445110,Whole Foods Market,"350 Grasmere Ave, Fairfield, CT 06824, USA",(203) 319-9544,https://www.wholefoodsmarket.com/stores/fairfield?utm_source=google&utm_medium=organic&utm_campaign=listings,41.1583602,-73.2401552,4.4,1216.0,ChIJdZ_TwicQ6IkRpj3I4a5h4ww,"grocery_or_supermarket, supermarket, liquor_store, cafe, store, health, point_of_interest, food, establishment"
"Shelton, CT",grocery store,retail,445110,"ShopRite of Milford, CT","935 Boston Post Rd, Milford, CT 06460, USA",(203) 876-7868,https://www.shoprite.com/?utm_source=GMB&utm_medium=Local_Search&utm_campaign=dbaPlatform&utm_term=327,41.2310291,-73.0500595,4.3,2104.0,ChIJj3qbSPJ06IkRwgHG2_srbAg,"grocery_or_supermarket, supermarket, bakery, store, point_of_interest, food, establishment"
"Shelton, CT",grocery store,retail,445110,Stew Leonard's,"100 Westport Ave, Norwalk, CT 06851, USA",(203) 847-7214,https://stewleonards.com/,41.1224617,-73.40177059999999,4.5,2266.0,ChIJcw-ToTgc6IkRFs_ZOn2zF-U,"grocery_or_supermarket, supermarket, bakery, cafe, store, point_of_interest, food, establishment"
"Shelton, CT",grocery store,retail,445110,FOOD BAZAAR,"500 Sylvan Ave, Bridgeport, CT 06606, USA",(203) 683-3740,https://www.foodbazaar.com/find-your-store/,41.2077318,-73.19156459999999,4.2,4377.0,ChIJ-4RNnpgO6IkRjCn2Iuo5ZZQ,"supermarket, grocery_or_supermarket, store, point_of_interest, food, establishment"
"Shelton, CT",grocery store,retail,445110,Stop & Shop,"1309 Corbin Ave, New Britain, CT 06053, USA",(860) 348-9856,https://stores.stopandshop.com/ct/new-britain/1309-corbin-avenue?y_source=1_NDE5NTM1My03MTUtbG9jYXRpb24ud2Vic2l0ZQ%3D%3D,41.6688005,-72.8049722,4.1,1411.0,ChIJfRSNCn2x54kRHbZvFluaybY,"grocery_or_supermarket, store, point_of_interest, food, establishment"
"Shelton, CT",grocery store,retail,445110,Stop & Shop,"1160 Kings Hwy Cutoff, Fairfield, CT 06824, USA",(203) 254-8478,https://stores.stopandshop.com/ct/fairfield/1160-kings-highway-cut-off?y_source=1_NDE5NTMyNi03MTUtbG9jYXRpb24ud2Vic2l0ZQ%3D%3D,41.1511482,-73.2457316,4.1,660.0,ChIJEzfYadEP6IkRmgJUIXXEAqM,"grocery_or_supermarket, store, point_of_interest, food, establishment"
"Shelton, CT",grocery store,retail,445110,The Fresh Market,"605 Post Rd E, Westport, CT 06888, USA",(203) 227-2910,https://stores.thefreshmarket.com/ct/westport/117,41.139302,-73.34443399999999,4.3,281.0,ChIJ3ZCueAsb6IkRHknm331REh8,"grocery_or_supermarket, supermarket, bakery, store, point_of_interest, food, establishment"
"Shelton, CT",grocery store,retail,445110,Stop & Shop,"380 Main Ave, Norwalk, CT 06851, USA",(203) 840-1001,https://stores.stopandshop.com/ct/norwalk/380-main-avenue?y_source=1_NDE5NTYyNi03MTUtbG9jYXRpb24ud2Vic2l0ZQ%3D%3D,41.1410688,-73.4236895,4.2,668.0,ChIJdaRDpq4d6IkRJBh3zNb3Q-U,"grocery_or_supermarket, store, point_of_interest, food, establishment"
"Shelton, CT",grocery store,retail,445110,Stop & Shop,"180 Danbury Rd, New Milford, CT 06776, USA",(860) 355-3234,https://stores.stopandshop.com/ct/new-milford/180-danbury-road?y_source=1_NDE5NTQzMy03MTUtbG9jYXRpb24ud2Vic2l0ZQ%3D%3D,41.5503726,-73.419202,4.1,488.0,ChIJ88UgrFj254kRLgdV6s6yChw,"grocery_or_supermarket, store, point_of_interest, food, establishment"
"Shelton, CT",grocery store,retail,445120,S B Mart Convenience Store,"411 Middletown Ave, New Haven, CT 06513, USA",(203) 752-0600,,41.3279067,-72.8778768,4.3,16.0,ChIJS7o2K0bX54kRYecI_DnP2kE,"convenience_store, store, point_of_interest, food, establishment"
"Shelton, CT",grocery store,retail,445110,ShopRite Brookfield,"143 Federal Rd, Brookfield, CT 06804, USA",(203) 775-7078,https://www.shoprite.com/?utm_source=GMB&utm_medium=Local_Search&utm_campaign=dbaPlatform&utm_term=392,41.4371439,-73.4062774,4.3,1680.0,ChIJuSuEGhj554kRA19gYCAxnBQ,"grocery_or_supermarket, supermarket, bakery, store, point_of_interest, food, establishment"
"Shelton, CT",grocery store,retail,445110,ShopRite of Wallingford,"846 N Colony Rd, Wallingford, CT 06492, USA",(203) 626-7760,https://www.shoprite.com/?utm_source=GMB&utm_medium=Local_Search&utm_campaign=dbaPlatform&utm_term=321,41.4791771,-72.80890289999999,4.3,1474.0,ChIJT6F47qvO54kRkdGHK6sLhwI,"grocery_or_supermarket, supermarket, bakery, store, point_of_interest, food, establishment"
"Shelton, CT",grocery store,retail,452210,Target,"20 W Main St, Ansonia, CT 06401, USA",(203) 278-5055,https://www.target.com/sl/ansonia/2249,41.3407479,-73.079818,4.0,439.0,ChIJPYFcmSXe54kRfWV42kqJcIU,"department_store, shoe_store, electronics_store, furniture_store, clothing_store, home_goods_store, store, point_of_interest, establishment"
"Shelton, CT",grocery store,retail,445110,Bravo Supermarkets,"1954 Baldwin St, Waterbury, CT 06706, USA",(203) 753-4931,http://www.bravosupermarkets.com/,41.5274702,-73.0386185,4.2,442.0,ChIJxQh_OXjB54kRnefkibjRubs,"grocery_or_supermarket, supermarket, liquor_store, store, point_of_interest, food, establishment"
"Shelton, CT",grocery store,retail,445110,Big Y World Class Market,"355 Hawley Ln, Stratford, CT 06614, USA",(203) 386-0576,https://www.bigy.com/rs/store-locator/355-hawley-lane/84?utm_source=google&utm_medium=googlemybusiness&utm_campaign=organicsearch&utm_term=sr-dec-06-23&utm_content=awareness-gmbprofile-84,41.2319506,-73.1485357,4.4,1248.0,ChIJAfqL7JEL6IkR4Y2z2Iobaog,"grocery_or_supermarket, supermarket, store, point_of_interest, food, establishment"
"Shelton, CT",grocery store,retail,445110,Key Food Supermarkets,"2251 Main St, Bridgeport, CT 06606, USA",(203) 275-8485,http://www.keyfood.com/,41.1936111,-73.1986111,4.0,527.0,ChIJs9uOZ4kO6IkRQtTZp7aK_wk,"grocery_or_supermarket, supermarket, store, point_of_interest, food, establishment"
"Shelton, CT",grocery store,retail,445110,Trader Joe's,"560 Boston Post Rd, Orange, CT 06477, USA",(203) 795-5505,https://locations.traderjoes.com/ct/orange/524/?utm_source=gmb&utm_medium=organic&utm_campaign=local,41.25132310000001,-73.0177516,4.6,2661.0,ChIJ6fyDgbd16IkRkTrf4pLgrys,"grocery_or_supermarket, supermarket, store, health, point_of_interest, food, establishment"
"Shelton, CT",grocery store,retail,445110,ShopRite of Fairfield,"1975 Black Rock Tpke, Fairfield, CT 06825, USA",(203) 615-0140,https://www.shoprite.com/?utm_source=GMB&utm_medium=Local_Search&utm_campaign=dbaPlatform&utm_term=399,41.1800347,-73.2499228,4.2,858.0,ChIJS7l8p78P6IkR3xByViFK90U,"grocery_or_supermarket, supermarket, bakery, food, point_of_interest, store, establishment"
"Shelton, CT",grocery store,retail,445110,ShopRite of Southington,"750 Queen St, Southington, CT 06489, USA",(860) 736-0044,https://www.shoprite.com/?utm_source=GMB&utm_medium=Local_Search&utm_campaign=dbaPlatform&utm_term=315,41.6368048,-72.874994,4.1,914.0,ChIJtyECazi354kRNuhLMvH99ho,"grocery_or_supermarket, supermarket, bakery, food, point_of_interest, store, establishment"
"Shelton, CT",grocery store,retail,445110,Gala Foods Supermarket,"1050 E Main St, Bridgeport, CT 06608, USA",(203) 366-9060,http://www.galasupermarkets.com/,41.1884881,-73.1799645,4.0,789.0,ChIJIW9fzSoM6IkRVyMCIe3hO_Y,"supermarket, atm, grocery_or_supermarket, finance, food, point_of_interest, store, establishment"
"Shelton, CT",grocery store,retail,445110,The Fresh Market,"1919 Boston Post Rd Suite 305, Guilford, CT 06437, USA",(203) 453-0614,https://stores.thefreshmarket.com/ct/guilford/213,41.299296,-72.705929,4.2,448.0,ChIJ80T0UU0r5okRkwOOcBBX7b0,"grocery_or_supermarket, supermarket, bakery, food, point_of_interest, store, establishment"
"Shelton, CT",grocery store,retail,445110,CTown Supermarkets,"5/7 Washington St, Norwalk, CT 06854, USA",(203) 838-0888,https://locations.ctownsupermarkets.com/ctown-supermarkets-81f504b8f0f3?utm_source=Google&utm_medium=organic&utm_campaign=Yext,41.0993087,-73.4211081,4.1,516.0,ChIJucQD93we6IkRSzC4_zU8pBs,"supermarket, grocery_or_supermarket, food, point_of_interest, store, establishment"
"Shelton, CT",grocery store,retail,452210,Target,"1191 Boston Post Rd, Milford, CT 06460, USA",(203) 306-5063,https://www.target.com/sl/milford/2045,41.2345461,-73.03782600000001,3.6,268.0,ChIJ_wxV7Vd06IkRdAfMnFcRku8,"department_store, shoe_store, electronics_store, furniture_store, clothing_store, home_goods_store, point_of_interest, store, establishment"
"Shelton, CT",grocery store,retail,445110,CTown Supermarkets,"47 Main St, New Britain, CT 06051, USA",(860) 223-3800,https://locations.ctownsupermarkets.com/ctown-supermarkets-b13ca9a75be7?utm_source=Google&utm_medium=organic&utm_campaign=Yext,41.665201,-72.7807983,4.2,1275.0,ChIJc_omKsiz54kRyfh8BZyjGEI,"supermarket, grocery_or_supermarket, food, point_of_interest, store, establishment"
"Shelton, CT",grocery store,retail,445110,Price Rite Marketplace of Hamden,"1869 Dixwell Ave, Hamden, CT 06514, USA",(203) 281-0036,https://www.priceritemarketplace.com/,41.3627855,-72.9219588,4.3,986.0,ChIJaW51YhXa54kR4KNmHCFrfqA,"grocery_or_supermarket, supermarket, bakery, food, point_of_interest, store, establishment"
"Shelton, CT",grocery store,retail,445110,Stop & Shop,"505 N Main St, Southington, CT 06489, USA",(860) 620-9161,https://stores.stopandshop.com/ct/southington/505-north-main-street?y_source=1_NDE5NTcxMC03MTUtbG9jYXRpb24ud2Vic2l0ZQ%3D%3D,41.6139263,-72.8725103,4.0,739.0,ChIJyaqNRAu354kRrq4wV6eFllE,"grocery_or_supermarket, food, point_of_interest, store, establishment"
"Shelton, CT",grocery store,retail,445110,Stop & Shop,"100 Main St N, Southbury, CT 06488, USA",(203) 262-4555,https://stores.stopandshop.com/ct/southbury/100-main-street-north?y_source=1_NDE5NTI4Ny03MTUtbG9jYXRpb24ud2Vic2l0ZQ%3D%3D,41.4789876,-73.2092631,4.0,459.0,ChIJ3QuR527v54kR5aL1tIGKbJ8,"grocery_or_supermarket, food, point_of_interest, store, establishment"
"Shelton, CT",grocery store,retail,445110,Big Y World Class Market,"83 Stony Hill Rd, Bethel, CT 06801, USA",(203) 791-8589,https://www.bigy.com/rs/store-locator/83-stony-hill-road/82?utm_source=google&utm_medium=googlemybusiness&utm_campaign=organicsearch&utm_term=sr-dec-06-23&utm_content=awareness-gmbprofile-82,41.4125797,-73.3789658,4.4,815.0,ChIJ4eOc6lL554kRGqtkoPXwdgo,"grocery_or_supermarket, supermarket, food, point_of_interest, store, establishment"
"Shelton, CT",grocery store,retail,445110,ALDI,"535 Saw Mill Rd, West Haven, CT 06516, USA",(855) 955-2534,https://stores.aldi.us/ct/west-haven/535-saw-mill-rd?utm_source=google&utm_medium=local&utm_campaign=brand&utm_content=storepage_webclick,41.26886409999999,-72.9785728,4.4,1159.0,ChIJHw8DLq516IkRZFA_7HeDJLM,"supermarket, grocery_or_supermarket, food, point_of_interest, store, establishment"
"Shelton, CT",grocery store,retail,445110,Stop & Shop,"1135 Farmington Ave, Berlin, CT 06037, USA",(860) 828-0276,https://stores.stopandshop.com/ct/berlin/1135-farmington-avenue?y_source=1_NDE5NTMyMC03MTUtbG9jYXRpb24ud2Vic2l0ZQ%3D%3D,41.6303634,-72.75602719999999,4.0,793.0,ChIJp34x4n-z54kRBLiO_uSAhjw,"grocery_or_supermarket, food, point_of_interest, store, establishment"
"Shelton, CT",grocery store,retail,445110,Big Y World Class Market,"401 Bridgeport Ave, Shelton, CT 06484, USA",(203) 447-3003,https://www.bigy.com/rs/store-locator/401-bridgeport-ave/90?utm_source=google&utm_medium=googlemybusiness&utm_campaign=organicsearch&utm_term=sr-dec-06-23&utm_content=awareness-gmbprofile-90,41.2944602,-73.1111983,4.5,984.0,ChIJjT4s2x_g54kRQ2meTiUnWy8,"grocery_or_supermarket, supermarket, food, point_of_interest, store, establishment"
"Shelton, CT",grocery store,retail,445110,Stop & Shop,"760 Villa Ave, Fairfield, CT 06825, USA",(203) 333-8715,https://stores.stopandshop.com/ct/fairfield/760-villa-avenue?y_source=1_NDE5NTgwNC03MTUtbG9jYXRpb24ud2Vic2l0ZQ%3D%3D,41.1760238,-73.2291175,4.2,1244.0,ChIJe6NdRjUO6IkR2hK5edWdTcE,"grocery_or_supermarket, food, point_of_interest, store, establishment"
"Shelton, CT",grocery store,retail,445110,Stop & Shop,"100 Quality St, Trumbull, CT 06611, USA",(203) 445-1006,https://stores.stopandshop.com/ct/trumbull/100-quality-street?y_source=1_NDE5NTI4OS03MTUtbG9jYXRpb24ud2Vic2l0ZQ%3D%3D,41.2553886,-73.2167996,3.9,486.0,ChIJWUtoyhkJ6IkRstVwRHPA4-o,"grocery_or_supermarket, food, point_of_interest, store, establishment"
"Shelton, CT",grocery store,retail,445110,Stop & Shop,"5 River Rd, Wilton, CT 06897, USA",(203) 834-9735,https://stores.stopandshop.com/ct/wilton/5-river-road?y_source=1_NDE5NTI3NC03MTUtbG9jYXRpb24ud2Vic2l0ZQ%3D%3D,41.1909009,-73.4319816,4.1,168.0,ChIJbUb2380C6IkRzP7gUy6rRYk,"grocery_or_supermarket, food, point_of_interest, store, establishment"
"Shelton, CT",grocery store,retail,445110,Big Y World Class Market,"535 Monroe Turnpike, Monroe, CT 06468, USA",(203) 452-9002,https://www.bigy.com/rs/store-locator/535-monroe-turnpike/35?utm_source=google&utm_medium=googlemybusiness&utm_campaign=organicsearch&utm_term=sr-dec-06-23&utm_content=awareness-gmbprofile-35,41.3186083,-73.2166161,4.4,371.0,ChIJc4b0YnDi54kRBtFdIO8dFuY,"grocery_or_supermarket, supermarket, food, point_of_interest, store, establishment"
"Shelton, CT",grocery store,retail,445110,ALDI,"1151 W Main St Unit 1, Branford, CT 06405, USA",(855) 955-2534,https://stores.aldi.us/ct/branford/1151-west-main-st?utm_source=google&utm_medium=local&utm_campaign=brand&utm_content=storepage_webclick,41.2758663,-72.8274939,4.3,191.0,ChIJXx4XUi3X54kRlvncRfKWEIY,"supermarket, grocery_or_supermarket, food, point_of_interest, store, establishment"
"Shelton, CT",grocery store,retail,445110,New Morning Market & Vitality Center,"129 Main St N, Woodbury, CT 06798, USA",(203) 263-4868,http://www.newmorn.com/,41.554837,-73.203762,4.6,694.0,ChIJQREsXb7u54kR7DLsITaOWME,"grocery_or_supermarket, cafe, supermarket, spa, food, health, point_of_interest, store, establishment"
"Shelton, CT",indian grocery,retail,445110,MarsD Lanka,"9 Sandtrap Ln, Middletown, CT 06457, USA",(860) 834-9158,https://www.marsdlanka.com/,41.5942133,-72.6839999,5.0,10.0,ChIJHe262lFL5okRPgLXBW6TtZs,"grocery_or_supermarket, store, food, point_of_interest, establishment"
"Shelton, CT",indian grocery,retail,445110,Sai Foods,"2122 Silas Deane Hwy, Rocky Hill, CT 06067, USA",(860) 563-5000,,41.67038429999999,-72.6429406,3.8,408.0,ChIJT-JiI75N5okRc2WJelBIqbw,"supermarket, grocery_or_supermarket, store, food, point_of_interest, establishment"
"Shelton, CT",indian grocery,retail,445310,Bharat Bazaar Farmer’s Market,"81 Boston Post Rd, Orange, CT 06477, USA",(203) 298-4050,https://www.facebook.com/bharatbazaarct?mibextid=LQQJ4d,41.277925,-72.9894028,4.1,878.0,ChIJjWD8dKrY54kRO_jz-0JuBdw,"liquor_store, supermarket, grocery_or_supermarket, store, food, point_of_interest, establishment"
"Shelton, CT",indian grocery,retail,445110,Farmer's India Market,"100 Boston Post Rd, Orange, CT 06477, USA",(203) 577-5438,http://indiamarket.co/,41.2764628,-72.9888316,4.4,1618.0,ChIJldWyEKXY54kRarhIyzUjPhA,"supermarket, grocery_or_supermarket, store, food, point_of_interest, establishment"
"Shelton, CT",indian grocery,retail,445110,Asia Grocers,"540 Main St Unit B, Cromwell, CT 06416, USA",(860) 632-2262,http://asiagrocers.com/,41.6178752,-72.6523424,4.2,567.0,ChIJP6m1JrP-5okRBnlpERn3JMo,"supermarket, grocery_or_supermarket, store, food, point_of_interest, establishment"
"Shelton, CT",indian grocery,retail,445110,India Foods (Indian Grocery Store in CT),"279 Berlin Tpke, Berlin, CT 06037, USA",(860) 828-8286,,41.6426027,-72.73036019999999,4.5,179.0,ChIJUd8DUjez54kRPjmm2IboFO8,"grocery_or_supermarket, store, food, point_of_interest, establishment"
"Shelton, CT",indian grocery,retail,445110,Aapnar Bazar,"151 Spruce St, Stamford, CT 06902, USA",(203) 324-7100,http://aapnarbazar.com/,41.052983,-73.5501676,4.3,50.0,ChIJ95IUsFShwokRnp5sab8_obE,"grocery_or_supermarket, supermarket, store, food, point_of_interest, establishment"
"Shelton, CT",indian grocery,retail,445110,India Bazar,"151 Queen St B, Southington, CT 06489, USA",(860) 863-5244,,41.6208448,-72.87247049999999,4.1,307.0,ChIJ7bKO9hK354kRhN6IZxot2Cs,"grocery_or_supermarket, store, restaurant, food, point_of_interest, establishment"
"Shelton, CT",indian grocery,retail,445110,Suzy's West Indian & American,"1348 Baldwin St #1, Waterbury, CT 06706, USA",(203) 596-0658,,41.534461,-73.0345493,4.4,45.0,ChIJxW7XgXPB54kRvGQjm6qrL7M,"grocery_or_supermarket, store, food, point_of_interest, establishment"
"Shelton, CT",indian grocery,retail,445110,Bombay Sweet & Spices,"5 Padanaram Rd, Danbury, CT 06811, USA",(203) 791-2944,http://shopbombay.square.site/,41.4146856,-73.4583962,4.4,114.0,ChIJLWFn9Vn_54kRnnnATrW34a4,"grocery_or_supermarket, store, food, point_of_interest, establishment"
"Shelton, CT",indian grocery,retail,445110,Susie’s West Indian Grocery,"1338 Baldwin St, Waterbury, CT 06706, USA",,,41.53460889999999,-73.0344434,,,ChIJCT2nOQDB54kRvQCoAs9zZ9Q,"grocery_or_supermarket, store, food, point_of_interest, establishment"
"Shelton, CT",indian grocery,retail,445110,Indian Grocery Store,"749 Saybrook Rd, Middletown, CT 06457, USA",(860) 343-7799,,41.5365838,-72.6168405,4.3,39.0,ChIJX_1IFQJK5okRnNpcXzhQG90,"grocery_or_supermarket, store, food, point_of_interest, establishment"
"Shelton, CT",indian grocery,retail,445110,Indian Food & Spice,"39 Padanaram Rd A, Danbury, CT 06811, USA",(203) 730-0076,https://www.ctcurrypot.com/product,41.4182883,-73.46409020000002,4.0,140.0,ChIJJ3KDyFf_54kRVPH-izVQgjs,"grocery_or_supermarket, store, restaurant, food, point_of_interest, establishment"
"Shelton, CT",indian grocery,retail,445110,"Yeti & Yak Supermarket Nepali, Indian and Asian Grocery & Fresh produce","220 E Main St, Branford, CT 06405, USA",(203) 530-5828,,41.2901469,-72.7987502,5.0,7.0,ChIJYVaNSsfV54kRRCh9hiftufA,"grocery_or_supermarket, store, food, point_of_interest, establishment"
"Shelton, CT",indian grocery,retail,445110,Asia Supermarket Indian Grocery & Halal Meat,"2103 N Broad St, Meriden, CT 06450, USA",(203) 440-9660,https://asia-halal-meat-meriden.edan.io/,41.5744812,-72.76918119999999,3.8,38.0,ChIJD1LWU72154kRvnq-34Db0-I,"grocery_or_supermarket, supermarket, store, food, point_of_interest, establishment"
"Shelton, CT",indian grocery,retail,445110,Patel Brothers,"330 Connecticut Ave #3, Norwalk, CT 06854, USA",(203) 939-1777,https://www.patelbros.com/specials/330-connecticut-ave-norwalk,41.10293730000001,-73.4367956,4.3,1932.0,ChIJ5YrNw3Me6IkRaLHvMr36eaQ,"grocery_or_supermarket, supermarket, store, food, point_of_interest, establishment"
"Shelton, CT",indian grocery,retail,445110,Bangla Bazar,"1218 State St, Bridgeport, CT 06605, USA",(203) 338-0623,https://www.facebook.com/share/19vmsj26Ke/?mibextid=wwXIfr,41.1713475,-73.2068769,4.3,50.0,ChIJn0rKxj8O6IkRc2JxvwCkPM0,"grocery_or_supermarket, store, food, point_of_interest, establishment"
"Shelton, CT",indian grocery,retail,445110,The New Brookfield Market and Deli,"277 Whisconier Rd, Brookfield, CT 06804, USA",(203) 885-0010,,41.4826038,-73.4082198,4.6,92.0,ChIJp5BU3Jf554kR1m5CxxvtM4A,"grocery_or_supermarket, meal_takeaway, store, restaurant, food, point_of_interest, establishment"
"Shelton, CT",indian grocery,retail,445120,Tarrar Grocery,"315 N Colony St, Wallingford, CT 06492, USA",(203) 265-5939,http://www.gulfoil.com/,41.4616961,-72.8209632,4.4,15.0,ChIJk9psvJbO54kRurPQOZRiC_Q,"convenience_store, store, food, point_of_interest, establishment"
"Shelton, CT",indian grocery,retail,445110,Caribbean West Indian Market,"75 Arch St, New Britain, CT 06051, USA",(860) 224-2811,,41.6647668,-72.7822443,4.6,16.0,ChIJk0zIQMiz54kRkbcYVkPiDc4,"grocery_or_supermarket, store, food, point_of_interest, establishment"
"Shelton, CT",indian grocery,retail,445110,Al Haramain Market,"254 Bull Hill Ln, Orange, CT 06477, USA",(203) 553-9646,,41.2738642,-72.98837759999999,4.5,128.0,ChIJAekqbAF26IkRVzCKUizdrcs,"grocery_or_supermarket, point_of_interest, food, store, establishment"
"Shelton, CT",indian grocery,retail,445110,Swadesh Supermarket & Halal Meat,"1919 N Broad St, Meriden, CT 06450, USA",(475) 775-5863,,41.5694236,-72.771739,4.5,43.0,ChIJCRocrlS154kRPelIvQhY-MI,"grocery_or_supermarket, point_of_interest, food, store, establishment"
"Shelton, CT",indian grocery,retail,445110,K & J Grocery Store,"1012 Grand St, Bridgeport, CT 06604, USA",(203) 330-5735,,41.1823293,-73.202721,3.6,31.0,ChIJxzlDLGYO6IkRCU3DIt-S5z0,"grocery_or_supermarket, point_of_interest, food, store, establishment"
"Shelton, CT",indian grocery,retail,445110,Baghdad Halal Super Market,"978 State St, Bridgeport, CT 06605, USA",(203) 690-1313,,41.17260659999999,-73.2030343,4.3,101.0,ChIJSZaN1WoO6IkRviDiFnaawbg,"grocery_or_supermarket, point_of_interest, food, store, establishment"
"Shelton, CT",indian grocery,retail,445110,Maribel Grocery,"235 Madison Ave, Bridgeport, CT 06604, USA",(203) 333-6220,http://maribel-grocery.jany.io/,41.1869228,-73.1973003,4.2,46.0,ChIJoV0EnGMO6IkR6t1te272W-c,"grocery_or_supermarket, point_of_interest, food, store, establishment"
"Shelton, CT",indian grocery,retail,445120,Bangal Mart,"424 Slater Rd, New Britain, CT 06053, USA",(860) 357-4159,,41.6786914,-72.8108113,4.3,12.0,ChIJJxnTjCmx54kR7Kvw7wGJKHY,"convenience_store, point_of_interest, food, store, establishment"
"Shelton, CT",indian grocery,retail,445110,Saray Market & Deli LLC.,"179 Kelsey St, New Britain, CT 06051, USA",(860) 357-3946,,41.6624783,-72.762293,4.2,37.0,ChIJO5XI0Kiz54kRCOSTKpPdcFk,"grocery_or_supermarket, point_of_interest, food, store, establishment"
"Shelton, CT",indian grocery,retail,445110,Million Asian Market,"15 Orange St, New Haven, CT 06510, USA",(203) 782-1234,https://m.facebook.com/Million-Asian-Market-%E5%BA%B7%E5%B7%9E%E5%8C%97%E4%BA%AC%E8%B6%85%E5%B8%82-1536280459988341/,41.3035564,-72.9253631,4.4,305.0,ChIJ9f3bVErY54kR2NneVsqXiHo,"supermarket, grocery_or_supermarket, point_of_interest, food, store, establishment"
"Shelton, CT",indian grocery,retail,445110,Mist Convenience,"340 Orange St, New Haven, CT 06511, USA",(203) 691-7966,,41.3101069,-72.92090859999999,5.0,8.0,ChIJAa0p2vTZ54kRv_uB1y8EzD0,"grocery_or_supermarket, convenience_store, point_of_interest, food, store, establishment"
"Shelton, CT",indian grocery,retail,445110,Nur Grocery INC,"545 Ferry St, New Haven, CT 06513, USA",,,41.3147458,-72.8967627,3.7,7.0,ChIJW1b9RGLX54kRInQvomDjfIc,"grocery_or_supermarket, point_of_interest, food, store, establishment"
"Shelton, CT",retail food,retail,445120,Atlantis Fresh Market - #529 (Now Delivering!),"90 West St, Danbury, CT 06810, USA",(203) 826-8240,http://www.atlantisfreshmarket.com/,41.39184540000001,-73.4593724,4.1,102.0,ChIJdd0S9Xv_54kR4sqePmAD4P0,"convenience_store, gas_station, grocery_or_supermarket, store, food, point_of_interest, establishment"
"Shelton, CT",retail food,retail,445120,Teddy's Stores & smoke shop,"1100 E Main St, Meriden, CT 06450, USA",(203) 686-0008,,41.5261861,-72.7668151,3.8,5.0,ChIJ8c5_zp7L54kRSpztxtesjGg,"convenience_store, store, food, point_of_interest, establishment"
"Shelton, CT",retail food,retail,445120,Atlantis Fresh Market - #517 (Now Delivering!),"77 Greenwood Ave, Bethel, CT 06801, USA",(203) 826-8076,http://www.atlantisfreshmarket.com/,41.371937,-73.4078554,4.3,56.0,ChIJKex18lD-54kRzhajyLGJMls,"convenience_store, gas_station, store, food, point_of_interest, establishment"
"Shelton, CT",retail food,retail,445120,Sam's Food Store,"285 Whalley Ave, New Haven, CT 06511, USA",(203) 562-1648,https://samsfoodstores.com/,41.3167475,-72.9422064,2.6,19.0,ChIJW5Sv5ajZ54kRkdSeTxyS1qE,"convenience_store, store, food, point_of_interest, establishment"
"Shelton, CT",retail food,retail,445110,KeyFood Supermarket,"60 E Main St, New Britain, CT 06051, USA",(860) 505-0718,http://keyfood.com/,41.671579,-72.7802272,4.0,258.0,ChIJi80VtPSz54kRFXebfkLPyFQ,"grocery_or_supermarket, store, food, point_of_interest, establishment"
"Shelton, CT",retail food,retail,445120,Krauszer's Food Store,"10 Jones Hill Rd, West Haven, CT 06516, USA",(203) 932-0113,,41.2365461,-72.9867086,3.3,19.0,ChIJc5GeRId26IkRnS0hi8d42yk,"convenience_store, store, food, point_of_interest, establishment"
"Shelton, CT",retail food,retail,445120,Dream Food Mart,"284 Colonial Ave, Waterbury, CT 06704, USA",,,41.5873536,-73.0606244,4.0,4.0,ChIJ8bYNq23A54kR9hpK8krM1Z4,"convenience_store, store, food, point_of_interest, establishment"
"Shelton, CT",retail food,retail,,Connecticut Post Mall,"1201 Boston Post Rd, Milford, CT 06460, USA",(203) 301-2240,http://www.shopconnecticutpostmall.com/,41.2360074,-73.0355201,4.3,7922.0,ChIJIesqlld06IkRp4t0oYkyXNo,"shopping_mall, point_of_interest, establishment"
"Shelton, CT",retail food,retail,448140,Danbury Fair,"7 Backus Ave, Danbury, CT 06810, USA",(203) 743-3247,https://www.danburyfairmall.com/?utm_source=google&utm_medium=onlinesearch&utm_content=gmp_website_button&utm_campaign=yext,41.3808668,-73.4814371,4.4,8610.0,ChIJH9pyJ25V3YkR2rLj-E9Ktp8,"shopping_mall, clothing_store, store, restaurant, food, point_of_interest, establishment"
"Shelton, CT",retail food,retail,445110,New Britain Market Place,"37 Broad St, New Britain, CT 06053, USA",(860) 612-0200,,41.6735289,-72.7847972,4.5,44.0,ChIJeQp1yzSy54kR-GEpxx50QAs,"grocery_or_supermarket, store, food, point_of_interest, establishment"
"Shelton, CT",retail food,retail,445110,IGA Westside Marketplace,"887 Cromwell Ave, Rocky Hill, CT 06067, USA",(860) 529-2200,https://www.west-side-market.com/,41.6464798,-72.6789943,4.6,743.0,ChIJLe_ZQ-9M5okRkbVgcZgd5uc,"grocery_or_supermarket, supermarket, store, food, point_of_interest, establishment"
"Shelton, CT",retail food,retail,445110,"Grade A Markets- Newfield Ave.- Stamford, CT","563 Newfield Ave, Stamford, CT 06905, USA",(203) 356-1662,https://www.shoprite.com/?utm_source=GMB&utm_medium=Local_Search&utm_campaign=dbaPlatform&utm_term=391,41.0799107,-73.53300759999999,4.4,587.0,ChIJ_wQ7O6KhwokRV0T_E-8dZn8,"grocery_or_supermarket, bakery, supermarket, store, food, point_of_interest, establishment"
"Shelton, CT",retail food,retail,445120,Alltown,"535 Prudden Ln, Orange, CT 06477, USA",(203) 799-0765,https://www.alltown.com/,41.28000919999999,-73.0477823,4.7,3.0,ChIJJVrnmXt16IkRMdmOt2LotDg,"gas_station, convenience_store, store, food, point_of_interest, establishment"
"Shelton, CT",retail food,retail,445110,Tops Marketplace,"887 Meriden-Waterbury Turnpike, Plantsville, CT 06479, USA",(860) 621-5837,http://www.topsmarketplace.com/,41.5633182,-72.8745323,4.4,206.0,ChIJvxH_hyLI54kR7iBTE6KktR8,"supermarket, meal_takeaway, bakery, grocery_or_supermarket, store, restaurant, food, point_of_interest, establishment"
"Shelton, CT",retail food,retail,445120,Around The Clock Food Mart,"1370 Whalley Ave, New Haven, CT 06515, USA",(203) 387-7187,,41.3320938,-72.9749904,3.6,5.0,ChIJE78zSD_Z54kR6YtCvE-GMew,"convenience_store, store, food, point_of_interest, establishment"
"Shelton, CT",retail food,retail,445110,ShopRite of Shelton,"875 Bridgeport Ave, Shelton, CT 06484, USA",(203) 225-9224,https://www.shoprite.com/?utm_source=GMB&utm_medium=Local_Search&utm_campaign=dbaPlatform&utm_term=398,41.2648651,-73.1347605,4.4,1328.0,ChIJvUMR4vgK6IkRdWrLgwyu4QY,"grocery_or_supermarket, bakery, supermarket, store, food, point_of_interest, establishment"
"Shelton, CT",retail food,retail,445110,Atticus Market,"771 Orange St, New Haven, CT 06511, USA",(475) 261-4133,https://atticusnhv.com/,41.3213321,-72.9118526,4.6,233.0,ChIJRZYMvJXZ54kRncwBqoEk9jk,"meal_takeaway, cafe, bakery, grocery_or_supermarket, store, restaurant, food, point_of_interest, establishment"
"Shelton, CT",retail food,retail,445110,Connecticut Fresh Food & Produce Market,"920 S Colony Rd, Wallingford, CT 06492, USA",(203) 234-2162,http://ctfreshfoodandproduce.com/,41.4353453,-72.8326587,4.5,677.0,ChIJlTga8S_O54kRZ8uEknEq9L4,"supermarket, grocery_or_supermarket, store, food, point_of_interest, establishment"
"Shelton, CT",retail food,retail,445110,The Outlet,"74 Spring St, Southington, CT 06489, USA",(860) 426-1533,http://www.theoutletct.com/,41.6337562,-72.87671379999999,4.5,184.0,ChIJ6SCs6kC354kRt_d1X-sUlvo,"supermarket, grocery_or_supermarket, store, food, point_of_interest, establishment"
"Shelton, CT",retail food,retail,445110,CTown Supermarkets,"160 Colony St, Meriden, CT 06451, USA",(203) 235-7000,https://www.ctownsupermarkets.com/weekly-circular/store_code/u41_463,41.5423099,-72.8002822,4.1,1226.0,ChIJfenIHh_K54kRL4k7gI_uKVU,"supermarket, grocery_or_supermarket, store, food, point_of_interest, establishment"
"Shelton, CT",retail food,retail,445110,LC Cash & Carry,"301 Food Terminal Plaza, New Haven, CT 06511, USA",(203) 773-3486,http://lcfinefoods.com/,41.2941818,-72.9218215,4.7,54.0,ChIJ5XIjZTjY54kRbNVE0Wim_Wo,"grocery_or_supermarket, store, food, point_of_interest, establishment"
"Shelton, CT",retail food,retail,445110,It's Only Natural Market,"575 Main St, Middletown, CT 06457, USA",(860) 346-1786,http://www.itsonlynaturalmarket.com/,41.5638443,-72.6521599,4.2,130.0,ChIJ7XjBn0RK5okROuADqUDC9hk,"grocery_or_supermarket, supermarket, store, food, point_of_interest, establishment"
"Shelton, CT",retail food,retail,445110,Chamomille Natural Foods,"58-60 Newtown Rd, Danbury, CT 06810, USA",(203) 792-8952,,41.4057373,-73.4208896,4.6,161.0,ChIJy-640ib_54kRnzjElFo1_lk,"grocery_or_supermarket, store, health, food, point_of_interest, establishment"
"Shelton, CT",retail food,retail,445110,Thyme & Season,"3040 Whitney Ave, Hamden, CT 06518, USA",(203) 407-8128,https://www.thymeandseason.net/,41.4058416,-72.8996043,4.4,174.0,ChIJ6x_LQ6fa54kRQVaIPgy_W_c,"grocery_or_supermarket, store, health, food, point_of_interest, establishment"
"Shelton, CT",retail food,retail,445120,7-Eleven,"461 New Britain Ave, Newington, CT 06111, USA",(860) 594-8555,https://www.7-eleven.com/locations/ct/newington/461-new-britain-av-11479?utm_source=G&utm_medium=local&utm_campaign=google-local,41.6733169,-72.74161980000001,3.4,28.0,ChIJw0QuUuSy54kRFUGv8_P7AYs,"convenience_store, cafe, liquor_store, store, restaurant, food, point_of_interest, establishment"
"Shelton, CT",retail food,retail,,Restaurant Depot,"181 Marsh Hill Rd, Orange, CT 06477, USA",(203) 795-9900,https://www.restaurantdepot.com/?utm_source=listings&utm_medium=search&utm_campaign=traffic-tracking&utm_content=East-Coast&utm_term=571-NEW-ENGLAND,41.2595878,-72.99863119999999,3.8,485.0,ChIJeb0hFtx16IkRN5jlWkBBUIk,"food, point_of_interest, establishment"
"Shelton, CT",retail food,retail,445110,Good Nature Market,"44 Whitney Ave, New Haven, CT 06510, USA",(203) 776-0400,https://theshopsatyale.com/listings/good-nature-market/,41.3117719,-72.9223037,3.2,81.0,ChIJHZryH7bZ54kRj7kOqaxaeBs,"grocery_or_supermarket, store, food, point_of_interest, establishment"
"Shelton, CT",retail food,retail,445110,Whitneyville Food Center,"1248 Whitney Ave, Hamden, CT 06517, USA",(203) 248-4471,https://www.whitneyvillefood.com/,41.3465052,-72.9128755,4.6,203.0,ChIJw9HZ8Rza54kRaau4B-cQBRo,"grocery_or_supermarket, store, food, point_of_interest, establishment"
"Shelton, CT",retail food,retail,445110,Old Kings Market,"25 Old Kings Hwy S, Darien, CT 06820, USA",(203) 863-8200,https://www.regencycenters.com/property/detail/70002/Old-Kings-Market,41.0785816,-73.4654845,4.3,288.0,ChIJv2K7BpKhwokRRmxnN-lcsng,"shopping_mall, grocery_or_supermarket, store, restaurant, food, point_of_interest, establishment"
"Shelton, CT",retail food,retail,445110,Big Y World Class Market,"85 Bridge St, Naugatuck, CT 06770, USA",(203) 729-4124,https://www.bigy.com/rs/store-locator/85-bridge-street-rt-68/32?utm_source=google&utm_medium=googlemybusiness&utm_campaign=organicsearch&utm_term=sr-dec-06-23&utm_content=awareness-gmbprofile-32,41.50016859999999,-73.053158,4.3,1507.0,ChIJawE5ATjC54kRpXKSPj1smJc,"grocery_or_supermarket, supermarket, store, food, point_of_interest, establishment"
"Shelton, CT",retail food,retail,445110,Save A Lot,"540 Pequonnock St, Bridgeport, CT 06604, USA",(203) 335-0540,https://savealot.com/stores/61256?utm_campaign=gmb&utm_medium=organic&utm_source=google,41.1831873,-73.2043679,3.8,565.0,ChIJAcQv4GcO6IkRhcgDmLS5gPM,"grocery_or_supermarket, store, food, point_of_interest, establishment"
"Shelton, CT",retail food,retail,,Milford Marketplace,"1650 Boston Post Rd, Milford, CT 06460, USA",(630) 368-2227,http://www.milfordmarketplace.com/,41.2475237,-73.0268761,4.4,927.0,ChIJ16PuObJ16IkRUlJ9cMDpDPE,"shopping_mall, point_of_interest, establishment"
"Shelton, CT",retail food,retail,,Trumbull Mall,"5065 Main St, Trumbull, CT 06611, USA",(203) 372-4500,https://trumbullmall.com/,41.2295021,-73.2263573,4.3,7710.0,ChIJnUo2gNYO6IkRE05UYPzZSuQ,"shopping_mall, point_of_interest, establishment"
"Shelton, CT",retail food,retail,452210,Meriden Mall,"470 Lewis Ave, Meriden, CT 06451, USA",(203) 235-3343,http://www.meridenmall.com/,41.5510076,-72.8077014,3.9,5524.0,ChIJTSk8rgLK54kRiNWigp3-2lw,"shopping_mall, department_store, shoe_store, clothing_store, restaurant, food, point_of_interest, store, establishment"
"Shelton, CT",retail food,retail,445110,Edge of the Woods Market,"379 Whalley Ave, New Haven, CT 06511, USA",(203) 787-1055,http://www.eotwm.com/,41.3179634,-72.9454432,4.5,397.0,ChIJE0PeGajZ54kRRV54mmt-lVY,"grocery_or_supermarket, bakery, clothing_store, health, restaurant, food, point_of_interest, store, establishment"
"Shelton, CT",retail food,retail,445110,Brookside Center,"4531 Main St, Bridgeport, CT 06606, USA",(888) 507-8041,https://www.dlcmgmt.com/property-search/#/property/90db9da4fc5414ab55a9fe495d555c06-17dd809358c85bae75ee806566619539,41.2216318,-73.2190346,4.3,1019.0,ChIJ6_cTsNoO6IkR3M66lU8bkiM,"grocery_or_supermarket, food, point_of_interest, store, establishment"
"Shelton, CT",retail food,retail,445110,Southbury Green,"775 Main St S, Southbury, CT 06488, USA",(203) 635-5560,https://www.southburygreenct.com/,41.4628515,-73.2300326,4.5,1003.0,ChIJ4_OT3Xjl54kRC-_YsjXAg3o,"shopping_mall, grocery_or_supermarket, restaurant, food, point_of_interest, store, establishment"
"Shelton, CT",retail food,retail,445110,Trader Joe's,"400 Post Rd E, Westport, CT 06880, USA",(203) 226-8966,https://locations.traderjoes.com/ct/westport/521/?utm_source=gmb&utm_medium=organic&utm_campaign=local,41.1398314,-73.3519089,4.7,533.0,ChIJo4K4DXQb6IkRcl_TeIhV6cs,"grocery_or_supermarket, supermarket, health, food, point_of_interest, store, establishment"
"Shelton, CT",retail food,retail,,Hamden Mart,"2340 Dixwell Ave &, Skiff St, Hamden, CT 06514, USA",(833) 800-4343,https://www.kimcorealty.com/properties/grove-gate-sc/101290/view,41.3730518,-72.9179149,4.2,2557.0,ChIJVUWYxGXa54kRh6iBhL9z6rI,"shopping_mall, point_of_interest, establishment"
"Shelton, CT",retail food,retail,445110,Trader Joe's,"1041 High Ridge Rd, Stamford, CT 06905, USA",(203) 321-8440,https://locations.traderjoes.com/ct/stamford/529/?utm_source=gmb&utm_medium=organic&utm_campaign=local,41.1068964,-73.5473117,4.6,1522.0,ChIJxScXtUKhwokR2Zj6bw9e0mg,"grocery_or_supermarket, supermarket, health, food, point_of_interest, store, establishment"
"Shelton, CT",retail food,retail,445110,Angelo's Market,"349 W Main St, New Britain, CT 06052, USA",(860) 223-7340,https://www.angelosmarket.com/,41.6658098,-72.7932999,4.7,410.0,ChIJeytdENCz54kRSNI_aY3-7kI,"grocery_or_supermarket, bakery, food, point_of_interest, store, establishment"
"Shelton, CT",retail food,retail,445110,C & S Grocery,"81 Woodward Ave, Norwalk, CT 06854, USA",(203) 838-6198,,41.0896311,-73.41596489999999,4.6,122.0,ChIJ0_aaT4oe6IkRuuo4vjr2HUw,"grocery_or_supermarket, supermarket, food, point_of_interest, store, establishment"
"Shelton, CT",retail food,retail,445110,Trader Joe's,"436 Boston Post Rd, Darien, CT 06820, USA",(203) 656-1414,https://locations.traderjoes.com/ct/darien/522/?utm_source=gmb&utm_medium=organic&utm_campaign=local,41.084439,-73.46172949999999,4.7,1019.0,ChIJVRHytSce6IkRbekYVex3kEc,"grocery_or_supermarket, supermarket, health, food, point_of_interest, store, establishment"
"Shelton, CT",retail food,retail,445120,Shops Smart Food Market,"284 Putnam St, New Haven, CT 06519, USA",(203) 498-2382,,41.2947804,-72.937902,4.5,12.0,ChIJG5C0olvY54kRmxirNodAIFw,"convenience_store, grocery_or_supermarket, food, point_of_interest, store, establishment"
"Shelton, CT",retail food,retail,445110,New Milford Plaza,"164-168 Danbury Rd, New Milford, CT 06776, USA",(203) 863-8200,https://www.regencycenters.com/property/detail/70015/New-Milford-Plaza,41.5510159,-73.4180092,4.2,1008.0,ChIJkZ5LT1_254kRF_cDTkb6DHA,"shopping_mall, grocery_or_supermarket, restaurant, food, point_of_interest, store, establishment"
"Shelton, CT",retail food,retail,445110,Liuzzi Gourmet Food Market,"322 State St, North Haven, CT 06473, USA",(203) 248-4356,https://www.liuzzimarket.com/,41.3718462,-72.88623299999999,4.8,1027.0,ChIJW08lcI_Q54kRoFBF9lf1NQM,"grocery_or_supermarket, food, point_of_interest, store, establishment"
"Shelton, CT",retail food,retail,445110,Country Food Market,"2215 State St, Hamden, CT 06517, USA",(203) 865-8834,,41.3416229,-72.89533759999999,4.6,204.0,ChIJL-haIavQ54kRnk2aUFxm_yA,"grocery_or_supermarket, food, point_of_interest, store, establishment"
"Shelton, CT",retail food,retail,445120,Food Market Inc,"538 Whalley Ave, New Haven, CT 06511, USA",(203) 397-1485,,41.3200769,-72.9510481,4.2,40.0,ChIJ7QbspgjZ54kRvkO9szmz6YY,"convenience_store, grocery_or_supermarket, food, point_of_interest, store, establishment"
"Shelton, CT",retail food,retail,445110,Copps Hill Plaza,"125 Danbury Rd, Ridgefield, CT 06877, USA",(203) 635-5560,https://www.regencycenters.com/property/detail/80033/Copps-Hill-Plaza,41.2950982,-73.4941315,4.3,434.0,ChIJb20LmnurwokRXtJbV0chJy0,"shopping_mall, grocery_or_supermarket, restaurant, food, point_of_interest, store, establishment"
"Shelton, CT",retail food,retail,445110,Good Food,"518 Boston Post Rd, Orange, CT 06477, USA",(203) 553-9315,http://www.russiangoodfood.com/,41.2540982,-73.0165502,4.8,49.0,ChIJDbFEfoJ16IkR8DkjLqsLK0o,"grocery_or_supermarket, food, point_of_interest, store, establishment"
"Shelton, CT",retail food,retail,445120,Eddy's Food Center,"276 Howard Ave, New Haven, CT 06519, USA",(203) 787-2339,,41.288776,-72.9320777,4.0,30.0,ChIJOzvli0LY54kR2ThgrTnxKBg,"convenience_store, food, point_of_interest, store, establishment"
"Shelton, CT",clothing store,retail,448140,K&G Fashion Superstore,"80 Boston Post Rd #19, Orange, CT 06477, USA",(203) 795-3757,https://www.kgstores.com/kg/store/get/216?utm_source=google&utm_medium=listing&utm_content=216&utm_campaign=CT,41.2771568,-72.9869918,4.2,313.0,ChIJ9wHADarY54kRBXdvvu52Noc,"clothing_store, shoe_store, store, point_of_interest, establishment"
"Shelton, CT",clothing store,retail,448140,Citi Trends,"1245 Dixwell Ave, Hamden, CT 06514, USA",(475) 282-0881,https://locations.cititrends.com/ct/hamden/1245-dixwell-avenue.html,41.34652,-72.9318898,4.4,224.0,ChIJhWFQkCfa54kRHFYGKL_YlHQ,"clothing_store, shoe_store, store, point_of_interest, establishment"
"Shelton, CT",clothing store,retail,448210,Rainbow Shops,"220 E Main St, New Britain, CT 06051, USA",(860) 200-4435,https://stores.rainbowshops.com/ct/new-britain/858/?utm_source=G&utm_medium=lpm&utm_campaign=RainbowShops,41.6714509,-72.7772464,4.1,132.0,ChIJX1spgMqz54kRNwhIgV5sqQQ,"shoe_store, jewelry_store, clothing_store, store, point_of_interest, establishment"
"Shelton, CT",clothing store,retail,448140,Burlington,"2135-2715 Summer St, Stamford, CT 06905, USA",(203) 363-0450,https://stores.burlington.com/ct/stamford/445/?utm_source=google&utm_medium=organic&utm_campaign=maps,41.0668959,-73.5453782,3.7,623.0,ChIJsWzvH-ahwokR9R-4RAlCauA,"clothing_store, department_store, jewelry_store, home_goods_store, store, point_of_interest, establishment"
"Shelton, CT",clothing store,retail,448140,Old Navy,"2175 Summer St, Stamford, CT 06905, USA",(203) 325-4088,https://oldnavy.gap.com/stores/ct/stamford/oldnavy-5899.html,41.0673142,-73.5451023,4.0,281.0,ChIJY0T6xpKhwokRRN9WrDzoV2Q,"clothing_store, store, point_of_interest, establishment"
"Shelton, CT",clothing store,retail,448140,The Busted Tank® An Affordable Post Mastectomy Clothing Shop,"37 Main St, New Milford, CT 06776, USA",(860) 248-0010,http://bustedtank.com/?utm_source=google&utm_medium=wix_google_business_profile&utm_campaign=4473972198625936793,41.5781702,-73.41188319999999,4.8,52.0,ChIJofxndkn154kRM1nvoDiuPlQ,"clothing_store, store, point_of_interest, establishment"
"Shelton, CT",clothing store,retail,448140,Madrag,"148 Boston Ave, Bridgeport, CT 06610, USA",(203) 335-0416,http://www.madrag.com/,41.20067299999999,-73.1877853,4.0,144.0,ChIJH1DEepwO6IkRT5S2pSL9uR0,"clothing_store, store, point_of_interest, establishment"
"Shelton, CT",clothing store,retail,448140,Burlington,"800 Barnum Avenue Cutoff, Stratford, CT 06614, USA",(203) 377-1166,https://stores.burlington.com/ct/stratford/22/?utm_source=google&utm_medium=organic&utm_campaign=maps,41.1995562,-73.12814089999999,4.0,1097.0,ChIJY-X_ZvMM6IkRnHwKnfoHzv0,"clothing_store, department_store, jewelry_store, home_goods_store, store, point_of_interest, establishment"
"Shelton, CT",clothing store,retail,448140,Citi Trends,"650 Wolcott St Unit# 60, Waterbury, CT 06705, USA",(475) 282-1889,https://locations.cititrends.com/ct/waterbury/650-wolcott-street.html,41.5586586,-73.0104708,4.2,125.0,ChIJ0RSHDNzA54kRwQYjuydNmAU,"clothing_store, shoe_store, store, point_of_interest, establishment"
"Shelton, CT",clothing store,retail,448140,More Amour Boutique,"1130 Chapel St, New Haven, CT 06511, USA",(475) 333-0863,http://shopmoreamour.com/,41.308374,-72.9318617,5.0,14.0,ChIJjyo3WE_Z54kREWhAPqF_UrA,"clothing_store, store, point_of_interest, establishment"
"Shelton, CT",clothing store,retail,448140,Hello Boutique,"2351 Boston Post Rd Suite 404, Guilford, CT 06437, USA",(203) 562-0204,https://helloboutique.com/,41.3083687,-72.7196349,4.9,89.0,ChIJs-s1Zp3V54kRnV71w7JG8yA,"clothing_store, store, point_of_interest, establishment"
"Shelton, CT",clothing store,retail,452210,Marshalls,"2235 Summer St, Stamford, CT 06905, USA",(203) 356-9667,https://www.marshalls.com/,41.0678999,-73.5453508,4.2,613.0,ChIJY0T6xpKhwokRMpk9XfGxZy0,"department_store, clothing_store, store, point_of_interest, establishment"
"Shelton, CT",clothing store,retail,448140,Primark,"Fair Mall, 7 Backus Ave, Danbury, CT 06810, USA",(203) 730-6642,https://www.primark.com/en-us/stores/danbury-ct/danbury-fair-mall?y_source=1_ODU3OTU5MC03MTUtbG9jYXRpb24ud2Vic2l0ZQ==,41.379313,-73.482799,4.6,2516.0,ChIJRyfKwnFV3YkRDS8gBRGIJtM,"clothing_store, department_store, store, point_of_interest, establishment"
"Shelton, CT",clothing store,retail,448140,Burlington,"2300 Dixwell Ave Unit BC, Hamden, CT 06514, USA",(203) 230-0706,https://stores.burlington.com/ct/hamden/1036/?utm_source=google&utm_medium=organic&utm_campaign=maps,41.3722222,-72.91982810000002,4.0,254.0,ChIJuSPPWGja54kRHKNQ9D7UVRA,"clothing_store, department_store, jewelry_store, home_goods_store, store, point_of_interest, establishment"
"Shelton, CT",clothing store,retail,452210,Marshalls,"4487 Main St, Bridgeport, CT 06606, USA",(203) 374-9651,https://www.marshalls.com/,41.219984,-73.21878699999999,4.3,718.0,ChIJwxPF08QO6IkREtwfCIOlmj8,"department_store, clothing_store, store, point_of_interest, establishment"
"Shelton, CT",clothing store,retail,448140,Express,"7 Backus Ave F104, Danbury, CT 06810, USA",(203) 790-6513,https://stores.express.com/us/ct/danbury/7-backus-ave?CID=Yext,41.38074599999999,-73.4801635,3.9,47.0,ChIJo8UwlXpV3YkRcl-0rdkxZ6o,"clothing_store, store, point_of_interest, establishment"
"Shelton, CT",clothing store,retail,448140,Burlington,"533 S Broad St, Meriden, CT 06450, USA",(203) 630-0647,https://stores.burlington.com/ct/meriden/379/?utm_source=google&utm_medium=organic&utm_campaign=maps,41.5084877,-72.80588530000001,4.2,358.0,ChIJ15d2uWPJ54kRRLS0y4y0OHU,"clothing_store, department_store, jewelry_store, home_goods_store, store, point_of_interest, establishment"
"Shelton, CT",clothing store,retail,448140,Mitchells,"670 Post Rd E, Westport, CT 06880, USA",(203) 227-5165,http://www.mitchells.com/,41.1378183,-73.3433223,4.5,92.0,ChIJm7KtwQsb6IkRpPymXTYs8jE,"clothing_store, department_store, jewelry_store, store, point_of_interest, establishment"
"Shelton, CT",clothing store,retail,448140,Express,"1201 Boston Post Rd, Milford, CT 06460, USA",(203) 878-5567,https://stores.express.com/us/ct/milford/1201-boston-post-rd?CID=Yext,41.2355864,-73.0366258,4.1,97.0,ChIJZcvbLVh06IkRswirbKx9pS0,"clothing_store, store, point_of_interest, establishment"
"Shelton, CT",clothing store,retail,448140,Old Navy,"100 Main St N, Southbury, CT 06488, USA",(203) 267-9135,https://oldnavy.gap.com/stores/ct/southbury/oldnavy-1408.html,41.4783518,-73.2110098,3.7,68.0,ChIJD3Xi3nvv54kRcr__GJuGB68,"clothing_store, store, point_of_interest, establishment"
"Shelton, CT",clothing store,retail,452210,Marshalls,"282 New Britain Ave, Plainville, CT 06062, USA",(860) 747-5222,https://www.marshalls.com/,41.6730656,-72.838262,4.3,573.0,ChIJ6Vuq8gWx54kR-VkuSbbtTFE,"department_store, clothing_store, store, point_of_interest, establishment"
"Shelton, CT",clothing store,retail,448140,Old Navy,"2215 Black Rock Tpke, Fairfield, CT 06825, USA",(203) 338-9663,https://oldnavy.gap.com/stores/ct/fairfield/oldnavy-6181.html,41.18137189999999,-73.2539601,4.1,152.0,ChIJkwrKf5UP6IkRR5wKXPCJvCU,"clothing_store, store, point_of_interest, establishment"
"Shelton, CT",clothing store,retail,452210,Marshalls,"2100 Dixwell Ave, Hamden, CT 06514, USA",(203) 281-7580,https://www.marshalls.com/,41.370239,-72.92184999999999,4.3,514.0,ChIJh2xM62na54kRfdffqKpyy2M,"department_store, clothing_store, store, point_of_interest, establishment"
"Shelton, CT",clothing store,retail,448140,Burlington,"1 Padanaram Rd, Danbury, CT 06811, USA",(203) 748-8583,https://stores.burlington.com/ct/danbury/126/?utm_source=google&utm_medium=organic&utm_campaign=maps,41.41346360000001,-73.4563675,4.0,351.0,ChIJKanJrlv_54kRzp5d5v-rjb4,"clothing_store, department_store, jewelry_store, home_goods_store, store, point_of_interest, establishment"
"Shelton, CT",clothing store,retail,452210,Marshalls,"416 E Main St, Middletown, CT 06457, USA",(860) 638-1237,https://www.marshalls.com/,41.5464016,-72.63727659999999,4.2,562.0,ChIJ_1HJyhJK5okRms53Iv5HVhM,"department_store, clothing_store, store, point_of_interest, establishment"
"Shelton, CT",clothing store,retail,452210,Marshalls,"1141 Main St, Watertown, CT 06795, USA",(860) 274-5481,https://www.marshalls.com/,41.59492710000001,-73.1089872,4.2,653.0,ChIJR1F_7Ljq54kR0-3EyjhcdZ8,"department_store, clothing_store, store, point_of_interest, establishment"
"Shelton, CT",clothing store,retail,452210,Marshalls,"700 Post Rd, Fairfield, CT 06824, USA",(203) 319-1044,https://www.marshalls.com/,41.1490819,-73.24772229999999,4.4,622.0,ChIJFVTLqzwQ6IkRrQhm5m6DAU4,"department_store, clothing_store, store, point_of_interest, establishment"
"Shelton, CT",clothing store,retail,448140,Old Navy,"1212 Boston Post Rd, Milford, CT 06460, USA",(203) 951-6711,https://oldnavy.gap.com/stores/ct/milford/oldnavy-5312.html,41.2370364,-73.0392979,4.2,375.0,ChIJd1RL61d06IkRDp0ie0agUY8,"clothing_store, store, point_of_interest, establishment"
"Shelton, CT",clothing store,retail,452210,T.J. Maxx,"425 Tunxis Hill Cut Off, Fairfield, CT 06825, USA",(203) 334-3341,https://tjmaxx.tjx.com/store/index.jsp,41.1778697,-73.2397797,4.3,729.0,ChIJ6879YLUP6IkRUIwOcGE2lo0,"department_store, jewelry_store, clothing_store, store, point_of_interest, establishment"
"Shelton, CT",clothing store,retail,448140,J.Crew,"29 Broadway, New Haven, CT 06511, USA",(203) 624-7101,https://stores.jcrew.com/us/ct/new-haven/29-broadway,41.3113232,-72.9304641,4.0,58.0,ChIJD9a12rPZ54kRS-y_v-CUIGs,"clothing_store, shoe_store, store, point_of_interest, establishment"
"Shelton, CT",clothing store,retail,452210,T.J. Maxx,"875 Queen St, Southington, CT 06489, USA",(860) 621-7424,https://tjmaxx.tjx.com/store/index.jsp,41.6406965,-72.8725863,4.2,556.0,ChIJP8j2IEi354kR1V36TCI9Sq8,"department_store, jewelry_store, clothing_store, store, point_of_interest, establishment"
"Shelton, CT",clothing store,retail,448140,Gap Factory,"2165 Dixwell Ave, Hamden, CT 06514, USA",(203) 587-7758,https://www.gap.com/stores/ct/hamden/gap-3066.html,41.3689994,-72.9181976,3.9,56.0,ChIJfXNAaGna54kRG2TW1pnaJVA,"clothing_store, store, point_of_interest, establishment"
"Shelton, CT",clothing store,retail,448140,Urban Outfitters,"43 Broadway, New Haven, CT 06511, USA",(203) 776-7444,https://www.urbanoutfitters.com/stores/new-haven?utm_medium=organic&utm_source=google&utm_campaign=local&utm_content=44,41.3114896,-72.93069129999999,4.1,136.0,ChIJbajy0LPZ54kRcaNvT9bZsZ0,"clothing_store, home_goods_store, shoe_store, store, point_of_interest, establishment"
"Shelton, CT",clothing store,retail,452210,Marshalls,"79 Newtown Rd, Danbury, CT 06810, USA",(203) 794-1211,https://www.marshalls.com/,41.409111,-73.41296,4.3,598.0,ChIJO_BEFdf-54kRW9W5BsWfvWk,"department_store, clothing_store, store, point_of_interest, establishment"
"Shelton, CT",clothing store,retail,452210,T.J. Maxx,"169 Danbury Rd, New Milford, CT 06776, USA",(860) 350-0506,https://tjmaxx.tjx.com/store/index.jsp,41.550761,-73.41489109999999,4.3,308.0,ChIJ7esppYr254kRN2ToEXU0-nY,"department_store, jewelry_store, clothing_store, store, point_of_interest, establishment"
"Shelton, CT",clothing store,retail,448140,Rainbow Shops,"1201 Boston Post Rd, Milford, CT 06460, USA",(203) 767-9445,https://stores.rainbowshops.com/ct/milford/544/?utm_source=G&utm_medium=lpm&utm_campaign=RainbowShops,41.2354865,-73.03649589999999,4.2,84.0,ChIJveLDRFd06IkRl14SN4IP-WM,"jewelry_store, clothing_store, shoe_store, store, point_of_interest, establishment"
"Shelton, CT",clothing store,retail,452210,T.J. Maxx,"330 Connecticut Ave, Norwalk, CT 06854, USA",(203) 854-9890,https://tjmaxx.tjx.com/store/index.jsp,41.1030344,-73.4383465,4.3,789.0,ChIJAalatHMe6IkRMvFXiy2GdMU,"department_store, jewelry_store, clothing_store, store, point_of_interest, establishment"
"Shelton, CT",clothing store,retail,448140,Fred,"30 Post Rd E 2nd floor, Westport, CT 06880, USA",(203) 349-5167,http://www.thefredshop.com/,41.1410815,-73.3615916,3.5,11.0,ChIJxYU1mXkb6IkRp8cAGMQEdoU,"jewelry_store, clothing_store, store, point_of_interest, establishment"
"Shelton, CT",clothing store,retail,448140,J.Crew,"27 Main St, Westport, CT 06880, USA",(203) 226-6502,https://stores.jcrew.com/us/ct/westport/27-main-street,41.1417468,-73.3617494,4.1,50.0,ChIJKZIPS3ob6IkRbVv5D2orNFQ,"clothing_store, shoe_store, store, point_of_interest, establishment"
"Shelton, CT",clothing store,retail,448210,Rainbow Shops,"1245 Dixwell Ave, Hamden, CT 06514, USA",(203) 288-7427,https://stores.rainbowshops.com/ct/hamden/1540/?utm_source=G&utm_medium=lpm&utm_campaign=RainbowShops,41.3478761,-72.9315897,4.1,65.0,ChIJ4x_0mifa54kRGCi5LlgPV9M,"shoe_store, jewelry_store, clothing_store, store, point_of_interest, establishment"
"Shelton, CT",clothing store,retail,448140,Athleta,"103-107 Main St, Westport, CT 06880, USA",(203) 454-0001,https://athleta.gap.com/stores/ct/westport/athleta-7085.html,41.1428152,-73.3621052,4.2,26.0,ChIJZc1bzXsb6IkRTpPCrGYBFsw,"clothing_store, store, point_of_interest, establishment"
"Shelton, CT",clothing store,retail,448140,Sundance Catalog,"97 Main St, Westport, CT 06880, USA",(203) 341-4356,https://www.sundanceliving.com/pages/stores/97-main-street,41.14269669999999,-73.3620506,4.3,15.0,ChIJ3T95RGIb6IkR61Wz6JPbTNs,"jewelry_store, clothing_store, store, point_of_interest, establishment"
"Shelton, CT",clothing store,retail,448140,Allstar Apparel,"220 State St, New Haven, CT 06510, USA",(203) 782-0525,,41.3032984,-72.9242342,2.0,7.0,ChIJPe_UXUrY54kRz_0rTyb_0Hs,"clothing_store, shoe_store, store, point_of_interest, establishment"
"Shelton, CT",clothing store,retail,448140,Aéropostale,"495 Union St #1128, Waterbury, CT 06706, USA",(203) 759-1796,https://stores.aeropostale.com/ct/waterbury/495-union-street?utm_source=google&utm_medium=organic&utm_campaign=local,41.5488643,-73.0249851,4.5,59.0,ChIJw4ApjBrB54kRO_Uw5PjSJuw,"clothing_store, store, point_of_interest, establishment"
"Shelton, CT",clothing store,retail,448140,Kings Clothing,"1741 E Main St, Waterbury, CT 06705, USA",(203) 419-5209,,41.5456621,-73.0131035,4.4,8.0,ChIJ1VJQCCPB54kRK19SQXIQehM,"clothing_store, store, point_of_interest, establishment"
"Shelton, CT",clothing store,retail,452210,Nordstrom,"100 N Water St Suite A, Norwalk, CT 06854, USA",(203) 642-2634,https://www.nordstrom.com/c/norwalk?utm_source=google&utm_medium=organic&utm_campaign=fls&utm_content=538&utm_channel=low_nd_seo_local&sp_source=google&sp_campaign=fls,41.1040939,-73.41875619999999,4.3,728.0,ChIJayYL6O0f6IkRZntz5EJRgSU,"department_store, shoe_store, clothing_store, store, point_of_interest, establishment"
"Shelton, CT",clothing store,retail,448140,Raggs,"1020 Chapel St, New Haven, CT 06510, USA",(203) 865-3824,https://raggsnewhaven.com/,41.3073509,-72.929216,4.4,25.0,ChIJG8drRbPZ54kRDekqOTFUu5Q,"clothing_store, shoe_store, store, point_of_interest, establishment"
"Shelton, CT",clothing store,retail,448140,Burlington,"80 Boston Post Rd, Orange, CT 06477, USA",(203) 795-4634,https://stores.burlington.com/ct/orange/362/?utm_source=google&utm_medium=organic&utm_campaign=maps,41.2767677,-72.9871749,3.8,457.0,ChIJ9wHADarY54kRNk4N__T8zns,"clothing_store, jewelry_store, department_store, home_goods_store, store, point_of_interest, establishment"
"Shelton, CT",clothing store,retail,448140,Aerie,"7 Backus Ave Suite 131, Danbury, CT 06810, USA",(203) 797-8413,https://storelocations.ae.com/us/ct/danbury/02753-7-backus-avenue.html,41.38029,-73.479928,3.4,27.0,ChIJo8UwlXpV3YkRsxYEQo5zsws,"clothing_store, store, point_of_interest, establishment"
"Shelton, CT",clothing store,retail,452210,Sierra,"67 Newtown Rd, Danbury, CT 06810, USA",(203) 730-8761,https://www.sierra.com/,41.4063715,-73.4157109,4.4,735.0,ChIJAbUEUNj-54kRoHgeVGa5dY8,"department_store, clothing_store, home_goods_store, store, point_of_interest, establishment"
"Shelton, CT",clothing store,retail,448140,Jimmy's Clothing & Footwear,"1000 Main St, Bridgeport, CT 06604, USA",(203) 333-3939,https://jimmys1920.myshopify.com/,41.1781438,-73.1889814,4.3,55.0,ChIJzVirxHAO6IkRr_hbCqmCo1o,"clothing_store, store, point_of_interest, establishment"
"Shelton, CT",clothing store,retail,448140,Cinder + Salt,"195 Main St, Middletown, CT 06457, USA",(860) 788-3784,http://www.cinderandsalt.com/,41.559099,-72.64922299999999,4.5,27.0,ChIJzzV111pK5okRbVBgQQMjRgU,"clothing_store, store, point_of_interest, establishment"
"Shelton, CT",clothing store,retail,448140,Old Navy,"2335 Dixwell Ave Space D, Hamden, CT 06514, USA",(203) 230-1991,https://oldnavy.gap.com/stores/ct/hamden/oldnavy-5696.html,41.3717605,-72.9149108,4.0,227.0,ChIJOxbzbG_a54kRO5MMffqrwiY,"clothing_store, store, point_of_interest, establishment"
"Shelton, CT",clothing store,retail,452210,T.J. Maxx,"943 Wolcott St U Ste 2, Waterbury, CT 06705, USA",(203) 756-0003,https://tjmaxx.tjx.com/store/index.jsp,41.5672961,-73.0094159,4.2,780.0,ChIJh9Q71MXA54kR6SD1qSRbGo0,"department_store, jewelry_store, clothing_store, store, point_of_interest, establishment"
"Shelton, CT",clothing store,retail,452210,T.J. Maxx,"2335 Dixwell Ave, Hamden, CT 06514, USA",(203) 288-8157,https://tjmaxx.tjx.com/store/index.jsp,41.3708931,-72.9152823,4.3,435.0,ChIJOxbzbG_a54kRV_GbH3vpVmw,"department_store, jewelry_store, clothing_store, store, point_of_interest, establishment"
"Shelton, CT",clothing store,retail,448140,DA' WORLD,"59 Whalley Ave, New Haven, CT 06511, USA",(203) 859-5342,https://daworldis.com/,41.3138351,-72.9343378,4.7,17.0,ChIJzfC-n7DZ54kRSFT8B9vBmpQ,"clothing_store, store, point_of_interest, establishment"
"Shelton, CT",clothing store,retail,452210,Macy's,"5065 Main St Ste C, Trumbull, CT 06611, USA",(203) 374-7200,https://www.macys.com/stores/ct/trumbull/trumbull-mall_51.html,41.2293342,-73.22673530000002,4.2,1526.0,ChIJo6FI1dUO6IkRcTYCJJGvmrE,"department_store, clothing_store, store, point_of_interest, establishment"
"Shelton, CT",clothing store,retail,448140,State & Liberty Clothing,"The Market Place Shopping Center, 72 Main St, Westport, CT 06880, USA",(475) 837-0046,https://stateandliberty.com/pages/clothing-store-westport-ct-72-main-st,41.1425245,-73.3614917,5.0,45.0,ChIJmSRt1lcb6IkRHCx2SiJnO2M,"clothing_store, store, point_of_interest, establishment"
"Shelton, CT",clothing store,retail,448140,Whalley Sample Shop,"61 Whalley Ave, New Haven, CT 06511, USA",(203) 562-2621,http://thewhalleysampleshop.com/,41.3138335,-72.9344367,4.7,105.0,ChIJ50BRIK7Z54kRypTdlp87mqI,"clothing_store, store, point_of_interest, establishment"
"Shelton, CT",convenience store,retail,445120,State St Food Mart,"900 State St, Bridgeport, CT 06605, USA",,,41.1730972,-73.2014658,4.0,6.0,ChIJBcAysVEP6IkRrrMfnAMKvN4,"convenience_store, store, food, point_of_interest, establishment"
"Shelton, CT",convenience store,retail,445120,Food Bag Market,"109 Berlin Tpke, Berlin, CT 06037, USA",(860) 829-5002,,41.6465579,-72.72957029999999,4.5,19.0,ChIJR4odCz-z54kR1QdC9vY0WX8,"convenience_store, gas_station, store, food, point_of_interest, establishment"
"Shelton, CT",convenience store,retail,445120,"city Fresh mart , Exxon gas station","500 Grasmere Ave, Fairfield, CT 06824, USA",(475) 999-8717,,41.1587943,-73.2432631,5.0,5.0,ChIJUzqlspsP6IkRAIQvoSQa13M,"convenience_store, store, food, point_of_interest, establishment"
"Shelton, CT",convenience store,retail,445120,Southbury Convenience,"997 Main St S, Southbury, CT 06488, USA",(203) 262-6637,https://www.exxon.com/en/find-station/southbury-ct-southburyconvenience-200316123,41.4584437,-73.23641119999999,3.6,11.0,ChIJ_3dK73Dl54kR2sA1-y7kNdU,"convenience_store, gas_station, store, food, point_of_interest, establishment"
"Shelton, CT",convenience store,retail,445120,7-Eleven,"517 Boston Post Rd, Milford, CT 06460, USA",(203) 878-7271,https://www.7-eleven.com/locations/ct/milford/517-boston-post-rd-24840?utm_source=G&utm_medium=local&utm_campaign=google-local,41.229101,-73.06649279999999,3.3,41.0,ChIJmQbPmb906IkR8mXNL48Vh28,"convenience_store, liquor_store, restaurant, store, cafe, food, point_of_interest, establishment"
"Shelton, CT",convenience store,retail,445120,Milford Quick Mart,"320 Old Gate Ln, Milford, CT 06460, USA",(203) 878-1660,,41.2346539,-73.0275292,4.5,2.0,ChIJOzE17E906IkRrTejtzaBzE8,"convenience_store, store, food, point_of_interest, establishment"
"Shelton, CT",convenience store,retail,445120,Cumberland Farms,"975 Kings Hwy E, Fairfield, CT 06825, USA",(203) 336-5674,https://www.cumberlandfarms.com/,41.1663503,-73.2338333,3.4,57.0,ChIJaT6jdNIP6IkRE9TfmfR1RSs,"convenience_store, gas_station, store, food, point_of_interest, establishment"
"Shelton, CT",convenience store,retail,445120,Circle K,"2120 Black Rock Tpke, Fairfield, CT 06825, USA",(203) 336-1266,https://www.circlek.com/store-locator/US/fairfield/2120-black-rock-tpke/2656057?utm_source=google&utm_medium=local&utm_campaign=google-local,41.1818451,-73.2512358,4.0,11.0,ChIJHThWKcoP6IkRdJbrInMny0w,"convenience_store, atm, gas_station, meal_takeaway, finance, restaurant, store, cafe, food, point_of_interest, establishment"
"Shelton, CT",convenience store,retail,445120,Cumberland Farms,"1101 Post Rd, Fairfield, CT 06824, USA",(203) 256-2713,https://www.cumberlandfarms.com/,41.1444647,-73.2526748,3.1,35.0,ChIJtaxgHT4Q6IkRUcx-jWVeKsU,"convenience_store, gas_station, store, food, point_of_interest, establishment"
"Shelton, CT",convenience store,retail,445120,24/7 Express,"1607 Barnum Ave, Stratford, CT 06614, USA",(475) 422-9873,,41.1947591,-73.1412599,4.9,29.0,ChIJ2Tv_fmEN6IkRaJvmbIUmpng,"convenience_store, store, food, point_of_interest, establishment"
"Shelton, CT",convenience store,retail,445120,Cumberland Farms,"937 Broad St, Meriden, CT 06450, USA",(203) 686-0352,https://www.cumberlandfarms.com/,41.5441235,-72.7841526,3.5,73.0,ChIJI_Lv7RPK54kRHdclfpT5LE0,"convenience_store, gas_station, store, food, point_of_interest, establishment"
"Shelton, CT",convenience store,retail,445120,H & a Convenience LLC,"2098 Fairfield Ave, Bridgeport, CT 06605, USA",(203) 579-4412,,41.1658273,-73.21874319999999,4.1,7.0,ChIJ74IyETAO6IkRWyO7-DNjwTw,"convenience_store, gas_station, store, food, point_of_interest, establishment"
"Shelton, CT",convenience store,retail,445120,7-Eleven,"3621 Main St, Stratford, CT 06614, USA",(203) 383-4393,https://www.7-eleven.com/locations/ct/stratford/3621-main-street-33320?utm_source=G&utm_medium=local&utm_campaign=google-local,41.20966560000001,-73.1302353,3.5,48.0,ChIJN_ufu4gM6IkRYM7sI-1rn10,"convenience_store, liquor_store, restaurant, store, cafe, food, point_of_interest, establishment"
"Shelton, CT",convenience store,retail,445120,24/7 Express,"73 Center St, Shelton, CT 06484, USA",(203) 513-8097,,41.31611669999999,-73.0942337,4.0,22.0,ChIJ2eDfLFoM6IkRGcpQyUqfdDM,"convenience_store, store, food, point_of_interest, establishment"
"Shelton, CT",convenience store,retail,445120,Shell,"247 Main Ave, Norwalk, CT 06851, USA",(203) 846-1701,https://find.shell.com/us/fuel/10008500-247-main-ave/en_US,41.13156499999999,-73.423879,4.1,42.0,ChIJu9Q6ALQd6IkRA-L2Kq-TRDI,"gas_station, convenience_store, store, food, point_of_interest, establishment"
"Shelton, CT",convenience store,retail,445120,Nouria,"1520 Wolcott Rd, Wolcott, CT 06716, USA",(203) 441-6302,https://nouria.com/locations/CT/Wolcott-CT-1246/,41.629797,-72.961351,3.9,57.0,ChIJScqTuhu554kRgVGg9P5X5d8,"convenience_store, gas_station, liquor_store, restaurant, store, cafe, food, point_of_interest, establishment"
"Shelton, CT",convenience store,retail,445120,The RoadRunners Gas Station & Convenience Store Naugatuck,"469 Rubber Ave, Naugatuck, CT 06770, USA",(203) 720-1235,,41.4897857,-73.0703924,4.1,76.0,ChIJ78UEHGTC54kRrCRd5iIis54,"gas_station, convenience_store, store, cafe, food, point_of_interest, establishment"
"Shelton, CT",convenience store,retail,445120,7-Eleven,"17 Stony Hill Rd, Bethel, CT 06801, USA",(203) 797-1384,https://www.7-eleven.com/locations/ct/bethel/17-stony-hill-rd-25905?utm_source=G&utm_medium=local&utm_campaign=google-local,41.4165475,-73.3983145,3.3,45.0,ChIJ79HExTT554kRL1pTdhYulv8,"convenience_store, liquor_store, restaurant, store, cafe, food, point_of_interest, establishment"
"Shelton, CT",convenience store,retail,445120,Atlantis Fresh Market - #75 (Now Delivering!),"547 North Ave, Bridgeport, CT 06606, USA",(203) 826-8150,http://www.atlantisfreshmarket.com/,41.1957411,-73.1937449,4.2,78.0,ChIJdwvb-IUO6IkROgCYOQs610I,"gas_station, convenience_store, store, food, point_of_interest, establishment"
"Shelton, CT",convenience store,retail,445120,Wheels,"29 Tamarack Ave, Danbury, CT 06810, USA",(203) 794-1058,https://www.wheelsofct.com/,41.4140143,-73.4504043,3.6,67.0,ChIJC2VtBEX_54kRsMAiJ-1O5q4,"gas_station, convenience_store, store, food, point_of_interest, establishment"
"Shelton, CT",convenience store,retail,445120,Shell,"2 New Haven Rd, Seymour, CT 06483, USA",(203) 463-8507,https://find.shell.com/us/fuel/10089646-2-new-haven-rd/en_US,41.39746359999999,-73.07027029999999,4.4,28.0,ChIJlQ7vEJrd54kRTe-aJiWHpNA,"gas_station, convenience_store, store, food, point_of_interest, establishment"
"Shelton, CT",convenience store,retail,445120,Shell,"3050 Whitney Ave, Hamden, CT 06518, USA",(203) 848-1302,https://find.shell.com/us/fuel/12508520-3050-whitney-avenue/en_US,41.4061124,-72.8993611,4.2,23.0,ChIJ5Yu-Zafa54kRVd7lU2_KwWk,"gas_station, convenience_store, store, food, point_of_interest, establishment"
"Shelton, CT",convenience store,retail,445120,Shell,"4402 Main St, Bridgeport, CT 06606, USA",(203) 374-2064,https://find.shell.com/us/fuel/10008452-4402-main-street/en_US,41.219751,-73.216095,4.2,38.0,ChIJpbt06sQO6IkRIXE5fxX_zaY,"gas_station, convenience_store, store, food, point_of_interest, establishment"
"Shelton, CT",convenience store,retail,445120,Mobil,"1244 Strongtown Rd, Southbury, CT 06488, USA",(203) 405-3323,https://www.exxon.com/en/find-station/MOBIL-SOUTHBURY-CT-PCMOBILMART-200315556?utm_source=google&utm_medium=organic&utm_campaign=gmb,41.4954878,-73.162215,3.8,157.0,ChIJiWwmhd_o54kRKpc_L5SXV5I,"gas_station, convenience_store, store, food, point_of_interest, establishment"
"Shelton, CT",convenience store,retail,445120,Shell Food Mart,"141 Willow St, New Haven, CT 06511, USA",(203) 777-4359,https://find.shell.com/us/fuel/10008488-141-willow-st/en_US,41.3206186,-72.9079043,2.5,10.0,ChIJHVJ6Hd3Z54kRmyeBYjmhmLU,"convenience_store, gas_station, store, food, point_of_interest, establishment"
"Shelton, CT",convenience store,retail,445120,Shell,"444 Saw Mill Rd, West Haven, CT 06516, USA",(203) 933-1648,https://find.shell.com/us/fuel/10008530-444-saw-mill-rd/en_US,41.2704919,-72.97413639999999,3.3,30.0,ChIJ3RtkuB526IkR9bUWcfT7f44,"gas_station, convenience_store, store, food, point_of_interest, establishment"
"Shelton, CT",convenience store,retail,445120,XtraMart,"149 New Britain Ave, Plainville, CT 06062, USA",(860) 747-9284,https://xtramart.com/locations/xtramart-plainville,41.6780426,-72.84634969999999,3.8,4.0,ChIJrbEF5AOx54kRUSnD6J0hJLU,"gas_station, convenience_store, store, food, point_of_interest, establishment"
"Shelton, CT",convenience store,retail,445120,Barnum Avenue Plaza,"1607 Barnum Ave, Stratford, CT 06614, USA",(475) 422-9873,,41.1948079,-73.1415179,3.6,15.0,ChIJswTH01sM6IkRHn7sVnn_hqc,"convenience_store, store, food, point_of_interest, establishment"
"Shelton, CT",convenience store,retail,445120,Shell,"831 S Main St, Cheshire, CT 06410, USA",(203) 439-2425,https://find.shell.com/us/fuel/12740477-831-s-main-st/en_US,41.4818262,-72.9058858,3.9,10.0,ChIJ-dIEp0vF54kR5u5C_PDqR5I,"gas_station, convenience_store, store, food, point_of_interest, establishment"
"Shelton, CT",convenience store,retail,445120,Wheels,"67 Church Hill Rd, Newtown, CT 06470, USA",(203) 270-0342,https://wheelsofct.com/,41.4177285,-73.293753,3.1,13.0,ChIJTadiCXT754kRbxtwX11a_ek,"convenience_store, store, food, point_of_interest, establishment"
"Shelton, CT",convenience store,retail,,S&S MINIMART,"62 Elm St, West Haven, CT 06516, USA",(203) 934-5251,,41.2790098,-72.941512,4.3,40.0,ChIJl1n-tXzY54kR750wkuJnrzM,"gas_station, point_of_interest, establishment"
"Shelton, CT",convenience store,retail,445120,HARP'S CONVENIENCE STORE & MORE,"421 Campbell Ave, West Haven, CT 06516, USA",,,41.2699822,-72.9488791,,,ChIJwUq3iSp26IkRqDZSsxIN640,"convenience_store, store, food, point_of_interest, establishment"
"Shelton, CT",convenience store,retail,445120,7-Eleven,"1795 Dixwell Ave, Hamden, CT 06514, USA",(203) 288-2930,https://www.7-eleven.com/locations/ct/hamden/1795-dixwell-avenue-33307?utm_source=G&utm_medium=local&utm_campaign=google-local,41.36084870000001,-72.9243671,3.0,66.0,ChIJt76xZT7a54kRJfdX_U3SMak,"convenience_store, liquor_store, restaurant, store, cafe, food, point_of_interest, establishment"
"Shelton, CT",convenience store,retail,445120,Shell,"901 W Main St, Cheshire, CT 06410, USA",(203) 272-2340,https://find.shell.com/us/fuel/10083374-901-w-main-st/en_US,41.5147063,-72.92591019999999,3.7,27.0,ChIJ0S0FZGzG54kReUGxQ0wqjeI,"gas_station, convenience_store, store, food, point_of_interest, establishment"
"Shelton, CT",convenience store,retail,445120,Shell,"5891 Main St, Trumbull, CT 06611, USA",(203) 261-0202,https://find.shell.com/us/fuel/12572877-5891-main-st/en_US,41.257721,-73.21985169999999,3.9,15.0,ChIJ9a5AhhkJ6IkRJHi0NUrfvQU,"gas_station, convenience_store, store, food, point_of_interest, establishment"
"Shelton, CT",convenience store,retail,445120,Shell,"203 Greenwood Ave, Bethel, CT 06801, USA",(203) 731-2752,https://find.shell.com/us/fuel/10039761-203-greenwood-ave/en_US,41.3716507,-73.41523149999999,3.5,17.0,ChIJTeVH9lL-54kRECmL9lQ68vc,"gas_station, convenience_store, store, restaurant, food, point_of_interest, establishment"
"Shelton, CT",convenience store,retail,445120,Shell,"2424 Black Rock Tpke, Fairfield, CT 06825, USA",(203) 373-9420,https://find.shell.com/us/fuel/10001262-2424-black-rock-tpke/en_US,41.1840692,-73.25562289999999,3.6,15.0,ChIJnZagy5UP6IkRiw3C67edWOo,"gas_station, convenience_store, store, food, point_of_interest, establishment"
"Shelton, CT",convenience store,retail,445120,Shell,"1994 Whitney Ave, Hamden, CT 06517, USA",(203) 248-8320,https://find.shell.com/us/fuel/10008473-1994-whitney-ave/en_US,41.3708536,-72.9066275,2.5,21.0,ChIJ-ThkkHDa54kRKN33TiGHSyw,"gas_station, convenience_store, store, food, point_of_interest, establishment"
"Shelton, CT",convenience store,retail,445120,Grub & Co,"700 W Main St, Branford, CT 06405, USA",(203) 488-0590,,41.2784437,-72.8400359,3.0,1.0,ChIJBd2T7TzX54kRBFEmedwUoCU,"convenience_store, store, food, point_of_interest, establishment"
"Shelton, CT",convenience store,retail,445120,Gulf Food Stop #6779,"197 Main St, Cheshire, CT 06410, USA",(203) 250-0091,http://www.shahaniinc.com/,41.5040469,-72.9043684,4.1,50.0,ChIJSxCqjgPG54kRyd-AhdGq7wM,"gas_station, convenience_store, store, food, point_of_interest, establishment"
"Shelton, CT",convenience store,retail,445120,7-Eleven,"1331 State St, New Haven, CT 06511, USA",(203) 891-7428,https://www.7-eleven.com/locations/ct/new-haven/1331-state-st-39154?utm_source=G&utm_medium=local&utm_campaign=google-local,41.3195305,-72.8981532,3.5,24.0,ChIJI0kcskrX54kRvFc_OAL0qes,"convenience_store, liquor_store, cafe, store, restaurant, food, point_of_interest, establishment"
"Shelton, CT",convenience store,retail,445120,7-Eleven,"400 Foxon Blvd, New Haven, CT 06513, USA",(203) 467-1505,https://www.7-eleven.com/locations/ct/new-haven/400-foxon-blvd-33306?utm_source=G&utm_medium=local&utm_campaign=google-local,41.320705,-72.8718365,3.1,46.0,ChIJJ4dz_D7X54kRqRGEKvjss0M,"convenience_store, liquor_store, cafe, store, restaurant, food, point_of_interest, establishment"
"Shelton, CT",convenience store,retail,445120,Walgreens,"88 York St, New Haven, CT 06511, USA",(203) 752-9893,https://www.walgreens.com/locator/walgreens-88+york+st-new+haven-ct-06511/id=6474,41.3061476,-72.9338928,2.2,191.0,ChIJe1gUYU3Y54kRqzzTQlawPFk,"drugstore, convenience_store, clothing_store, health, store, food, point_of_interest, establishment"
"Shelton, CT",convenience store,retail,445120,7-Eleven,"1089 Campbell Ave, West Haven, CT 06516, USA",(203) 933-6690,https://www.7-eleven.com/locations/ct/west-haven/1089-campbell-ave-25523?utm_source=G&utm_medium=local&utm_campaign=google-local,41.2887989,-72.9585987,3.0,50.0,ChIJVWx-ZJLY54kRRd_lMinHrPk,"convenience_store, liquor_store, cafe, store, restaurant, food, point_of_interest, establishment"
"Shelton, CT",convenience store,retail,445120,Grub & Co,"80 Frontage Rd, East Haven, CT 06512, USA",(203) 751-7733,,41.2861465,-72.8803389,2.0,1.0,ChIJd7XFzvrX54kRCy8i9S0MOaU,"convenience_store, store, food, point_of_interest, establishment"
"Shelton, CT",convenience store,retail,445120,Global Gas Station,"40 Hollister Ave, Bridgeport, CT 06607, USA",(203) 311-8655,https://www.globalp.com/retail-stations/branded-unbranded-fuel-supply/,41.1755824,-73.1591396,4.0,25.0,ChIJc4Ov_McN6IkRpsf7974oMv8,"gas_station, convenience_store, store, food, point_of_interest, establishment"
"Shelton, CT",convenience store,retail,445120,Wheels,"2505 North Ave, Bridgeport, CT 06604, USA",(203) 333-7470,https://wheelsofct.com/,41.1774178,-73.2176989,2.7,6.0,ChIJNZs6jwsP6IkRYLMk1zHftRI,"convenience_store, gas_station, store, food, point_of_interest, establishment"
"Shelton, CT",convenience store,retail,445120,7-Eleven,"329 Chamberlain Hwy, Meriden, CT 06451, USA",(203) 235-0577,https://www.7-eleven.com/locations/ct/meriden/329-chamberlain-hwy-33206?utm_source=G&utm_medium=local&utm_campaign=google-local,41.5493464,-72.8137607,3.6,29.0,ChIJS-2RtPHJ54kRx2hI-TOi6xI,"convenience_store, liquor_store, cafe, store, restaurant, food, point_of_interest, establishment"
"Shelton, CT",convenience store,retail,445120,Shell,"Great Hill Road, CT-8, Ansonia, CT 06401, USA",(203) 734-1242,https://find.shell.com/us/fuel/10000284-route-8-and-great-hill-rd/en_US,41.3596419,-73.0939394,3.7,15.0,ChIJk2x4Cqbg54kRBdrKxTiOqaA,"gas_station, convenience_store, store, restaurant, food, point_of_interest, establishment"
"Shelton, CT",convenience store,retail,445120,Xpress Mart LLC,"620 Church St, Naugatuck, CT 06770, USA",(203) 720-7995,,41.5051262,-73.0594273,3.5,13.0,ChIJ6000wT7C54kRNI6mIBnfHyI,"convenience_store, atm, gas_station, store, finance, food, point_of_interest, establishment"
"Shelton, CT",convenience store,retail,445120,Atlantis Fresh Market - #521 (Now Delivering!),"326 S Colony St, Wallingford, CT 06492, USA",(203) 490-4818,http://www.atlantisfreshmarket.com/,41.4497162,-72.82752409999999,3.7,14.0,ChIJ2R-5K4vO54kR8J1A-ITt25M,"convenience_store, gas_station, store, food, point_of_interest, establishment"
"Shelton, CT",convenience store,retail,445120,Fas Mart,"528 Main St, West Haven, CT 06516, USA",(203) 931-9145,,41.2695931,-72.9583658,3.2,11.0,ChIJpW220id26IkRafmUAT8rLl4,"convenience_store, gas_station, store, food, point_of_interest, establishment"
"Shelton, CT",wholesale,retail,,Restaurant Depot,"3580 E Main St, Waterbury, CT 06705, USA",(203) 596-0040,https://www.restaurantdepot.com/?utm_source=listings&utm_medium=search&utm_campaign=traffic-tracking&utm_content=East-Coast&utm_term=820-NEW-ENGLAND,41.54078,-72.9709697,4.0,327.0,ChIJ54Yp-93G54kR1mbRLOsP5-I,"food, point_of_interest, establishment"
"Shelton, CT",wholesale,retail,,Master G Cash and Carry Corp,"1625 Berlin Tpke, Berlin, CT 06037, USA",(860) 829-2929,https://mastergcc.com/,41.606898,-72.7489391,4.7,20.0,ChIJ4-u29lK154kR2hSLZw6utJE,"food, point_of_interest, establishment"
"Shelton, CT",wholesale,retail,,Bargain Enterprise,"2785 State St, Hamden, CT 06517, USA",(203) 931-8585,,41.3566651,-72.8901168,4.4,7.0,ChIJlQp6FqTQ54kRDLkkXc_GpiI,"point_of_interest, establishment"
"Shelton, CT",wholesale,retail,,Restaurant Depot,"3711 Danbury Rd, Brewster, NY 10509, USA",(845) 230-6007,https://www.restaurantdepot.com/?utm_source=listings&utm_medium=search&utm_campaign=traffic-tracking&utm_content=East-Coast&utm_term=821-NEW-YORK,41.38490669999999,-73.5691909,3.9,88.0,ChIJ6W9jr7BT3YkRGaAOd_IMaqk,"food, point_of_interest, establishment"
"Shelton, CT",wholesale,retail,,American Liquidations,"204 Austin Rd, Waterbury, CT 06705, USA",(203) 587-4132,https://www.americanliquidations.com/,41.538663,-72.9766752,4.4,174.0,ChIJx1UW8x3D54kRQ_rp--6Va5Y,"point_of_interest, establishment"
"Shelton, CT",wholesale,retail,,Joy Susan,"1 Hartford Square, New Britain, CT 06052, USA",(860) 612-0439,https://www.joysusan.com/,41.6654281,-72.8104934,4.5,28.0,ChIJy_5V7WSx54kRDAERTAI240M,"store, point_of_interest, establishment"
"Shelton, CT",wholesale,retail,,Cromwell Growers,"419 Main St, Cromwell, CT 06416, USA",,,41.6036872,-72.64754479999999,4.4,11.0,ChIJmRYI2JFL5okR0XzNqFRz8t4,"point_of_interest, establishment"
"Shelton, CT",wholesale,retail,,Hilverda De Boer USA,"109 Danbury Rd #6, Ridgefield, CT 06877, USA",(888) 220-7248,http://www.hdbusa.com/,41.2932779,-73.4942265,,,ChIJv6z2GgWqwokR0SKFwDiIsko,"point_of_interest, establishment"
"Shelton, CT",wholesale,retail,,Los Muchachos,"1325 Pembroke St, Bridgeport, CT 06608, USA",(203) 382-1328,,41.1922957,-73.1771918,3.7,6.0,ChIJw3Jn5SsM6IkRzIplMKPPjs4,"food, point_of_interest, establishment"
"Shelton, CT",wholesale,retail,,CTC Distribution LLC,"400 N Frontage Rd, North Haven, CT 06473, USA",(203) 752-9300,,41.3591022,-72.8616661,3.8,16.0,ChIJHzRyssPQ54kRJUgbpfev4gE,"food, point_of_interest, establishment"
"Shelton, CT",wholesale,retail,,A.M.I. Corporation,"12 Baer Cir, East Haven, CT 06512, USA",(203) 466-5534,,41.25027679999999,-72.88098049999999,4.0,4.0,ChIJ2QuTBRJ46IkRSiqs7a2FVRc,"food, point_of_interest, establishment"
"Shelton, CT",wholesale,retail,,Pepperidge Farm Inc.,"595 Westport Ave, Norwalk, CT 06851, USA",(856) 342-4800,https://www.pepperidgefarm.com/,41.1284917,-73.382764,3.5,15.0,ChIJezC0VFwd6IkRSICStwVNUWU,"food, point_of_interest, establishment"
"Shelton, CT",wholesale,retail,,Casertano's Greenhouse & Farms,"1030 S Meriden Rd, Cheshire, CT 06410, USA",(203) 272-4563,http://www.casertanosfarms.com/,41.5224646,-72.86463719999999,4.1,13.0,ChIJ3xzP_vDI54kR7OZ5zQHD5iQ,"point_of_interest, establishment"
"Shelton, CT",wholesale,retail,,Omaha Beef Company,"9 Maple Ave, Danbury, CT 06810, USA",(203) 748-2651,http://www.omahabeefcompany.com/,41.398179,-73.45171599999999,4.8,19.0,ChIJNdfAa2__54kR6FRqqxAgMaM,"food, point_of_interest, establishment"
"Shelton, CT",wholesale,retail,448140,Benjamin International Inc,"17 Commerce Rd E, Oxford, CT 06478, USA",(860) 845-5567,http://www.benjamininternational.com/,41.4814843,-73.1279722,4.5,10.0,ChIJOad-Vxfp54kRfXYJG9tqH0Q,"jewelry_store, clothing_store, storage, store, point_of_interest, establishment"
"Shelton, CT",wholesale,retail,,Connecticut Flower Collective,"725 Main St, Middletown, CT 06457, USA",,http://www.ctflowercollective.com/,41.5655447,-72.6546066,5.0,1.0,ChIJpZBWZsTL54kRWq8H29DOcbY,"point_of_interest, establishment"
"Shelton, CT",distributor,retail,,Beverage Express Inc,"310 Avon St, Stratford, CT 06615, USA",(203) 520-7123,https://www.beverageexpressct.com/,41.1823073,-73.1449366,4.3,15.0,ChIJixjrr7IN6IkR10gnCHfRJIY,"point_of_interest, establishment"
"Shelton, CT",distributor,retail,,Northeast Beverage CT,"32 Robinson Blvd #3647, Orange, CT 06477, USA",(203) 795-4945,http://www.ridistributing.com/,41.2481976,-72.99333589999999,4.5,66.0,ChIJS9T5dNd16IkRWpzEsVEtxik,"point_of_interest, establishment"
"Shelton, CT",distributor,retail,,Martignetti Companies (formerly Hartley & Parker),"100 Browning St, Stratford, CT 06615, USA",(203) 375-5671,http://www.martignetti.com/,41.1768349,-73.1484018,3.5,22.0,ChIJ1dDKs7EN6IkRIb7rUw2ylzk,"point_of_interest, food, establishment"
"Shelton, CT",distributor,retail,,G & G Bev Dist,"207 Church St, Wallingford, CT 06492, USA",(203) 284-9511,http://www.ggbeverage.com/,41.4889123,-72.81667999999999,3.5,34.0,ChIJd6Ha2lHJ54kR-ntjvkzgb2I,"point_of_interest, establishment"
"Shelton, CT",distributor,retail,,Crystal Rock,"313 Long Ridge Rd, Stamford, CT 06902, USA",,https://www.crystalrock.com/,41.0815693,-73.55330959999999,2.5,2.0,ChIJsYT1CgChwokRr6bwDryTxgE,"point_of_interest, establishment"
"Shelton, CT",distributor,retail,,Tropicana Products Inc,"615 W Johnson Ave # 219, Cheshire, CT 06410, USA",(203) 250-7186,,41.5541246,-72.9097809,1.0,2.0,ChIJ5w0ansLH54kR-R71XIUqz6A,"point_of_interest, establishment"
"Shelton, CT",distributor,retail,,Dandy Foods,"80 Mill Plain Rd, Danbury, CT 06811, USA",(203) 792-7000,https://dandyfoods.com/,41.391473,-73.507618,4.1,13.0,ChIJWRGENwdV3YkRHIfeaaXjOdc,"food, point_of_interest, establishment"
"Shelton, CT",distributor,retail,,Brescome Barton,"69 Defco Park Rd, North Haven, CT 06473, USA",(203) 239-4901,http://www.brescomebarton.com/,41.4191757,-72.8475386,3.7,17.0,ChIJye3RyS3O54kRA7fFVPYFv2s,"point_of_interest, establishment"
"Shelton, CT",distributor,retail,,Ace Distributing LLC,"93 W Main St, Plainville, CT 06062, USA",(860) 793-1400,https://www.aceofct.com/,41.6704097,-72.8711649,3.1,13.0,ChIJUQh4ueuw54kRopMs6731rFU,"food, point_of_interest, establishment"
"Shelton, CT",distributor,retail,,Countryside Farms,"2031 NY-22, Brewster, NY 10509, USA",(845) 363-1570,https://countrysidefarmsny.com/,41.4489927,-73.57742340000001,4.2,5.0,ChIJEXz5hVtR3YkR4_8_eG1t3jE,"food, point_of_interest, establishment"
"Shelton, CT",distributor,retail,,Sportwater Beverages LLC,"78 Harvard Ave, Stamford, CT 06902, USA",(855) 460-7238,http://sportwater.co/,41.0457864,-73.56017709999999,5.0,3.0,ChIJjaJ7JauYwokRuDCa9VDYLKY,"point_of_interest, establishment"
"Shelton, CT",distributor,retail,,"Drinx Unlimited, Inc.","372 Ely Ave, Norwalk, CT 06854, USA",(800) 861-7632,http://www.drinxunlimited.com/,41.0774688,-73.42704920000001,3.6,10.0,ChIJz1StgFAe6IkRJcpX0hGnJC4,"point_of_interest, establishment"
"Shelton, CT",distributor,retail,,Bulk Co2 Dispensing,"261 Pascone Pl, Newington, CT 06111, USA",(860) 666-7845,https://bulkco2dispensing.com/contact/,41.66871709999999,-72.7228712,1.0,2.0,ChIJVVXlH9qy54kRTxTxf1PxJ7k,"point_of_interest, establishment"
"Shelton, CT",distributor,retail,,"Coca-Cola Beverages Northeast- Naugatuck, CT","80 Rado Dr, Naugatuck, CT 06770, USA",(203) 721-8173,https://www.cokenortheast.com/,41.5144424,-73.0237661,2.5,2.0,ChIJcR3yhTbB54kR4bJmRKNITQc,"point_of_interest, establishment"
"Shelton, CT",distributor,retail,,Pepsi Beverages Co,"355 Benton St, Stratford, CT 06615, USA",(203) 551-3900,http://www.pepsico.com/,41.1715587,-73.1418813,4.1,24.0,ChIJORgE_6UN6IkRWv3sE4fTx7Y,"point_of_interest, establishment"
"Shelton, CT",distributor,retail,,Gorilla Lemonade,"32 Greenwood St, New Haven, CT 06519, USA",(347) 439-7395,,41.3050544,-72.94471589999999,5.0,6.0,ChIJ4-RNzzzZ54kRd3QGtg7KoOE,"point_of_interest, establishment"
"Shelton, CT",distributor,retail,,Avery's Beverages LLC,"1 Hartford Square Door 19B, New Britain, CT 06052, USA",(860) 224-0830,http://averysoda.com/,41.6657963,-72.8117023,4.7,178.0,ChIJ69o7HOez54kRgGNuPLQncEU,"food, point_of_interest, establishment"
"Shelton, CT",distributor,retail,,Highland Imports,"74 Linwood Ave, Fairfield, CT 06824, USA",(203) 538-6818,http://www.highlandimportsct.co/,41.1416721,-73.2699488,5.0,3.0,ChIJPwkrVvnf54kRFu4OMnMEHRA,"food, point_of_interest, establishment"
"Shelton, CT",distributor,retail,,Schrafel Paperboard Converting Corp,"82 W Clark St, West Haven, CT 06516, USA",(203) 931-1700,http://www.schrafelpaper.com/,41.2730255,-72.9595013,4.0,3.0,ChIJUaDgkZ3Y54kREIYg2Vuk5o8,"storage, point_of_interest, establishment"
"Shelton, CT",distributor,retail,,Soulstice Kombucha Brewing Co.,"29 N Plains Hwy #4, Wallingford, CT 06492, USA",(203) 435-0108,https://www.soulsticekombucha.com/,41.4713062,-72.8206743,5.0,6.0,ChIJg4zYwRPP54kR4ehe2SM4BDs,"food, point_of_interest, establishment"
"Shelton, CT",distributor,retail,,Mina Foods,"100 Research Dr, Milford, CT 06460, USA",(203) 874-6462,http://www.minafoodsinc.com/,41.240177,-73.016939,5.0,13.0,ChIJsWOVYjV06IkRBEqlvZ53DpE,"food, point_of_interest, establishment"
"Shelton, CT",distributor,retail,,B. United International,"7 Fox Hollow Road, Oxford, CT 06478, USA",(203) 938-0713,http://www.bunitedint.com/,41.4702186,-73.1208724,4.9,7.0,ChIJNRW_mkLo54kR96rW98TCp24,"point_of_interest, establishment"
"Shelton, CT",distributor,retail,,Light Rock Spring Water Co.,"9 Balmforth Ave, Danbury, CT 06810, USA",(203) 743-3410,,41.39901589999999,-73.45128439999999,5.0,5.0,ChIJqzIhPG__54kRFG4MxLzdyF8,"point_of_interest, establishment"
"Shelton, CT",distributor,retail,,Freshbev,"3 Sterling Dr, Wallingford, CT 06492, USA",(475) 227-3446,http://www.ripebarjuice.com/,41.2933782,-72.89963759999999,4.5,8.0,ChIJZ97uECjY54kR_5R3khriFic,"food, point_of_interest, establishment"
"Shelton, CT",food distributor,retail,,"Little's Specialty Foods, Inc.","18 Locust Ave #1606, New Canaan, CT 06840, USA",(203) 228-4440,http://www.littlescuisine.com/,41.1489845,-73.4927053,5.0,3.0,ChIJuwUBAg2nwokRM-AOdGdDzTs,"food, point_of_interest, establishment"
"Shelton, CT",food distributor,retail,,Thurston Foods Inc,"30 Thurston Dr, Wallingford, CT 06492, USA",(203) 265-1525,https://www.thurstonfoods.com/,41.4799286,-72.7993578,4.1,88.0,ChIJf3hMawHM54kRBotzUtOTmWY,"food, point_of_interest, establishment"
"Shelton, CT",food distributor,retail,445110,Whole Foods Distribution Center,"400 E Johnson Ave, Cheshire, CT 06410, USA",(203) 272-8150,http://www.wholefoodsmarket.com/,41.5528792,-72.873902,3.8,581.0,ChIJ-dl-vmrI54kRmBGQ5ORumio,"supermarket, florist, bakery, grocery_or_supermarket, health, store, food, point_of_interest, establishment"
"Shelton, CT",food distributor,retail,,"Napoli Foods, Inc","10 Knotter Dr, Cheshire, CT 06410, USA",(860) 276-4000,http://www.napolifoodsinc.com/,41.5602192,-72.9078212,3.0,93.0,ChIJs5hIQ-jH54kR4WSs1b-5WCc,"food, point_of_interest, establishment"
"Shelton, CT",food distributor,retail,,The Chefs’ Warehouse Headquarters,"100 E Ridge Rd, Ridgefield, CT 06877, USA",(203) 894-1345,http://www.chefswarehouse.com/,41.281924,-73.493163,3.2,9.0,ChIJy-XggiOqwokRr39HTqUy9KQ,"food, point_of_interest, establishment"
"Shelton, CT",food distributor,retail,,Cosmo Food Products,"200 Callegari Dr, West Haven, CT 06516, USA",(203) 933-9323,http://www.cosmosfoods.com/,41.2545554,-72.9869551,3.0,21.0,ChIJz2Tef3N26IkRa9Bsw5D0ZTA,"point_of_interest, establishment"
"Shelton, CT",food distributor,retail,,Northeast Produce Inc,"10 Robert Jackson Way, Plainville, CT 06062, USA",(860) 793-2700,http://lipmanfamilyfarms.com/,41.6506408,-72.8774589,4.8,10.0,ChIJAyaDGrWw54kRztqf31W4zRk,"food, point_of_interest, establishment"
"Shelton, CT",food distributor,retail,,East Coast Food Distribution Boar's,"64 Raton Dr, Milford, CT 06461, USA",(203) 876-4745,,41.23017919999999,-73.0949012,5.0,5.0,ChIJ9aHuWkkL6IkRjPBz5GqH2q0,"food, point_of_interest, establishment"
"Shelton, CT",food distributor,retail,,Bozzuto's Inc,"275 Schoolhouse Rd, Cheshire, CT 06410, USA",(203) 272-3511,http://www.bozzutos.com/,41.5460972,-72.8989453,1.8,104.0,ChIJ-bnrbtjH54kRERJgvCjeZ5k,"point_of_interest, establishment"
"Shelton, CT",food distributor,retail,445110,Jordan Paige Food Enterprise,"78 Rebeschi Dr # 2, North Haven, CT 06473, USA",(203) 483-6456,http://www.jordanpaige.com/,41.3430116,-72.86765319999999,4.0,12.0,ChIJw-2rss7Q54kRJrcFRH89bMc,"grocery_or_supermarket, store, food, point_of_interest, establishment"
"Shelton, CT",food distributor,retail,,Dairyland USA Corporation,"100 E Ridge Rd, Ridgefield, CT 06877, USA",,,41.2819472,-73.4931205,5.0,1.0,ChIJ_-XggiOqwokR837wQizo0lc,"food, point_of_interest, establishment"
"Shelton, CT",food distributor,retail,,Ragozzino Foods Inc,"71 Chamberlain Hwy, Meriden, CT 06451, USA",(800) 348-1240,http://www.ragozzino.com/,41.5409441,-72.8151657,4.2,27.0,ChIJFS1UF_PJ54kRhedE-scptAk,"food, point_of_interest, establishment"
"Shelton, CT",food distributor,retail,,"Chef K, Inc.","108 Edwin Ave, Waterbury, CT 06708, USA",(646) 778-8396,https://www.chefkproduct.com/,41.5697952,-73.0599893,5.0,9.0,ChIJvyHKn0jA54kRDjyx-yamMak,"point_of_interest, establishment"
"Shelton, CT",food distributor,retail,,Berkshire Food Distr. Inc.,"11 Old Newtown Rd, Danbury, CT 06810, USA",(203) 792-3435,http://www.bfoods.com/,41.406155,-73.424482,2.6,27.0,ChIJSRFDaCT_54kRjI0b0uCxfYs,"food, point_of_interest, establishment"
"Shelton, CT",food distributor,retail,,Celebration Foods,"1 Celebration Way, New Britain, CT 06053, USA",(860) 827-8000,http://iloveicecreamcakes.com/,41.6704475,-72.7905423,3.0,2.0,ChIJv5Vq_M2z54kRFS7yMcaIZWY,"food, point_of_interest, establishment"
"Shelton, CT",food distributor,retail,,American Frozen Foods,"125 Old Gate Ln, Milford, CT 06460, USA",(800) 233-5554,http://www.americanfoods.com/,41.2285774,-73.03044009999999,4.1,54.0,ChIJOT43WqR06IkRzCcni1-Y_JU,"food, point_of_interest, establishment"
"Shelton, CT",food distributor,retail,,"Culture Fresh Foods, Inc.","162 Spring St, Naugatuck, CT 06770, USA",(203) 632-8433,http://www.culturefreshfoods.com/,41.50347230000001,-73.0541266,4.0,2.0,ChIJzRXvtDnC54kRKS9kvqW6skw,"point_of_interest, establishment"
"Shelton, CT",food distributor,retail,,Naugatuck Valley Food Distribution,"85 S Leonard St, Waterbury, CT 06708, USA",(203) 757-3353,,41.54345,-73.0439945,2.8,5.0,ChIJ243SL6HB54kRGDd-zr0Yxzs,"food, point_of_interest, establishment"
"Shelton, CT",food distributor,retail,,"Preferred Brands International, LLC","3 Landmark Square, Stamford, CT 06901, USA",(203) 348-0030,http://www.tastybite.com/contact-us/,41.0540309,-73.5391834,5.0,2.0,ChIJtUOS3OehwokRXoN5W82B15o,"food, point_of_interest, establishment"
"Shelton, CT",food distributor,retail,,Primo Crust Co,"3 Simm Ln # 5, Newtown, CT 06470, USA",(203) 426-1447,,41.3912932,-73.2885963,5.0,1.0,ChIJ1ZdUS6X854kRTYmBfhwoC8A,"food, point_of_interest, establishment"
"Shelton, CT",food distributor,retail,,New Haven Provision,"850 Foxon Rd, East Haven, CT 06513, USA",(203) 468-7825,,41.321379,-72.8599328,4.6,10.0,ChIJ1_o5YSTX54kRjFuLYzrfMR0,"food, point_of_interest, establishment"
"Shelton, CT",food distributor,retail,445110,GMI European Food Distrs,"27 Woodlawn Rd, Berlin, CT 06037, USA",(860) 828-9744,http://gmifoods.com/,41.6323602,-72.7389999,4.5,8.0,ChIJA2xuVGGz54kRMWW1oZOO_kU,"grocery_or_supermarket, store, food, point_of_interest, establishment"
"Shelton, CT",food distributor,retail,,Rite Portion Meats-Bill Bryand,"226 N Plains Industrial Rd #12, Wallingford, CT 06492, USA",(203) 269-9241,,41.472145,-72.818337,4.8,4.0,ChIJU9izHLvO54kRsnMtOLiZOkE,"food, point_of_interest, establishment"
"Shelton, CT",food distributor,retail,,Carbonella & Desarbo Inc,"50 E Industrial Rd, Branford, CT 06405, USA",(203) 787-1241,https://carbonellaanddesarbo.com/,41.299328,-72.7548489,3.2,73.0,ChIJ5XIjZTjY54kRH7_Qz-YiOMQ,"food, point_of_interest, establishment"
"Shelton, CT",food distributor,retail,,Aurora Products,"205 Edison Rd, Orange, CT 06477, USA",(203) 375-9956,https://www.auroraproduct.com/,41.2615776,-72.9955291,3.9,58.0,ChIJJ3M0AJYN6IkRa7pLjlaLl6c,"food, point_of_interest, establishment"
"Shelton, CT",food distributor,retail,,Calli Brothers Fruit & Produce,"67 Freight St, Waterbury, CT 06702, USA",(203) 754-6874,https://www.callibrothersproduce.com/,41.5557166,-73.0483115,4.0,6.0,ChIJ3bDaUazB54kRnKGz7pd-h3Q,"food, point_of_interest, establishment"
"Shelton, CT",food distributor,retail,445110,Fresh Halal Meat & International Foods,"866 North Ave, Bridgeport, CT 06606, USA",(203) 333-3702,http://www.freshhalalbridgeport.com/,41.1926093,-73.1965058,4.3,62.0,ChIJ5fC_weQO6IkR40mO5MEaX9s,"grocery_or_supermarket, store, food, point_of_interest, establishment"
"Shelton, CT",food distributor,retail,,LC Fine Foods,"305 Food Terminal Plaza, New Haven, CT 06511, USA",(203) 773-3486,https://lcthefinefood.com/,41.2941216,-72.9218913,3.7,3.0,ChIJ5XIjZTjY54kRSxcTYOAlhis,"food, point_of_interest, establishment"
"Shelton, CT",food distributor,retail,,Noack's Meat Products,"1112 E Main St, Meriden, CT 06450, USA",(203) 235-7384,http://www.noacks.com/,41.5262074,-72.7660966,4.9,121.0,ChIJ0c1aiVrK54kRsIeTN6mnAhA,"store, food, point_of_interest, establishment"
"Shelton, CT",food distributor,retail,,Wade's Dairy Inc,"1316 Barnum Ave, Bridgeport, CT 06610, USA",(203) 579-9233,http://www.wadesdairy.com/,41.1864414,-73.1648604,4.3,39.0,ChIJmwP_UzMM6IkRT5zBbN2bBaE,"food, point_of_interest, establishment"
"Shelton, CT",food distributor,retail,,"NECS, Inc.","322 E Main St, Branford, CT 06405, USA",(475) 221-8200,http://www.necs.com/,41.2933807,-72.7868312,3.7,3.0,ChIJXyK1h-kr5okR2n5yWZbbQ68,"food, point_of_interest, establishment"
"Shelton, CT",food distributor,retail,445110,"Pound Ridge Organics Farm, Food CoOp, Market and Teaching Kitchen","22 Westchester Ave, Pound Ridge, NY 10576, USA",(914) 764-3006 ext. 1,http://www.poundridgeorganics.com/,41.1868539,-73.54422389999999,5.0,16.0,ChIJI-dPpROmwokR2ZFnQjeVIqM,"bakery, grocery_or_supermarket, store, food, point_of_interest, establishment"
"Shelton, CT",grocery wholesaler,retail,445110,Grade A Market of Hope Street,"495 Hope St, Stamford, CT 06906, USA",(203) 325-9991,https://shop.shoprite.com/store/4019645,41.0767599,-73.5217728,4.2,485.0,ChIJ79x1Ja-hwokRkB3_AngUT6c,"grocery_or_supermarket, supermarket, bakery, point_of_interest, food, store, establishment"
"Shelton, CT",grocery wholesaler,retail,445110,ShopRite of Cromwell,"45 Shunpike Rd, Cromwell, CT 06416, USA",(860) 613-2063,https://shoprite.com/store/CAF9123797,41.6041365,-72.67849489999999,4.3,748.0,ChIJRwiZ_35L5okRJcHvRke9cFw,"grocery_or_supermarket, supermarket, bakery, point_of_interest, food, store, establishment"
