Location,Search Keyword,Segment,NAICS Code,Business Name,Address,Phone Number,Website,Latitude,Longitude,Rating,User Ratings,Place ID,Types
"Boston, MA",retail food,wholesale,424490,Evidence of Trust: African Wholesale and Retail Store:,"63-65 Poplar St, Roslindale, MA 02131, USA",(781) 492-5463,http://evidenceoftrustafricanmarket.com/,42.2852171,-71.1290288,5.0,29.0,ChIJKW5KsZB744kRRXrtapWv3-w,"restaurant, food, point_of_interest, store, establishment"
"Boston, MA",wholesale,wholesale,424490,Yell-O-Glow Wholesale Distribution,"25 Arlington St, Chelsea, MA 02150, USA",(617) 544-6300,https://yell-o-glow.com/,42.3913283,-71.0420929,4.1,100.0,ChIJIViXFaxx44kRmLoHaYYsLW8,"point_of_interest, food, establishment"
"Boston, MA",wholesale,wholesale,424490,Boston Wholesale Outlet - Cash And Carry,"47 Spruce St, Chelsea, MA 02150, USA",(617) 466-2088,http://www.bostonwholesaleoutlet.com/,42.3936611,-71.04207149999999,4.4,18.0,ChIJq4YHdKxx44kRvCltUeTDgdc,"store, point_of_interest, establishment"
"Boston, MA",wholesale,wholesale,424490,Tesoro Distributors,"155 Market St, Everett, MA 02149, USA",(617) 381-8730,,42.3928238,-71.0513941,3.9,26.0,ChIJlwWbWQdx44kRma7BixlarIY,"point_of_interest, food, establishment"
"Boston, MA",wholesale,wholesale,424490,Heritage Wholesalers,"206 Mystic Ave, Medford, MA 02155, USA",(781) 395-9093,https://www.srsdistribution.com/en/markets/our-brands/HWMED/,42.40823200000001,-71.1033751,4.7,13.0,ChIJaysYBM5244kRUbFY-SGSCy4,"store, point_of_interest, establishment"
"Boston, MA",wholesale,wholesale,424490,Heritage Wholesalers,"33 Union Ave Suite 500, Sudbury, MA 01776, USA",(978) 306-5066,https://www.srsdistribution.com/en/markets/our-brands/HWSUD/,42.3641382,-71.4268336,4.7,14.0,ChIJueWLhtqP44kRH8BqSfO1I8k,"store, point_of_interest, establishment"
"Boston, MA",wholesale,wholesale,424490,MAC Wholesale,"140 Laurel St, East Bridgewater, MA 02333, USA",(508) 378-3500,http://www.macwholesale.net/,42.0262271,-70.978388,4.2,5.0,ChIJ38e-XQ2Q5IkRdjJqtFtAOOQ,"finance, point_of_interest, establishment"
"Boston, MA",wholesale,wholesale,424490,Art Supplies Wholesale,"4 Enon St # 4, Beverly, MA 01915, USA",(978) 922-2420,http://www.allartsupplies.com/,42.5831253,-70.8849115,4.5,160.0,ChIJDcXN490W44kRNrD6DYo3ytI,"store, point_of_interest, establishment"
"Boston, MA",wholesale,wholesale,424490,Mayflower Wholesale Distribution,"15 Marshall St unit m, Canton, MA 02021, USA",(508) 219-2999,https://mayflower-wholesale.myshopify.com/,42.1645839,-71.0725995,5.0,1.0,ChIJjaGFtnuD5IkRGUjLpPRZcUM,"point_of_interest, establishment"
"Boston, MA",wholesale,wholesale,424490,Barusi Wholesalers,"20 City Square, Charlestown, MA 02129, USA",(857) 208-7603,,42.3720217,-71.0611947,5.0,2.0,ChIJB7FNUepx44kRKNgl3i_ep2Q,"point_of_interest, establishment"
"Boston, MA",wholesale,wholesale,424490,"QWD - Quality Wholesaler & Distributor, Inc","350 Beacham St, Chelsea, MA 02150, USA",(617) 884-6899,,42.39484059999999,-71.0482353,4.2,6.0,ChIJMVZMv6lx44kRbsvWDZrzbJY,"point_of_interest, establishment"
"Boston, MA",wholesale,wholesale,424490,Wholesale Exhaust,"185 Lincoln St, Lowell, MA 01852, USA",(978) 453-4783,,42.62739699999999,-71.31735239999999,4.7,63.0,ChIJXcO_oXak44kRA3rVlOTrDFA,"car_repair, point_of_interest, store, establishment"
"Boston, MA",wholesale,wholesale,424490,DFC WHOLESALE INC,"55 Pond St unit 1b, Waltham, MA 02451, USA",(978) 885-0826,https://www.dfc-foods.com/,42.3804345,-71.2380621,4.9,8.0,ChIJcQrBHwCD44kRfcBSgRfutNc,"point_of_interest, establishment"
"Boston, MA",wholesale,wholesale,424490,Weston Nurseries Wholesale,"40 Frankland Rd, Hopkinton, MA 01748, USA",(508) 293-8028,http://www.westonwholesale.com/,42.23976510000001,-71.4986801,4.0,14.0,ChIJ_0aDTsx15IkRB2LCJ2NpcI4,"general_contractor, point_of_interest, store, establishment"
"Boston, MA",wholesale,wholesale,424490,Jacqueline's Wholesale Bakery,"96 Swampscott Rd Unit 1, Salem, MA 01970, USA",(978) 744-8600,,42.4935888,-70.9232142,4.5,44.0,ChIJA2rzXUQT44kR8XRVgiEYVII,"food, point_of_interest, establishment"
"Boston, MA",wholesale,wholesale,424490,"James J Duffy Inc Cigarettes, Zyn, Hostess Wholesale","390 Beacham St, Chelsea, MA 02150, USA",(617) 242-0094,http://www.jamesjduffy.com/,42.3943557,-71.0471465,4.3,36.0,ChIJ4RIAdehw44kRz8bFy55Jwww,"food, point_of_interest, store, establishment"
"Boston, MA",wholesale,wholesale,424490,Northshore Wholesale Marketplace,"6 Bourbon St, Peabody, MA 01960, USA",(978) 536-2600,http://www.nswmarketplace.com/?utm_source=google&utm_medium=organic&utm_campaign=gmb-website,42.54793799999999,-70.9799866,4.3,6.0,ChIJw8EupmoS44kRFkkbiDOCvoE,"furniture_store, home_goods_store, point_of_interest, store, establishment"
"Boston, MA",wholesale,wholesale,424490,Kelley Wholesale Florists,"260 2nd St, Chelsea, MA 02150, USA",(617) 423-5896,http://www.kelleywholesale.com/,42.3965594,-71.0464757,5.0,3.0,ChIJz3ADeGl644kR1-1CPrmHbGA,"point_of_interest, establishment"
"Boston, MA",wholesale,wholesale,424490,Riccardi Wholesale Flowers,"260 2nd St, Chelsea, MA 02150, USA",(617) 482-2853,,42.3963906,-71.0462989,5.0,4.0,ChIJAQAAAGl644kRLJ4PGm7uuPY,"point_of_interest, establishment"
"Boston, MA",wholesale,wholesale,424490,Long Automotive Wholesale Parts,"196 Fountain St, Framingham, MA 01702, USA",(508) 820-9322,http://kingproteinworld.com/,42.2751775,-71.4359418,5.0,5.0,ChIJt2cAd86J44kRjPLr9pXyEY8,"car_repair, point_of_interest, store, establishment"
"Boston, MA",wholesale,wholesale,424490,Brewster Wholesale Corporation,"116 Huntington Ave, Boston, MA 02116, USA",(617) 421-5400,http://www.brewsterwholesale.com/,42.3465172,-71.0797918,,,ChIJk5IjAg5644kR3tweRKhH9K0,"point_of_interest, establishment"
"Boston, MA",wholesale,wholesale,424410,Alaadeen Wholesale Markets,"44 Vine St, Everett, MA 02149, USA",(617) 917-8787,,42.4011078,-71.0479749,4.0,30.0,ChIJwz3ezE1x44kR9zm_3cR3asU,"grocery_or_supermarket, food, point_of_interest, store, establishment"
"Boston, MA",wholesale,wholesale,424490,Recreation Discount Wholesale Inc,"200 Stonewall Blvd #7, Wrentham, MA 02093, USA",(508) 772-7914,http://recdiscount.com/,42.0752143,-71.357818,1.8,16.0,ChIJ-9pMuBRl5IkRjM2c21MspgM,"point_of_interest, establishment"
"Boston, MA",wholesale,wholesale,424490,Ny wholesale,"26 Wood Ave, Mansfield, MA 02048, USA",(617) 615-1555,http://www.abidahinc.com/,42.0294775,-71.22960599999999,4.3,6.0,ChIJ6zmubOtj5IkRxC1aNNWvAPQ,"point_of_interest, establishment"
"Boston, MA",wholesale,wholesale,424410,BJ's Wholesale Club,"278 Middlesex Ave, Medford, MA 02155, USA",(781) 396-0235,https://www.bjs.com/cl/medford/0001/?trc=locl%7Cggmb%7Cweb%7Cxlob%7Cxlob%7Clocdist%7C0001%7Cstore%7C20240816,42.413148,-71.082149,4.0,480.0,ChIJlz_1TT9x44kR_Bo24-VHvns,"gas_station, grocery_or_supermarket, electronics_store, bakery, car_repair, health, food, point_of_interest, store, establishment"
"Boston, MA",wholesale,wholesale,424410,BJ's Wholesale Club,"26 Whittier St, Framingham, MA 01701, USA",(508) 872-2100,https://www.bjs.com/cl/framingham/0047/?trc=locl%7Cggmb%7Cweb%7Cxlob%7Cxlob%7Clocdist%7C0047%7Cstore%7C20240816,42.3068161,-71.3988037,3.7,211.0,ChIJebd6l5GI44kR5F1eJlDBvT4,"grocery_or_supermarket, electronics_store, bakery, car_repair, health, food, point_of_interest, store, establishment"
"Boston, MA",wholesale,wholesale,424410,BJ's Wholesale Club,"688 Providence Hwy, Dedham, MA 02026, USA",(781) 326-2697,https://www.bjs.com/cl/dedham/0101/?trc=locl%7Cggmb%7Cweb%7Cxlob%7Cxlob%7Clocdist%7C0101%7Cstore%7C20240816,42.241883,-71.1741934,3.7,362.0,ChIJbWpRc5N_44kRdOc_RcOtl1s,"liquor_store, grocery_or_supermarket, electronics_store, bakery, car_repair, health, food, point_of_interest, store, establishment"
"Boston, MA",wholesale,wholesale,424410,BJ's Wholesale Club,"5 Ward St, Revere, MA 02151, USA",(781) 808-0040,https://www.bjs.com/cl/revere/0175/?trc=locl%7Cggmb%7Cweb%7Cxlob%7Cxlob%7Clocdist%7C0175%7Cstore%7C20240816,42.4240605,-71.0055009,4.0,368.0,ChIJE8DMIgRy44kRa43B5OlZ0lw,"gas_station, grocery_or_supermarket, electronics_store, bakery, car_repair, health, food, point_of_interest, store, establishment"
"Boston, MA",wholesale,wholesale,424410,BJ's Wholesale Club,"85 Cedar St, Stoneham, MA 02180, USA",(781) 279-1499,https://www.bjs.com/cl/stoneham/0050/?trc=locl%7Cggmb%7Cweb%7Cxlob%7Cxlob%7Clocdist%7C0050%7Cstore%7C20240816,42.4978239,-71.1196298,3.7,295.0,ChIJPZgXfoZ044kRbypZ6rJBDGU,"gas_station, grocery_or_supermarket, electronics_store, bakery, car_repair, health, food, point_of_interest, store, establishment"
"Boston, MA",wholesale,wholesale,424410,BJ's Wholesale Club,"100 Corporate Dr, Franklin, MA 02038, USA",(508) 553-9889,https://www.bjs.com/cl/franklin/0105/?trc=locl%7Cggmb%7Cweb%7Cxlob%7Cxlob%7Clocdist%7C0105%7Cstore%7C20240816,42.0939101,-71.4343201,4.2,467.0,ChIJZxvCtTVu5IkR4ylAuBEjNlc,"gas_station, liquor_store, grocery_or_supermarket, electronics_store, bakery, car_repair, health, food, point_of_interest, store, establishment"
"Boston, MA",wholesale,wholesale,424490,Sullivan Tire Wholesale,"475 Boston Post Rd, Sudbury, MA 01776, USA",(978) 443-0869,http://www.sullivantirewholesale.com/,42.359571,-71.42645759999999,3.5,2.0,ChIJqZ9ZRZOP44kRfE0p5n5aLjM,"point_of_interest, establishment"
"Boston, MA",wholesale,wholesale,424490,21 WHOLESALE DISTRIBUTION INC,"33 Hannon St, Dorchester, MA 02124, USA",(617) 514-4036,http://twentyonewholesale.com/,42.2823464,-71.08494499999999,,,ChIJoUoGmzB744kRqL1GO8EZ29Y,"point_of_interest, establishment"
"Boston, MA",wholesale,wholesale,424490,Colonial Fence Co. Inc. - Fence Contractor | Fencing Installation Company / Wholesale,"32 Pine St, Norfolk, MA 02056, USA",(508) 384-7980,https://www.colonialfences.com/,42.0887191,-71.2954608,4.5,92.0,ChIJsTImEVN75IkRn9RMf35Pqm8,"general_contractor, point_of_interest, store, establishment"
"Boston, MA",wholesale,wholesale,424410,BJ's Wholesale Club,"66 Seyon St, Waltham, MA 02453, USA",(781) 472-3501,https://www.bjs.com/cl/waltham/0205/?trc=locl%7Cggmb%7Cweb%7Cxlob%7Cxlob%7Clocdist%7C0205%7Cstore%7C20240816,42.3697006,-71.2150707,4.1,503.0,ChIJU-Bbk8eC44kRoKm4P8MQccg,"grocery_or_supermarket, electronics_store, bakery, health, food, point_of_interest, store, establishment"
"Boston, MA",distributor,wholesale,424490,J N Kidds Distributors,"830 W Chestnut St, Brockton, MA 02301, USA",(781) 331-7722,https://jnkidds.com/,42.0547338,-71.0502411,4.0,8.0,ChIJC1pzD5ti44kRJxJP_H5DFTU,"point_of_interest, food, establishment"
"Boston, MA",distributor,wholesale,424490,MK Distributors,"34 Cummings Park Dr, Woburn, MA 01801, USA",(781) 305-3182,http://www.mkdistributor.com/,42.4979635,-71.1240238,4.5,12.0,ChIJzdtbmop044kREzgsfKRTdT4,"point_of_interest, establishment"
"Boston, MA",distributor,wholesale,424490,"Schiess Distributors, Inc.","323 Turnpike St #2, Canton, MA 02021, USA",(781) 821-3483,,42.1753763,-71.1125761,3.5,2.0,ChIJV1apY5yB5IkRaB18nhStFQk,"point_of_interest, food, establishment"
"Boston, MA",distributor,wholesale,424480,4M Fruit Distributors,"275 Beacham St, Chelsea, MA 02150, USA",(617) 387-7575,http://4mfruit.com/4mf/contact-us/,42.3952529,-71.0523224,2.2,22.0,ChIJB4awIgdx44kRuV4D3PZ5F_g,"point_of_interest, establishment"
"Boston, MA",distributor,wholesale,424490,Distributor Corporation of New England (DCNE),"767 Eastern Ave, Malden, MA 02148, USA",(800) 347-8804,https://www.dcne.com/,42.4291685,-71.0484278,4.1,47.0,ChIJnaHrFity44kRL3QR4u3ysyI,"point_of_interest, establishment"
"Boston, MA",distributor,wholesale,424490,Atlantic Beverage Distributors,"350 Hopping Brook Rd, Holliston, MA 01746, USA",(508) 665-4272,http://atlanticbeveragedistributors.com/,42.1649625,-71.4638793,4.1,31.0,ChIJq6qqqkGI44kR9o2i_M3zp6U,"point_of_interest, food, establishment"
"Boston, MA",distributor,wholesale,424490,RJ Carbone Wholesale Floral Distributors,"New England Flower Exchange, 260 2nd St, Chelsea, MA 02150, USA",(617) 728-7979,https://www.rjcarbone.com/,42.3958535,-71.0463749,5.0,1.0,ChIJz3ADeGl644kRmDFOor8wfng,"point_of_interest, establishment"
"Boston, MA",distributor,wholesale,424490,Sharon Food Distributors Inc,"1650 Shawsheen St, Tewksbury, MA 01876, USA",(617) 464-1222,http://sharonfoodsboston.com/,42.62015290000001,-71.1855985,4.4,18.0,ChIJAQAAAGt644kRrcWDPLVD5Qw,"point_of_interest, food, establishment"
"Boston, MA",distributor,wholesale,424490,Jomar Distributors Inc,"360 Pleasant St, Watertown, MA 02472, USA",(800) 560-6077,https://store.jomardist.com/,42.3672338,-71.20107999999999,3.9,7.0,ChIJGzJAf6-C44kRCWUQR6NUky4,"point_of_interest, store, establishment"
"Boston, MA",distributor,wholesale,424490,Right Choice Distributors Inc,"226 W Cummings Park, Woburn, MA 01801, USA",(773) 600-0127,http://www.rcdwholesale.com/,42.4983558,-71.12768919999999,4.5,13.0,ChIJT9PYWyZ144kR1kP5aMjr1bM,"point_of_interest, establishment"
"Boston, MA",distributor,wholesale,424490,Distributor Corporation of New England (DCNE),"384 University Ave, Westwood, MA 02090, USA",(800) 959-7278,https://www.dcne.com/,42.198702,-71.15587529999999,3.5,28.0,ChIJ16ODkTeA5IkRIQ7-JiesTPw,"general_contractor, point_of_interest, establishment"
"Boston, MA",distributor,wholesale,424490,Beacon Electrical Distributors,"461 Riverside Ave, Medford, MA 02155, USA",(781) 395-3888,http://www.beaconelectrical.com/,42.4103682,-71.0876625,4.6,16.0,ChIJSd6mGTdx44kRQZWIeA7XqjY,"point_of_interest, store, establishment"
"Boston, MA",distributor,wholesale,424490,M J Pierce Distributor,"23 Shawmut Ave, Danvers, MA 01923, USA",(978) 774-7868,,42.5715469,-70.9891596,,,ChIJ9wgDa_cR44kRGwXqk0AJQV4,"point_of_interest, establishment"
"Boston, MA",distributor,wholesale,424490,"WP Distributor, LLC","215 Williams St, Chelsea, MA 02150, USA",(617) 381-0020,http://www.wpdistributor.com/,42.3928836,-71.04412529999999,4.6,5.0,ChIJ-SL56Dpx44kRwNJ9c6rP2b0,"food, point_of_interest, establishment"
"Boston, MA",distributor,wholesale,424490,Beer Distributors of Massachusetts Inc,"45 School St #4A, Boston, MA 02108, USA",(617) 523-3065,http://www.mabeerdistributors.com/,42.3580781,-71.059341,2.3,3.0,ChIJa04qjoRw44kRJgfZT3oA-HE,"liquor_store, point_of_interest, store, establishment"
"Boston, MA",distributor,wholesale,424490,Imperial Distributors,"725 Main St, Millis, MA 02054, USA",,,42.169674,-71.35534899999999,4.3,3.0,ChIJR4aJDpp75IkRb2t7zwO9cgg,"storage, point_of_interest, establishment"
"Boston, MA",distributor,wholesale,424490,"Fan Distributors, LLC","55 High St STE 3, North Billerica, MA 01862, USA",(978) 663-3959,https://www.fandistributors.net/about-us,42.5827778,-71.2720717,5.0,1.0,ChIJNdZetRd344kRfKxE8hUHA14,"point_of_interest, establishment"
"Boston, MA",distributor,wholesale,424490,Joyride Coffee Distributors (Boston),"108 Clematis Ave, Waltham, MA 02453, USA",(917) 670-3314,https://www.joyridecoffeedistributors.com/joyride-boston-coffee,42.3842495,-71.1991731,3.0,2.0,ChIJxWa_xVCd44kRrBgiIkLV0sE,"food, point_of_interest, store, establishment"
"Boston, MA",distributor,wholesale,424490,Blue Planet Inc (GRANITE-MARBLE-QUARTZ DISTRIBUTOR) - Boston,"135 Oak Hill Way, Brockton, MA 02301, USA",(508) 857-2440,https://blueplanetrocks.com/,42.0517651,-71.00494479999999,5.0,26.0,ChIJbUL4hUyF5IkRNrbiXW62wTI,"point_of_interest, establishment"
"Boston, MA",distributor,wholesale,424490,Northeast Distributors Inc,"210 Essex St # 3, Whitman, MA 02382, USA",(781) 447-0073,https://www.nedinc.com/,42.0907649,-70.9291264,4.7,3.0,ChIJTapOGu2b5IkRILx3VZOcI9M,"point_of_interest, establishment"
"Boston, MA",distributor,wholesale,424490,Jomar Distributors,"50 High St, Woburn, MA 01801, USA",(800) 540-9279,https://www.jomardist.com/,42.4787647,-71.1489026,4.3,7.0,ChIJKSWeuqt144kRt-t_Tok9xoc,"store, point_of_interest, establishment"
"Boston, MA",distributor,wholesale,424490,Seacoast Electronic Distributors,"17 River St, Beverly, MA 01915, USA",(978) 236-1050,http://www.seacoastheatshrink.com/,42.5447022,-70.88644099999999,,,ChIJXcfnIBkU44kRw-pSV7kmQaY,"point_of_interest, establishment"
"Boston, MA",distributor,wholesale,424490,Jomar Distributors Inc,"125 Commerce Way, Dedham, MA 02026, USA",(781) 329-4951,https://www.jomardist.com/,42.243753,-71.1518433,4.5,4.0,ChIJM8vN27F_44kRzi6Rw0h2M0w,"store, point_of_interest, establishment"
"Boston, MA",distributor,wholesale,424490,Distributor Corporation of New England (DCNE),"32 Riverside Dr Unit 2, Pembroke, MA 02359, USA",(774) 773-7650,https://www.dcne.com/,42.1109753,-70.7742936,,,ChIJfZRYLveh5IkRk786DsrfLLE,"point_of_interest, establishment"
"Boston, MA",distributor,wholesale,424490,Jomar Distributors Inc,"34 Blandin Ave, Framingham, MA 01702, USA",(508) 620-8885,https://www.jomardist.com/,42.2766244,-71.4099307,5.0,5.0,ChIJGy3xqtKJ44kRbYymmTUNV1Q,"store, point_of_interest, establishment"
"Boston, MA",distributor,wholesale,424490,Circle Five Distributors Inc,"220 Innovative Way Suite A, Nashua, NH 03062, USA",(978) 885-1714,https://circlefive.shop/,42.7125958,-71.45430929999999,5.0,1.0,ChIJO3pIx7q744kRxOZigbU_EX4,"point_of_interest, establishment"
"Boston, MA",distributor,wholesale,424490,SCP Distributors LLC,"12 Parkwood Dr, Hopkinton, MA 01748, USA",(508) 435-2321,https://www.scppool.com/sales-centers/index.html?z=01748,42.2185156,-71.54212629999999,4.1,9.0,ChIJw0McNJF05IkRXsyVqDEnP04,"store, point_of_interest, establishment"
"Boston, MA",food distributor,wholesale,424490,Land & Sea Provisions | Wholesale Restaurant Food Supplier,"140 Corporate Park Dr, Pembroke, MA 02359, USA",(781) 924-3946,https://www.landseaprovisions.com/,42.1010354,-70.7715782,5.0,7.0,ChIJ__8_yaWh5IkRq57nOkw2A8E,"food, point_of_interest, store, establishment"
"Boston, MA",grocery wholesaler,wholesale,424490,RSTKim Wholesale,"60 Lake St, Winchester, MA 01890, USA",(781) 305-0605,https://www.facebook.com/profile.php?id=61554759660150,42.4559784,-71.14139349999999,,,ChIJs1tEBrh144kRR0nSQL7qMts,"food, point_of_interest, establishment"
"Boston, MA",grocery wholesaler,wholesale,424410,BJ's Wholesale Club,"200 Crown Colony Dr, Quincy, MA 02169, USA",(857) 403-2002,https://www.bjs.com/cl/quincy/0353/?trc=locl%7Cggmb%7Cweb%7Cxlob%7Cxlob%7Clocdist%7C0353%7Cstore%7C20240816,42.2324444,-71.0116625,3.8,284.0,ChIJoY7wptd844kRE5Tbv6O3zck,"gas_station, bakery, grocery_or_supermarket, food, point_of_interest, health, electronics_store, store, establishment"
"Boston, MA",grocery wholesaler,wholesale,424490,Northeast Wholesale Food Distributors Association,"18 Williams Ct, Braintree, MA 02184, USA",(617) 922-4300,http://newfda.org/contact-us/,42.21045669999999,-70.9923331,,,ChIJq6q-9shi44kRchFBWR8SMqI,"point_of_interest, establishment"
"Boston, MA",wholesale grocery,wholesale,424410,BJ's Wholesale Club,"901 Technology Center Dr, Stoughton, MA 02072, USA",(781) 341-3300,https://www.bjs.com/cl/stoughton/0034/?trc=locl%7Cggmb%7Cweb%7Cxlob%7Cxlob%7Clocdist%7C0034%7Cstore%7C20240816,42.1466871,-71.0649629,3.6,290.0,ChIJqW4_ULyD5IkRcuMJW3k5x1E,"gas_station, liquor_store, electronics_store, grocery_or_supermarket, bakery, car_repair, health, food, point_of_interest, store, establishment"
"Boston, MA",wholesale grocery,wholesale,424410,BJ's Wholesale Club,"622 Washington St #53, Weymouth, MA 02188, USA",(781) 335-8500,https://www.bjs.com/cl/weymouth/0018/?trc=locl%7Cggmb%7Cweb%7Cxlob%7Cxlob%7Clocdist%7C0018%7Cstore%7C20240816,42.2060551,-70.9516064,3.7,209.0,ChIJ7fnBKlli44kRvPQYH75xj6k,"electronics_store, grocery_or_supermarket, bakery, health, food, point_of_interest, store, establishment"
"Boston, MA",wholesale grocery,wholesale,424410,BJ's Wholesale Club,"6 Hutchinson Dr, Danvers, MA 01923, USA",(978) 774-7300,https://www.bjs.com/cl/danvers/0030/?trc=locl%7Cggmb%7Cweb%7Cxlob%7Cxlob%7Clocdist%7C0030%7Cstore%7C20240816,42.5516003,-70.9310574,3.9,184.0,ChIJIdhuoOcT44kRIZM6g7bGrxA,"gas_station, electronics_store, grocery_or_supermarket, bakery, car_repair, health, food, point_of_interest, store, establishment"
"Boston, MA",wholesale grocery,wholesale,424490,Massachusetts Wholesale Food Terminal,"129 Newmarket Square, Boston, MA 02118, USA",,,42.3303853,-71.06689109999999,4.9,12.0,ChIJHdEF-kN644kRshLAEmuaXzA,"point_of_interest, establishment"
"Boston, MA",wholesale seafood,wholesale,424490,Boston Wholesale Lobster Corporation,"78 Marine Blvd, Lynn, MA 01905, USA",(781) 592-2000,https://bostonwholesalelobster.com/,42.4533192,-70.9516888,4.3,10.0,ChIJrwrJ0v1s44kRhTM-daCJxZg,"food, point_of_interest, establishment"
"Boston, MA",produce wholesaler,wholesale,424480,Disilva Fruit-Wholesale Facility,"50-51 New England Produce Center, Chelsea, MA 02150, USA",(617) 884-0013,http://arrowfarms.com/,42.39683600000001,-71.053626,1.0,1.0,ChIJ331JA_tx44kRKACFxvcK1Tk,"point_of_interest, establishment"
