Location,Search Keyword,Segment,NAICS Code,Business Name,Address,Phone Number,Website,Latitude,Longitude,Rating,User Ratings,Place ID,Types
"Albany, NY",grocery store,wholesale,424410,BJ's Wholesale Club,"01440 Central Ave, Albany, NY 12205, USA",(518) 438-1400,https://www.bjs.com/cl/albany/0007/?trc=locl%7Cggmb%7Cweb%7Cxlob%7Cxlob%7Clocdist%7C0007%7Cstore%7C20240816,42.7046775,-73.8301832,3.5,314.0,ChIJt7yzG1wL3okRg-1pi6L4OSg,"gas_station, liquor_store, grocery_or_supermarket, electronics_store, bakery, car_repair, health, food, point_of_interest, store, establishment"
"Albany, NY",retail food,wholesale,424490,Sysco Albany - Food Distributor & Restaurant Supplies,"1 Liebich Ln, Clifton Park, NY 12065, USA",(518) 877-3200,https://cloud.email.sysco.com/become-a-customer?utm_medium=googlemybusiness&utm_source=google.com&utm_campaign=gmb_opcopages&utm_content=albany,42.8974767,-73.7681645,2.5,258.0,ChIJp86x8bUV3okRE6Fjy5_omfk,"food, point_of_interest, store, establishment"
"Albany, NY",wholesale,wholesale,424490,Best Value wholesale,"612 Central Ave, Albany, NY 12206, USA",(518) 451-9496,https://www.bestvaluewholesalee.com/,42.6723189,-73.7822408,5.0,3.0,ChIJESai1gQL3okRtmW8uaIKvFg,"point_of_interest, establishment"
"Albany, NY",wholesale,wholesale,424490,Marcone Supply - Wholesale Only,"15 Industrial Park Rd, Albany, NY 12206, USA",(518) 489-3072,http://www.apwagner.com/,42.67715099999999,-73.7728711,3.8,32.0,ChIJ204LH7gL3okRshn_d9GNsNo,"point_of_interest, store, establishment"
"Albany, NY",wholesale,wholesale,424490,Black Horse Farms Wholesale,"155 Fountain Flats Rd, Coxsackie, NY 12051, USA",(518) 755-5289,http://blackhorsewholesale.com/,42.33586,-73.8547342,4.8,15.0,ChIJI1-yVgjA3YkRFNVpX41StwU,"point_of_interest, establishment"
"Albany, NY",wholesale,wholesale,424490,SPECTRUM WHOLESALE,"146 S Central Ave, Mechanicville, NY 12118, USA",(518) 421-2374,,42.8986635,-73.68930259999999,4.2,5.0,ChIJYdAFZLcX3okRq3sd_zDHVp0,"point_of_interest, establishment"
"Albany, NY",wholesale,wholesale,424490,Wholesale Recreation,"25 Walker Way, Colonie, NY 12205, USA",(518) 368-8324,,42.7140965,-73.8443353,3.0,1.0,ChIJnx8W86p03okRt0u_9u5ujIU,"general_contractor, point_of_interest, store, establishment"
"Albany, NY",wholesale,wholesale,424490,B2B Wholesale LLC,"1 Northern Blvd, Amsterdam, NY 12010, USA",(518) 816-9380,,42.95290079999999,-74.1721378,,,ChIJGappLgNh3okRJ1YgC93oDns,"point_of_interest, establishment"
"Albany, NY",wholesale,wholesale,424490,Elhannon Wholesale Nursery,"20716 NY-22, Petersburgh, NY 12138, USA",(518) 686-5553,http://elhannon.com/,42.8442499,-73.33803619999999,4.3,29.0,ChIJma6a80Si4IkRU3Q8wzmjFRA,"point_of_interest, establishment"
"Albany, NY",wholesale,wholesale,424490,Augie's Wholesale Tires,"3922 NY-67, Eagle Bridge, NY 12057, USA",(518) 686-4845,,42.9491157,-73.3934783,4.6,54.0,ChIJr2wzhU6Z4IkRFjBo-RS80e4,"car_repair, point_of_interest, store, establishment"
"Albany, NY",wholesale,wholesale,424490,Cedar Farm Wholesale,"365 Old Post Rd, Ghent, NY 12075, USA",(518) 965-0552,http://www.cedarfarmwholesale.com/?page_id=22,42.3251333,-73.6992008,5.0,2.0,ChIJ-QSlOCft3YkRYXzQYovHRkI,"point_of_interest, establishment"
"Albany, NY",wholesale,wholesale,424410,BJ's Wholesale Club,"70 W Campbell Rd, Rotterdam, NY 12306, USA",(518) 382-1900,https://www.bjs.com/cl/rotterdam/0079/?trc=locl%7Cggmb%7Cweb%7Cxlob%7Cxlob%7Clocdist%7C0079%7Cstore%7C20240816,42.8051774,-73.9959225,3.8,188.0,ChIJ305T0ihw3okRu7jXZzDGnj0,"liquor_store, grocery_or_supermarket, electronics_store, bakery, car_repair, health, food, point_of_interest, store, establishment"
"Albany, NY",wholesale,wholesale,424490,"B & H Wholesale Fence Co, LLC","1900 Maxon Rd Extension, Schenectady, NY 12308, USA",(518) 346-8515,http://bnhfence.com/,42.8320632,-73.9255226,4.1,14.0,ChIJtxyNVcVt3okR1P_XbDMS3o0,"point_of_interest, store, establishment"
"Albany, NY",wholesale,wholesale,424490,New York State Beer Wholesalers Association,"119 Washington Ave #3c, Albany, NY 12210, USA",(518) 465-6115,http://nybeer.org/contact/,42.6554857,-73.76001959999999,5.0,2.0,ChIJvwvnBjAK3okReNiR7TSW4ZE,"point_of_interest, establishment"
"Albany, NY",wholesale,wholesale,424490,Dan Engwer Wholesale Florist,"8620 Miller Hill Rd, Averill Park, NY 12018, USA",(518) 674-5410,https://danengwerwholesaleflorist.com/,42.648818,-73.550726,5.0,1.0,ChIJJ8_P1TYB3okRg-sjBn2sC1E,"point_of_interest, establishment"
"Albany, NY",wholesale,wholesale,424490,The Spa Wholesaler,"1801 5th Ave, Watervliet, NY 12189, USA",(518) 273-7727,http://www.spawholesaleralbany.com/,42.7295723,-73.7049926,5.0,1263.0,ChIJkYoFjzAK3okRIyEYFLWgMfE,"store, point_of_interest, establishment"
"Albany, NY",wholesale,wholesale,424490,Z & H Wholesale,"4 Broadway, Cohoes, NY 12047, USA",(518) 961-3687,,42.7744107,-73.7081613,,,ChIJ052o9dUR3okRsZwOPxOAPOE,"point_of_interest, establishment"
"Albany, NY",wholesale,wholesale,424490,ATA Auto Wholesale,"2525 US-9W, Ravena, NY 12143, USA",(518) 256-7114,http://www.ataautowholesale.com/,42.4641281,-73.8174387,4.5,8.0,ChIJuXgiaurp3YkRSeWvSiHF63I,"car_dealer, store, point_of_interest, establishment"
"Albany, NY",wholesale,wholesale,424490,Keeler Wholesale Bid Auction,"1111 Troy-Schenectady Rd, Latham, NY 12110, USA",(518) 785-4197,https://dealerbidsale.com/portfolio-items/keeler-wholesale-bid-albany-ny/,42.7672816,-73.81292669999999,3.0,2.0,ChIJ2YRZbBMN3okRkdwoTVb7qt8,"car_dealer, store, point_of_interest, establishment"
"Albany, NY",wholesale,wholesale,424490,atowndistributors,"9 Manor St, Albany, NY 12207, USA",,,42.66258699999999,-73.7415664,,,ChIJ-QPQbAAJ3okRGIcB9ax0MyU,"point_of_interest, food, establishment"
"Albany, NY",wholesale,wholesale,424490,Wholesale Motors,"1896 US-9, Castleton-On-Hudson, NY 12033, USA",(518) 477-4100,,42.54510399999999,-73.6724108,5.0,4.0,ChIJywywkVzj3YkRMcqTHMz1YCI,"car_dealer, point_of_interest, store, establishment"
"Albany, NY",wholesale,wholesale,424490,Sid Harvey Industries - HVAC/R Specialist Distributor,"8 Jupiter Ln, Albany, NY 12205, USA",(518) 869-3251,http://www.sidharvey.com/,42.7186465,-73.8388812,4.3,12.0,ChIJCyT_bawM3okR5eMVv5_FOi0,"hardware_store, point_of_interest, store, establishment"
"Albany, NY",wholesale,wholesale,424490,Geno's Wholesale & Retail,"605 23rd St, Watervliet, NY 12189, USA",,,42.7331077,-73.7053698,,,ChIJs2VjX_8O3okR3mJW7pkGWHI,"store, point_of_interest, establishment"
"Albany, NY",wholesale,wholesale,424490,Moore's Wholesale Tire Sales,"4296 Albany St, Albany, NY 12205, USA",(518) 464-5404,http://moorestiresales.com/wholesale-locations,42.72714149999999,-73.8608071,4.0,8.0,ChIJ_UG8XkNz3okRrII1OMzk4Bc,"car_repair, point_of_interest, store, establishment"
"Albany, NY",wholesale,wholesale,424490,Capital District Wholesale,"Country, 7 Interstate Ave, Albany, NY 12305, USA",,http://shopcdw.com/,42.6945583,-73.8141983,,,ChIJeS--omsL3okRRwaarZcWkNY,"point_of_interest, establishment"
"Albany, NY",wholesale,wholesale,424490,NTW - National Tire Wholesale,"95 Post Rd, Albany, NY 12205, USA",(855) 273-0257,http://www.ntw.com/?utm_source=google&utm_medium=maps&utm_campaign=google+maps&y_source=1_OTc0MDMxNi03MTUtbG9jYXRpb24ud2Vic2l0ZQ%3D%3D,42.7200272,-73.8510089,4.0,17.0,ChIJpa3HcDRz3okReOUO2KDnKrQ,"car_repair, point_of_interest, store, establishment"
"Albany, NY",distributor,wholesale,424490,American Tire Distributors,"55 Commerce Ave, Albany, NY 12206, USA",(518) 560-4250,https://www.atd.com/,42.6767768,-73.7754898,4.5,19.0,ChIJZ7k6fbcL3okR7vPIhom8FsA,"storage, point_of_interest, establishment"
"Albany, NY",distributor,wholesale,424490,Sanson Snack Distributors,"45 NY-146, Mechanicville, NY 12118, USA",(518) 665-8318,,42.8861477,-73.7037327,4.3,3.0,ChIJCTktclUW3okRaV8z21GM_-Q,"point_of_interest, food, establishment"
"Albany, NY",distributor,wholesale,424490,National Powersports Distributors,"257 Mansion St, Coxsackie, NY 12051, USA",(518) 731-8118,https://www.nationalpowersports.net/,42.3615495,-73.81956439999999,3.8,48.0,ChIJc_4_lOfr3YkRu5tDCDWFcQY,"point_of_interest, store, establishment"
"Albany, NY",distributor,wholesale,424490,Mastroianni Food Distributor Warehouse,"20 Sam Stratton Rd, Amsterdam, NY 12010, USA",(518) 355-2210,,42.9289803,-74.165264,5.0,6.0,ChIJqU2ZWBhh3okRvHfeQ_N0_VY,"storage, point_of_interest, establishment"
"Albany, NY",distributor,wholesale,424490,Power Distributors,"20 Empire State Blvd, Castleton-On-Hudson, NY 12033, USA",(800) 554-3336,http://www.powerdistributors.com/,42.5750579,-73.6843414,4.1,14.0,ChIJ4_3ltB3j3YkRwtDY9xSBqeA,"point_of_interest, establishment"
"Albany, NY",distributor,wholesale,424490,A-1 Ice Equipment Distributors,"1143 Central Ave, Albany, NY 12205, USA",(518) 459-4775,,42.6915759,-73.8025739,4.7,3.0,ChIJ0VLAFnML3okRMTHt2nQO_mE,"point_of_interest, establishment"
"Albany, NY",distributor,wholesale,424490,SCP Distributors LLC,"308 Old Niskayuna Rd, Latham, NY 12110, USA",(518) 785-1545,http://www.scppool.com/,42.7410085,-73.7928706,4.4,16.0,ChIJzwyd1VUM3okRw-Q1fCD0vb8,"store, point_of_interest, establishment"
"Albany, NY",distributor,wholesale,424490,Bearing Distributors Inc,"1 Spring Ave, Troy, NY 12180, USA",(518) 274-2550,http://www.bdtroy.com/,42.7190504,-73.6833918,,,ChIJby7jixEP3okRjuZ8cxBk4Fw,"point_of_interest, establishment"
"Albany, NY",food distributor,wholesale,424490,Halo Wholesale Food Co,"33 Maiden Ln, Albany, NY 12207, USA",(518) 331-8030,https://halowholesalefood.com/contact,42.6504669,-73.75142269999999,,,ChIJAQAtczkK3okRYLqO9EC2rK4,"restaurant, food, point_of_interest, establishment"
